     3.02           OBSERVATION DATA    M: Mixed            RINEX VERSION / TYPE
CHC                 CHC                 20191101 004712 UTC PGM / RUN BY / DATE 
D068                                                        MARKER NAME         
D068                                                        MARKER NUMBER       
CHC                 CHC                                     OBSERVER / AGENCY   
3206138             CHC I50             1.0.40              REC # / TYPE / VERS 
3206138             CHCI50                                  ANT # / TYPE        
 -2221411.5237  4994109.5736  3276118.2317                  APPROX POSITION XYZ 
        1.6567        0.0000        0.0000                  ANTENNA: DELTA H/E/N
HUACE ANT PHASECENTER                                       COMMENT             
G   12 C1C L1C D1C S1C C2P L2P D2P S2P C5I L5I D5I S5I      SYS / # / OBS TYPES 
R    8 C1C L1C D1C S1C C2P L2P D2P S2P                      SYS / # / OBS TYPES 
C   12 C1I L1I D1I S1I C7I L7I D7I S7I C6I L6I D6I S6I      SYS / # / OBS TYPES 
    10.000                                                  INTERVAL            
  2019    11     1     0    48    0.0000000     GPS         TIME OF FIRST OBS   
G                                                           SYS / PHASE SHIFT   
R                                                           SYS / PHASE SHIFT   
C                                                           SYS / PHASE SHIFT   
 C1C    0.000 C1P    0.000 C2C    0.000 C2P    0.000        GLONASS COD/PHS/BIS 
                                                            END OF HEADER       
> 2019 11  1  0 48  0.0000000  0 27
G02  21563760.267   113318324.361         776.360          49.250    21563756.814    88299999.300         605.294          41.500           0.000           0.000           0.000           0.000  
G05  21129895.412   111038347.444        1680.129          51.500    21129894.607    86523398.016        1309.203          43.000           0.000           0.000           0.000           0.000  
G06  21761616.468   114358063.861       -1195.524          48.500    21761617.891    89110199.927        -931.683          41.000    21761674.376    85397483.572        -892.754          54.000  
G09  23232158.455   122085819.654       -1830.742          40.250    23232158.832    95131835.664       -1427.398          27.750    23232215.549    91168203.378       -1367.214          48.750  
G12  22487526.211   118172746.163       -1611.780          48.500    22487525.130    92082665.451       -1256.360          37.250           0.000           0.000           0.000           0.000  
G17  23150112.317   121654661.140       -3094.313          38.250    23150113.682    94795892.639       -2412.380          28.750           0.000           0.000           0.000           0.000  
G19  22022108.195   115726960.830       -2834.730          45.250    22022106.819    90176879.686       -2208.925          37.750           0.000           0.000           0.000           0.000  
G25  23974674.772   125987757.179         471.643          44.500    23974676.744    98172310.235         367.536          32.250    23974731.393    94081999.247         351.996          47.500  
R02  20901005.977   111531770.953       -3191.165          49.250    20901023.264    86747002.557       -2481.169          45.000  
R03  19230241.799   102940989.141         645.926          53.250    19230260.410    80065287.621         503.169          51.500  
R17  20232058.007   108265822.558       -1014.164          53.250    20232075.392    84206828.688        -788.303          49.750  
R18  20248635.850   108088587.767        1957.073          53.000    20248653.011    84068975.663        1522.911          48.500  
C01  37442143.315   194971061.036         -87.792          43.500    37442152.413   150764044.548         -67.807          49.250    37442143.630   158429962.006         -71.281          44.250  
C02  37391713.033   194708449.247         -28.347          43.000    37391723.126   150560987.777         -21.939          49.750    37391714.073   158216578.204         -23.200          42.750  
C03  36666062.824   190929804.004         -70.876          47.250    36666074.430   147639093.056         -54.611          50.500    36666064.213   155146116.123         -57.541          44.750  
C04  38793641.279   202008659.136         -73.117          41.250    38793652.966   156205965.015         -56.522          48.500    38793642.575   164148598.278         -59.457          43.250  
C05  39396676.937   205148824.437         -32.749          35.250    39396689.295   158634156.570         -25.322          40.000    39396679.713   166700245.676         -26.375          35.000  
C06  37820677.521   196942187.528        1434.295          43.250    37820689.858   152288244.383        1109.123          48.750    37820677.407   160031664.173        1165.384          43.500  
C08  36655529.658   190874959.413         222.574          46.000    36655540.808   147596672.151         171.943          51.750    36655528.720   155101537.516         180.802          47.250  
C09  39792316.651   207209033.296        1470.197          37.750    39792331.262   160227225.967        1136.773          42.250    39792317.771   168374326.661        1194.552          38.000  
C13  36862511.186   191952767.919         255.899          48.750    36862528.797   148430128.984         197.819          49.500    36862517.492   155977368.468         208.057          47.500  
C16  38508638.398   200524585.482        1587.703          45.500    38508655.517   155058399.728        1227.561          47.250    38508641.409   162942666.501        1290.087          41.750  
C20  22874093.561   119111405.849        2081.084          51.500           0.000           0.000           0.000           0.000    22874090.283    96787765.726        1691.005          49.500  
C27  23256366.617   121101998.343       -1974.807          50.250           0.000           0.000           0.000           0.000    23256372.566    98405320.460       -1604.757          48.750  
C29  24628242.624   128245714.567        2698.938          44.000           0.000           0.000           0.000           0.000    24628244.556   104210162.028        2193.155          44.250  
C30  21619937.199   112580684.758         668.594          52.750           0.000           0.000           0.000           0.000    21619943.940    91481056.178         543.288          51.250  
C32  22007528.837   114598976.359        -897.423          51.750           0.000           0.000           0.000           0.000    22007535.863    93121087.198        -729.136          51.250  
> 2019 11  1  0 48 10.0000000  0 27
G02  21562174.969   113309993.385         775.108          48.750    21562171.654    88293507.640         604.207          41.500           0.000           0.000           0.000           0.000  
G05  21126593.635   111020996.460        1675.271          51.500    21126592.420    86509877.758        1305.708          42.250           0.000           0.000           0.000           0.000  
G06  21763783.880   114369454.027       -1197.470          48.750    21763785.374    89119075.377        -932.992          40.500    21763841.971    85405989.215        -894.242          54.000  
G09  23235538.765   122103582.081       -1836.617          38.750    23235538.942    95145676.517       -1431.602          27.750    23235595.767    91181467.517       -1371.472          49.000  
G12  22490489.667   118188318.741       -1617.390          48.500    22490488.256    92094799.936       -1260.243          35.750           0.000           0.000           0.000           0.000  
G17  23155895.181   121685047.869       -3097.871          39.750    23155896.258    94819570.587       -2413.835          29.000           0.000           0.000           0.000           0.000  
G19  22027397.802   115754757.654       -2839.330          45.500    22027396.361    90198539.530       -2212.218          38.000           0.000           0.000           0.000           0.000  
G25  23973674.496   125982500.134         465.084          43.750    23973676.281    98168213.782         362.238          30.000    23973731.021    94078073.544         347.312          46.250  
R02  20906879.786   111563116.495       -3194.849          49.750    20906897.216    86771382.451       -2485.336          45.750  
R03  19228933.422   102933980.698         638.754          53.250    19228952.051    80059836.638         496.138          52.000  
R17  20233846.967   108275399.924       -1017.988          53.250    20233865.113    84214277.767        -792.515          49.750  
R18  20244862.344   108068441.407        1955.350          53.250    20244878.870    84053306.290        1520.337          48.500  
C01  37442202.976   194971370.816         -88.113          43.750    37442211.778   150764284.095         -68.118          49.000    37442202.848   158430213.729         -71.534          44.250  
C02  37391658.306   194708164.386         -28.706          43.750    37391668.304   150560767.492         -22.128          49.500    37391659.558   158216346.747         -23.289          43.000  
C03  36666089.844   190929944.039         -71.225          47.250    36666101.417   147639201.349         -55.048          50.250    36666091.333   155146229.914         -57.935          45.000  
C04  38793671.848   202008821.416         -73.175          41.250    38793684.545   156206090.498         -56.757          48.750    38793674.099   164148730.140         -59.677          43.750  
C05  39396630.706   205148582.267         -33.256          35.000    39396643.086   158633969.280         -25.412          40.000    39396632.982   166700048.849         -26.886          34.750  
C06  37817815.231   196927281.790        1433.163          43.750    37817827.340   152276718.328        1108.171          49.000    37817814.637   160019552.042        1164.377          43.500  
C08  36654992.424   190872163.543         222.788          46.000    36655003.845   147594510.202         172.196          51.750    36654991.913   155099265.635         180.998          47.250  
C09  39789384.517   207193764.675        1470.180          37.000    39789399.673   160215419.319        1136.381          42.500    39789386.100   168361919.673        1194.078          38.000  
C13  36861909.910   191949636.764         256.344          48.750    36861927.747   148427707.782         198.139          49.500    36861915.951   155974824.152         208.356          47.250  
C16  38505480.999   200508143.935        1586.771          45.750    38505498.322   155045686.096        1226.941          47.250    38505484.125   162929306.425        1289.095          42.250  
C20  22869991.406   119090045.790        2076.972          51.250           0.000           0.000           0.000           0.000    22869988.292    96770408.923        1687.691          49.500  
C27  23260052.739   121121192.808       -1978.081          50.000           0.000           0.000           0.000           0.000    23260058.817    98420917.523       -1607.504          48.750  
C29  24622950.233   128218159.165        2698.146          43.750           0.000           0.000           0.000           0.000    24622953.524   104187771.025        2192.361          44.500  
C30  21618547.383   112573448.063         664.743          52.500           0.000           0.000           0.000           0.000    21618554.248    91475175.768         540.134          51.500  
C32  22009147.442   114607403.573        -902.103          52.000           0.000           0.000           0.000           0.000    22009154.395    93127934.998        -732.957          51.250  
> 2019 11  1  0 48 20.0000000  0 27
G02  21560591.462   113301672.732         775.182          48.500    21560588.388    88287024.009         604.260          41.000           0.000           0.000           0.000           0.000  
G05  21123300.620   111003691.770        1671.785          51.500    21123299.432    86496393.587        1302.838          42.250           0.000           0.000           0.000           0.000  
G06  21765954.568   114380862.177       -1198.053          48.000    21765956.660    89127964.836        -933.667          40.250    21766012.974    85414508.294        -894.643          53.750  
G09  23238929.433   122121401.360       -1840.970          37.500    23238930.172    95159561.666       -1434.655          27.500    23238987.111    91194774.103       -1374.654          49.000  
G12  22493462.954   118203943.450       -1621.436          48.500    22493461.649    92106975.039       -1263.133          35.500           0.000           0.000           0.000           0.000  
G17  23161684.497   121715467.939       -3099.911          40.000    23161683.928    94843274.513       -2415.779          28.750           0.000           0.000           0.000           0.000  
G19  22032695.332   115782596.248       -2842.253          45.250    22032694.138    90220231.928       -2214.389          37.750           0.000           0.000           0.000           0.000  
G25  23972685.418   125977304.512         460.206          43.000    23972687.354    98164165.282         358.846          30.750    23972743.756    94074193.701         343.543          48.500  
R02  20912763.391   111594513.533       -3199.646          48.750    20912780.964    86795802.356       -2488.603          45.250  
R03  19227640.051   102927059.354         630.441          53.000    19227659.065    80054453.358         490.241          51.750  
R17  20235646.269   108285030.171       -1022.814          52.500    20235664.594    84221767.946        -795.768          49.500  
R18  20241093.970   108048325.386        1952.939          53.000    20241110.388    84037660.495        1518.811          48.500  
C01  37442263.166   194971682.888         -86.894          44.000    37442271.888   150764525.415         -67.241          49.000    37442263.201   158430467.327         -70.661          44.000  
C02  37391603.718   194707881.916         -27.496          43.250    37391614.067   150560549.083         -21.358          50.000    37391605.240   158216117.219         -22.352          43.000  
C03  36666117.004   190930086.481         -70.221          47.250    36666128.861   147639311.495         -54.279          50.250    36666118.331   155146345.654         -57.108          44.750  
C04  38793703.332   202008986.026         -72.316          40.750    38793715.969   156206217.807         -55.918          48.500    38793705.558   164148863.903         -58.792          43.000  
C05  39396584.236   205148342.522         -31.911          35.750    39396596.761   158633783.892         -24.681          41.500    39396587.450   166699854.013         -25.626          36.750  
C06  37814954.535   196912386.523        1433.179          43.500    37814966.181   152265200.357        1108.294          48.500    37814954.491   160007448.402        1164.696          43.500  
C08  36654455.248   190869363.816         224.449          46.000    36654466.214   147592345.268         173.578          51.250    36654454.156   155096990.619         182.387          47.250  
C09  39786452.918   207178498.006        1470.999          38.000    39786467.934   160203614.143        1137.394          42.500    39786455.006   168349514.235        1195.379          38.500  
C13  36861307.633   191946500.787         258.140          48.500    36861325.625   148425282.852         199.523          49.500    36861313.913   155972275.921         209.611          47.250  
C16  38502325.406   200491711.485        1587.045          45.500    38502342.346   155032979.479        1227.141          47.000    38502328.513   162915953.694        1289.670          42.250  
C20  22865897.251   119068726.003        2074.335          51.000           0.000           0.000           0.000           0.000    22865894.123    96753084.863        1685.579          49.500  
C27  23263745.327   121140421.441       -1980.318          49.500           0.000           0.000           0.000           0.000    23263751.952    98436542.375       -1609.333          49.000  
C29  24617659.720   128190611.445        2698.608          43.000           0.000           0.000           0.000           0.000    24617663.860   104165386.247        2192.791          45.250  
C30  21617165.166   112566249.843         662.121          52.750           0.000           0.000           0.000           0.000    21617171.793    91469326.621         538.053          51.000  
C32  22010774.767   114615877.720        -905.543          52.000           0.000           0.000           0.000           0.000    22010781.887    93134820.939        -735.872          51.250  
> 2019 11  1  0 48 30.0000000  0 27
G02  21559009.964   113293361.585         774.743          48.750    21559006.687    88280547.795         603.887          41.750           0.000           0.000           0.000           0.000  
G05  21120016.226   110986432.531        1667.737          51.000    21120014.527    86482944.829        1299.617          40.750           0.000           0.000           0.000           0.000  
G06  21768128.716   114392287.554       -1199.321          47.500    21768130.673    89136867.731        -934.221          40.000    21768187.542    85423040.210        -895.535          54.000  
G09  23242330.788   122139276.614       -1846.015          37.750    23242332.433    95173490.422       -1437.796          28.750    23242388.799    91208122.504       -1378.552          49.000  
G12  22496446.238   118219619.378       -1626.037          48.500    22496444.525    92119190.030       -1266.934          36.250           0.000           0.000           0.000           0.000  
G17  23167479.829   121745920.427       -3102.712          39.750    23167478.714    94867003.686       -2417.634          27.500           0.000           0.000           0.000           0.000  
G19  22038000.519   115810475.739       -2845.956          45.250    22037999.365    90241956.200       -2217.754          37.500           0.000           0.000           0.000           0.000  
G25  23971707.780   125972169.503         454.699          45.000    23971710.542    98160163.947         354.445          31.750    23971766.898    94070359.076         339.624          47.500  
R02  20918656.113   111625961.384       -3204.021          48.250    20918674.295    86820261.796       -2491.868          45.000  
R03  19226362.304   102920224.157         622.239          53.000    19226380.584    80049137.106         483.976          52.250  
R17  20237455.833   108294712.556       -1027.737          52.250    20237474.015    84229298.689        -799.365          49.750  
R18  20237331.257   108028238.871        1950.221          53.250    20237348.105    84022037.629        1517.049          48.250  
C01  37442323.532   194971996.464         -86.846          43.750    37442332.259   150764767.881         -67.058          49.000    37442323.557   158430722.128         -70.463          44.250  
C02  37391550.208   194707601.095         -27.532          43.500    37391560.709   150560331.914         -21.174          50.250    37391551.315   158215889.020         -22.251          43.250  
C03  36666144.621   190930230.558         -69.971          47.000    36666156.759   147639422.892         -54.140          50.000    36666146.138   155146462.722         -56.792          45.000  
C04  38793735.820   202009152.230         -72.222          41.000    38793747.998   156206346.316         -55.730          48.250    38793737.188   164148998.953         -58.549          43.250  
C05  39396538.527   205148104.391         -31.582          35.750    39396551.805   158633599.756         -24.699          40.250    39396541.673   166699660.499         -25.185          36.500  
C06  37812095.866   196897500.969        1432.697          43.500    37812108.454   152253689.912        1107.833          48.750    37812096.004   159995352.692        1164.082          43.250  
C08  36653916.604   190866559.313         225.155          46.250    36653927.924   147590176.637         174.192          51.500    36653915.326   155094711.731         183.110          47.250  
C09  39783521.342   207163232.475        1471.156          38.250    39783536.523   160191809.881        1137.300          42.750    39783523.622   168337109.768        1195.332          39.000  
C13  36860704.390   191943358.992         259.012          48.750    36860722.132   148422853.419         200.341          49.000    36860710.430   155969722.961         210.573          47.250  
C16  38499171.525   200475287.339        1586.492          45.500    38499188.642   155020279.282        1226.886          47.000    38499174.120   162902607.731        1289.386          42.500  
C20  22861810.310   119047445.770        2070.698          51.000           0.000           0.000           0.000           0.000    22861807.354    96735792.932        1682.567          49.500  
C27  23267444.080   121159683.431       -1983.230          49.500           0.000           0.000           0.000           0.000    23267451.030    98452194.303       -1611.521          48.750  
C29  24612370.463   128163070.598        2698.317          43.500           0.000           0.000           0.000           0.000    24612374.931   104143007.063        2192.653          45.250  
C30  21615789.918   112559089.329         658.873          52.500           0.000           0.000           0.000           0.000    21615796.636    91463508.119         535.412          50.750  
C32  22012411.240   114624397.935        -909.638          52.250           0.000           0.000           0.000           0.000    22012418.308    93141744.314        -739.176          51.500  
> 2019 11  1  0 48 40.0000000  0 27
G02  21557430.341   113285060.196         774.189          48.750    21557426.867    88274079.162         603.294          41.750           0.000           0.000           0.000           0.000  
G05  21116740.511   110969218.950        1663.620          50.750    21116739.175    86469531.643        1296.068          41.000           0.000           0.000           0.000           0.000  
G06  21770306.191   114403730.305       -1200.418          47.750    21770308.131    89145784.145        -936.092          40.250    21770364.986    85431585.130        -896.502          53.750  
G09  23245743.015   122157207.981       -1851.318          37.250    23245744.808    95187462.930       -1443.006          30.000    23245801.444    91221512.799       -1382.483          49.000  
G12  22499439.442   118235346.687       -1630.706          48.750    22499437.322    92131445.080       -1270.880          36.000           0.000           0.000           0.000           0.000  
G17  23173280.944   121776405.370       -3105.429          40.500    23173279.210    94890758.210       -2419.852          28.250           0.000           0.000           0.000           0.000  
G19  22043313.377   115838396.254       -2849.483          45.250    22043312.104    90263712.429       -2220.625          38.000           0.000           0.000           0.000           0.000  
G25  23970741.976   125967095.296         449.063          44.250    23970744.017    98156210.006         349.637          32.000    23970801.003    94066569.935         335.245          46.750  
R02  20924558.722   111657459.665       -3208.622          48.500    20924577.324    86844760.472       -2495.577          45.250  
R03  19225101.634   102913475.450         614.549          53.250    19225120.424    80043888.128         477.583          52.250  
R17  20239274.738   108304447.156       -1031.841          51.500    20239293.323    84236870.044        -803.008          50.000  
R18  20233574.116   108008182.137        1948.121          53.250    20233591.018    84006437.965        1514.912          48.750  
C01  37442384.178   194972311.685         -86.450          44.250    37442393.070   150765011.641         -66.973          49.250    37442384.126   158430978.268         -70.217          44.000  
C02  37391496.613   194707322.058         -27.101          43.500    37391506.958   150560116.151         -20.957          50.000    37391497.668   158215662.270         -22.082          42.500  
C03  36666172.356   190930376.423         -69.659          47.250    36666184.554   147639535.691         -53.811          50.500    36666174.315   155146581.245         -56.531          44.750  
C04  38793768.143   202009320.148         -71.965          41.500    38793780.183   156206476.139         -55.574          48.000    38793769.757   164149135.410         -58.512          43.500  
C05  39396493.046   205147868.081         -31.559          36.000    39396505.946   158633417.034         -24.275          40.750    39396496.293   166699468.513         -25.686          37.000  
C06  37809239.284   196882625.322        1432.229          43.500    37809252.113   152242187.129        1107.402          49.000    37809239.031   159983265.012        1163.778          43.500  
C08  36653377.179   190863750.257         226.250          47.000    36653388.532   147588004.498         174.896          51.250    36653375.678   155092429.157         183.778          47.000  
C09  39780590.012   207147968.234        1471.721          38.250    39780606.226   160180006.598        1137.856          43.250    39780591.875   168324706.348        1195.422          38.250  
C13  36860099.863   191940211.686         260.101          48.750    36860118.042   148420419.723         200.952          49.500    36860105.937   155967165.500         211.477          47.250  
C16  38496018.743   200458871.690        1586.376          45.500    38496036.045   155007585.671        1226.370          47.000    38496021.839   162889268.679        1288.924          42.500  
C20  22857731.245   119026205.269        2067.049          50.750           0.000           0.000           0.000           0.000    22857728.338    96718533.285        1679.730          49.750  
C27  23271149.503   121178978.957       -1986.309          49.000           0.000           0.000           0.000           0.000    23271156.299    98467873.490       -1613.957          49.250  
C29  24607084.099   128135536.960        2698.077          43.750           0.000           0.000           0.000           0.000    24607087.320   104120633.709        2192.497          45.750  
C30  21614422.011   112551966.788         655.435          52.500           0.000           0.000           0.000           0.000    21614429.007    91457720.469         532.592          51.000  
C32  22014056.079   114632964.385        -913.897          52.250           0.000           0.000           0.000           0.000    22014063.067    93148705.255        -742.636          51.250  
> 2019 11  1  0 48 50.0000000  0 27
G02  21555852.373   113276767.866         773.433          49.000    21555849.085    88267617.611         602.438          41.750           0.000           0.000           0.000           0.000  
G05  21113473.314   110952050.358        1659.349          50.750    21113471.880    86456153.515        1292.680          40.750           0.000           0.000           0.000           0.000  
G06  21772486.772   114415189.855       -1202.080          47.750    21772488.901    89154713.664        -936.530          39.750    21772545.724    85440142.579        -897.811          53.750  
G09  23249165.877   122175194.775       -1856.666          38.000    23249167.431    95201478.581       -1446.286          29.500    23249223.991    91234944.505       -1386.654          49.250  
G12  22502442.018   118251124.616       -1635.593          48.750    22502439.895    92143739.560       -1274.690          36.750           0.000           0.000           0.000           0.000  
G17  23179088.320   121806922.174       -3108.613          41.250    23179085.932    94914537.495       -2422.565          27.500           0.000           0.000           0.000           0.000  
G19  22048634.082   115866357.151       -2853.499          44.750    22048632.548    90285500.127       -2223.310          37.250           0.000           0.000           0.000           0.000  
G25  23969787.701   125962081.284         443.126          44.000    23969788.635    98152303.010         344.527          30.250    23969846.616    94062825.706         330.835          47.500  
R02  20930470.978   111689007.841       -3213.517          48.500    20930489.303    86869297.912       -2499.317          45.000  
R03  19223858.210   102906812.528         605.762          53.000    19223876.857    80038705.838         471.063          52.000  
R17  20241103.416   108314233.533       -1037.561          51.000    20241122.949    84244481.641        -806.994          50.750  
R18  20229821.762   107988154.698        1945.091          52.250    20229839.299    83990861.040        1512.864          48.750  
C01  37442444.894   194972627.918         -86.662          44.250    37442453.479   150765256.173         -67.151          49.250    37442445.197   158431235.244         -70.556          44.250  
C02  37391443.280   194707044.118         -27.167          43.750    37391453.508   150559901.213         -21.002          50.000    37391444.654   158215436.417         -22.040          43.000  
C03  36666200.697   190930523.459         -69.658          47.250    36666212.719   147639649.401         -53.904          50.000    36666202.150   155146700.731         -56.570          44.750  
C04  38793800.399   202009489.199         -71.996          40.500    38793812.564   156206606.863         -55.596          48.000    38793802.004   164149272.763         -58.460          43.250  
C05  39396447.829   205147632.969         -31.585          36.500    39396461.364   158633235.199         -24.353          41.000    39396451.067   166699277.446         -25.410          36.750  
C06  37806383.922   196867758.994        1431.187          43.250    37806396.425   152230691.536        1106.605          49.250    37806383.837   159971184.896        1162.839          43.250  
C08  36652836.792   190860936.007         226.856          46.750    36652847.423   147585828.373         175.246          51.000    36652835.264   155090142.367         184.243          46.750  
C09  39777658.852   207132704.759        1471.586          39.000    39777674.809   160168203.918        1137.649          43.250    39777660.788   168312303.489        1196.017          38.250  
C13  36859494.242   191937058.347         260.802          48.500    36859512.352   148417981.354         201.578          49.250    36859500.394   155964603.170         211.868          47.500  
C16  38492867.449   200442463.955        1585.392          45.500    38492885.300   154994898.163        1225.829          47.250    38492870.701   162875936.052        1288.281          42.000  
C20  22853659.669   119005003.949        2063.139          50.750           0.000           0.000           0.000           0.000    22853657.138    96701305.478        1676.457          49.500  
C27  23274861.359   121198307.376       -1989.416          49.000           0.000           0.000           0.000           0.000    23274867.981    98483579.419       -1616.587          48.750  
C29  24601797.709   128108009.840        2697.574          43.750           0.000           0.000           0.000           0.000    24601801.162   104098265.704        2191.798          45.500  
C30  21613061.372   112544881.624         651.787          52.250           0.000           0.000           0.000           0.000    21613068.238    91451963.195         529.460          50.750  
C32  22015709.792   114641576.359        -918.429          52.000           0.000           0.000           0.000           0.000    22015716.790    93155703.187        -746.365          51.250  
> 2019 11  1  0 49  0.0000000  0 27
G02  21554275.511   113268481.806         773.209          49.000    21554272.212    88261160.942         602.141          41.750           0.000           0.000           0.000           0.000  
G05  21110214.187   110934924.003        1655.521          50.250    21110212.808    86442808.308        1289.789          41.000           0.000           0.000           0.000           0.000  
G06  21774670.293   114426663.340       -1203.049          47.750    21774672.298    89163654.033        -937.484          40.500    21774728.965    85448710.431        -898.453          53.750  
G09  23252598.855   122193234.014       -1861.453          39.000    23252600.550    95215535.153       -1450.463          29.750    23252657.168    91248415.378       -1390.156          50.000  
G12  22505453.461   118266950.304       -1639.957          48.250    22505451.810    92156071.254       -1278.356          36.000           0.000           0.000           0.000           0.000  
G17  23184902.052   121837467.862       -3111.057          41.750    23184899.978    94938339.380       -2424.167          25.750           0.000           0.000           0.000           0.000  
G19  22053961.893   115894355.451       -2856.620          44.750    22053960.359    90307316.971       -2225.934          36.750           0.000           0.000           0.000           0.000  
G25  23968844.480   125957124.544         437.923          43.250    23968846.494    98148440.581         340.876          29.750    23968902.359    94059124.242         326.832          46.750  
R02  20936392.236   111720602.986       -3218.110          49.750    20936410.328    86893871.894       -2502.690          44.750  
R03  19222629.392   102900232.579         597.475          53.250    19222647.824    80033588.095         464.953          52.250  
R17  20242941.695   108324068.612       -1042.518          51.250    20242961.246    84252131.126        -810.445          50.500  
R18  20226074.909   107968153.843        1942.465          53.000    20226092.499    83975304.806        1511.159          48.750  
C01  37442505.188   194972942.438         -85.955          44.500    37442513.879   150765499.362         -66.377          49.000    37442505.300   158431490.809         -69.784          44.000  
C02  37391389.286   194706764.482         -26.568          43.500    37391399.412   150559684.980         -20.453          49.750    37391390.464   158215209.157         -21.397          43.000  
C03  36666228.728   190930668.834         -68.934          47.250    36666240.685   147639761.804         -53.386          50.250    36666230.278   155146818.861         -56.000          44.750  
C04  38793832.549   202009656.474         -70.967          41.000    38793844.394   156206736.214         -54.961          48.250    38793834.325   164149408.684         -57.742          43.500  
C05  39396402.543   205147396.118         -30.533          36.500    39396415.140   158633052.069         -23.733          41.500    39396405.116   166699085.031         -24.810          36.250  
C06  37803530.601   196852899.125        1431.070          44.000    37803543.086   152219200.939        1106.712          49.000    37803530.198   159959110.037        1162.703          43.500  
C08  36652294.452   190858113.785         228.166          46.750    36652305.879   147583646.034         176.398          51.250    36652293.269   155087849.069         185.351          46.750  
C09  39774727.761   207117439.188        1472.035          39.250    39774742.246   160156399.605        1138.570          42.500    39774728.679   168299898.975        1196.178          37.500  
C13  36858886.871   191933895.934         262.206          48.750    36858905.006   148415535.973         202.910          48.750    36858893.121   155962033.448         212.891          47.250  
C16  38489717.720   200426061.270        1585.469          45.000    38489735.333   154982214.572        1226.115          47.250    38489720.713   162862607.520        1288.321          42.000  
C20  22849595.455   118983838.940        2060.112          51.250           0.000           0.000           0.000           0.000    22849592.812    96684107.183        1673.955          49.750  
C27  23278578.825   121217665.822       -1991.865          49.000           0.000           0.000           0.000           0.000    23278584.893    98499309.734       -1618.534          48.250  
C29  24596511.344   128080486.517        2697.805          43.000           0.000           0.000           0.000           0.000    24596515.615   104075900.759        2192.070          44.500  
C30  21611707.162   112537831.035         648.813          52.250           0.000           0.000           0.000           0.000    21611714.334    91446234.005         527.162          51.000  
C32  22017372.052   114650230.962        -922.128          52.500           0.000           0.000           0.000           0.000    22017378.838    93162735.757        -749.344          51.250  
> 2019 11  1  0 49 10.0000000  0 27
G02  21552701.168   113260208.511         772.069          48.750    21552698.078    88254714.219         601.271          41.500           0.000           0.000           0.000           0.000  
G05  21106964.191   110917846.342        1650.696          50.500    21106963.145    86429501.035        1286.383          40.750           0.000           0.000           0.000           0.000  
G06  21776857.349   114438157.298       -1205.132          47.500    21776859.505    89172610.367        -938.722          40.000    21776916.358    85457293.570        -899.779          53.750  
G09  23256042.488   122211332.225       -1867.239          37.750    23256044.360    95229637.655       -1454.511          29.500    23256101.040    91261930.259       -1394.331          49.500  
G12  22508475.187   118282830.114       -1645.211          48.500    22508473.258    92168445.138       -1282.265          36.250           0.000           0.000           0.000           0.000  
G17  23190721.184   121868048.927       -3114.648          41.000    23190719.301    94962168.742       -2427.569          26.750           0.000           0.000           0.000           0.000  
G19  22059298.641   115922397.672       -2861.106          45.250    22059296.623    90329168.044       -2229.684          37.000           0.000           0.000           0.000           0.000  
G25  23967913.286   125952231.597         431.529          43.000    23967915.560    98144627.920         335.749          28.250    23967971.194    94055470.412         322.278          48.000  
R02  20942323.430   111752251.439       -3223.764          49.250    20942341.155    86918487.373       -2506.844          45.000  
R03  19221415.721   102893741.965         588.444          53.750    19221434.171    80028539.862         457.967          51.750  
R17  20244790.090   108333959.262       -1047.908          51.250    20244809.802    84259823.846        -814.699          50.750  
R18  20222333.615   107948186.244        1939.122          52.750    20222351.653    83959774.483        1508.581          49.250  
C01  37442566.122   194973261.590         -86.140          44.000    37442575.215   150765746.147         -66.602          49.000    37442566.299   158431750.151         -70.150          44.250  
C02  37391336.549   194706489.601         -26.720          43.500    37391346.874   150559472.434         -20.726          49.750    37391337.785   158214985.814         -21.672          43.000  
C03  36666257.625   190930818.987         -69.251          47.250    36666269.443   147639877.903         -53.525          50.250    36666259.158   155146940.869         -56.168          44.750  
C04  38793865.779   202009828.488         -71.438          41.250    38793877.646   156206869.214         -55.319          48.000    38793867.192   164149548.458         -57.906          43.500  
C05  39396358.222   205147164.107         -30.981          35.250    39396370.429   158632872.655         -24.215          40.500    39396360.632   166698896.479         -25.188          36.000  
C06  37800679.742   196838052.192        1430.035          44.000    37800691.947   152207720.349        1105.830          49.000    37800679.107   159947045.669        1162.125          43.500  
C08  36651752.656   190855290.135         228.331          47.000    36651763.520   147581462.599         176.585          51.250    36651750.728   155085554.618         185.612          46.750  
C09  39771796.336   207102177.973        1471.900          39.250    39771811.535   160144598.657        1138.261          42.250    39771797.451   168287497.995        1195.937          38.000  
C13  36858279.255   191930731.021         262.621          49.000    36858297.110   148413088.653         203.021          49.000    36858285.200   155959461.688         213.393          47.500  
C16  38486569.598   200409670.133        1584.479          45.250    38486587.415   154969539.908        1225.349          46.750    38486573.087   162849288.402        1287.675          42.250  
C20  22845539.095   118962716.789        2055.999          51.250           0.000           0.000           0.000           0.000    22845536.568    96666943.715        1670.756          49.750  
C27  23282303.489   121237060.750       -1995.355          48.750           0.000           0.000           0.000           0.000    23282309.028    98515069.706       -1621.404          48.000  
C29  24591227.694   128052973.516        2696.892          43.500           0.000           0.000           0.000           0.000    24591232.223   104053544.209        2191.286          44.250  
C30  21610361.138   112530821.547         644.940          52.250           0.000           0.000           0.000           0.000    21610368.422    91440538.220         524.107          51.250  
C32  22019043.550   114658934.575        -926.733          52.250           0.000           0.000           0.000           0.000    22019050.239    93169808.167        -753.106          51.250  
> 2019 11  1  0 49 20.0000000  0 27
G02  21551128.779   113251945.261         771.932          49.250    21551125.676    88248275.317         601.423          41.500           0.000           0.000           0.000           0.000  
G05  21103723.369   110900814.613        1647.078          50.750    21103722.101    86416229.569        1283.641          41.000           0.000           0.000           0.000           0.000  
G06  21779048.038   114449668.929       -1205.895          48.000    21779050.240    89181580.454        -939.583          40.500    21779106.731    85465889.915        -900.431          53.750  
G09  23259497.320   122229486.503       -1871.958          38.750    23259498.628    95243783.852       -1458.249          29.750    23259555.708    91275487.048       -1397.873          49.750  
G12  22511506.597   118298761.192       -1649.604          48.250    22511505.228    92180858.956       -1285.040          36.000           0.000           0.000           0.000           0.000  
G17  23196547.123   121898662.487       -3116.784          41.000    23196544.340    94986023.453       -2428.178          27.250           0.000           0.000           0.000           0.000  
G19  22064642.531   115950480.879       -2864.153          45.000    22064640.768    90351051.048       -2231.718          37.750           0.000           0.000           0.000           0.000  
G25  23966993.650   125947399.660         426.191          43.500    23966996.491    98140862.722         332.632          30.250    23967051.937    94051862.127         318.495          47.000  
R02  20948264.009   111783950.089       -3227.186          48.750    20948281.645    86943141.885       -2510.015          45.000  
R03  19220218.570   102887338.088         581.026          53.750    19220237.441    80023559.086         452.008          51.500  
R17  20246647.861   108343902.531       -1052.006          51.750    20246667.520    84267557.510        -818.143          51.000  
R18  20218598.224   107928249.111        1937.259          53.000    20218616.817    83944267.831        1506.921          49.750  
C01  37442627.877   194973582.574         -85.401          44.000    37442636.887   150765994.360         -65.988          49.000    37442628.148   158432010.960         -69.251          44.250  
C02  37391284.125   194706216.736         -26.017          43.500    37391294.448   150559261.436         -20.113          50.000    37391285.625   158214764.101         -21.203          43.000  
C03  36666286.793   190930971.132         -68.566          47.250    36666298.625   147639995.546         -52.845          50.000    36666288.402   155147064.497         -55.616          45.250  
C04  38793898.794   202010002.418         -70.478          40.250    38793911.066   156207003.710         -54.554          48.000    38793900.735   164149689.786         -57.325          43.500  
C05  39396313.699   205146934.081         -29.523          35.500    39396326.075   158632694.785         -23.094          40.250    39396317.030   166698709.583         -24.867          36.250  
C06  37797830.922   196823215.471        1429.925          43.750    37797842.405   152196247.653        1105.768          49.000    37797829.740   159934989.627        1161.894          43.500  
C08  36651209.479   190852462.166         229.784          47.250    36651220.432   147579275.829         177.744          51.250    36651207.612   155083256.653         186.756          47.000  
C09  39768866.079   207086918.404        1472.785          39.500    39768881.188   160132798.994        1138.837          42.250    39768866.819   168275098.322        1197.022          38.250  
C13  36857670.257   191927560.768         264.126          49.000    36857688.057   148410637.209         204.291          49.000    36857676.249   155956885.589         214.622          47.500  
C16  38483423.321   200393287.792        1584.661          45.000    38483440.843   154956872.053        1225.349          46.750    38483426.709   162835976.399        1287.695          42.500  
C20  22841490.653   118941634.704        2052.971          51.500           0.000           0.000           0.000           0.000    22841488.280    96649812.788        1668.276          50.250  
C27  23286034.765   121256489.362       -1997.686          49.500           0.000           0.000           0.000           0.000    23286039.968    98530857.041       -1623.380          48.250  
C29  24585945.846   128025468.102        2697.009          43.250           0.000           0.000           0.000           0.000    24585949.894   104031193.819        2191.526          45.250  
C30  21609022.481   112523850.447         641.955          52.250           0.000           0.000           0.000           0.000    21609029.841    91434873.619         521.672          51.250  
C32  22020723.706   114667684.391        -930.481          52.000           0.000           0.000           0.000           0.000    22020730.572    93176918.111        -756.100          51.250  
> 2019 11  1  0 49 30.0000000  0 27
G02  21549557.845   113243690.246         772.002          49.000    21549554.673    88241842.838         601.575          41.750           0.000           0.000           0.000           0.000  
G05  21100490.835   110883826.931        1643.508          50.750    21100489.529    86402992.410        1280.412          41.750           0.000           0.000           0.000           0.000  
G06  21781241.680   114461196.382       -1206.655          47.750    21781243.584    89190562.879        -940.596          40.500    21781299.934    85474498.067        -900.975          53.750  
G09  23262962.221   122247694.895       -1876.486          39.250    23262963.947    95257972.225       -1462.519          30.000    23263020.007    91289084.240       -1401.404          50.000  
G12  22514547.415   118314741.487       -1653.626          48.000    22514545.868    92193311.126       -1288.876          36.750           0.000           0.000           0.000           0.000  
G17  23202378.891   121929306.586       -3119.135          41.750    23202374.758    95009901.897       -2430.588          27.500           0.000           0.000           0.000           0.000  
G19  22069994.405   115978603.153       -2867.332          45.750    22069992.458    90372964.486       -2234.333          37.500           0.000           0.000           0.000           0.000  
G25  23966085.255   125942626.787         421.300          43.750    23966087.522    98137143.608         328.386          29.000    23966144.832    94048297.981         314.634          47.750  
R02  20954213.185   111815697.039       -3231.059          49.000    20954230.775    86967833.974       -2513.131          44.750  
R03  19219039.020   102881018.872         572.908          53.500    19219057.309    80018644.116         446.063          51.500  
R17  20248515.338   108353896.665       -1056.784          52.500    20248534.925    84275330.700        -821.367          50.750  
R18  20214868.268   107908340.563        1934.940          53.250    20214887.255    83928783.393        1505.278          49.250  
C01  37442689.647   194973903.583         -84.738          44.250    37442698.498   150766242.593         -65.630          49.500    37442689.724   158432271.816         -68.875          44.500  
C02  37391232.061   194705943.966         -25.254          43.500    37391242.131   150559050.504         -19.599          49.750    37391233.146   158214542.471         -20.732          43.000  
C03  36666316.021   190931123.408         -67.705          47.250    36666327.844   147640113.311         -52.467          50.250    36666317.527   155147188.243         -55.180          45.000  
C04  38793931.973   202010176.429         -70.061          40.750    38793944.663   156207138.251         -54.073          48.250    38793934.221   164149831.179         -56.807          43.500  
C05  39396269.461   205146704.253         -30.190          35.250    39396282.167   158632517.031         -23.133          40.250    39396272.852   166698522.805         -24.606          36.250  
C06  37794982.882   196808387.038        1429.786          43.750    37794994.788   152184781.384        1105.652          49.000    37794981.885   159922940.326        1161.860          43.250  
C08  36650665.145   190849628.040         231.099          47.250    36650676.009   147577084.316         178.659          51.250    36650663.683   155080953.707         187.763          47.000  
C09  39765935.913   207071658.562        1473.647          39.750    39765950.111   160120999.130        1139.335          42.000    39765936.368   168262698.505        1197.081          38.500  
C13  36857060.197   191924383.371         265.523          49.000    36857078.287   148408180.249         205.265          49.250    36857065.883   155954303.706         215.634          47.500  
C16  38480278.491   200376912.374        1584.753          45.000    38480296.426   154944209.536        1225.297          46.500    38480282.341   162822670.046        1287.633          42.250  
C20  22837449.253   118920590.872        2049.818          51.750           0.000           0.000           0.000           0.000    22837447.267    96632712.965        1665.579          50.250  
C27  23289771.665   121275949.786       -2000.400          49.500           0.000           0.000           0.000           0.000    23289777.011    98546670.232       -1625.486          48.250  
C29  24580664.707   127997968.467        2697.127          43.000           0.000           0.000           0.000           0.000    24580668.531   104008848.115        2191.537          45.250  
C30  21607690.672   112516915.902         638.841          52.250           0.000           0.000           0.000           0.000    21607698.159    91429238.734         519.138          51.500  
C32  22022412.764   114676478.485        -934.223          52.500           0.000           0.000           0.000           0.000    22022419.211    93184064.041        -759.204          51.250  
> 2019 11  1  0 49 40.0000000  0 27
G02  21547988.212   113235442.437         771.364          48.750    21547985.083    88235415.991         600.476          41.750           0.000           0.000           0.000           0.000  
G05  21097266.362   110866882.171        1639.390          51.250    21097264.616    86389788.715        1277.027          42.250           0.000           0.000           0.000           0.000  
G06  21783438.039   114472738.684       -1207.984          47.500    21783440.366    89199556.876        -941.663          40.500    21783496.435    85483117.322        -902.128          53.250  
G09  23266437.332   122265956.394       -1881.886          40.500    23266438.325    95272201.969       -1467.191          30.250    23266494.961    91302721.073       -1405.325          49.750  
G12  22517597.305   118330769.920       -1658.338          47.000    22517596.400    92205800.800       -1292.723          36.000           0.000           0.000           0.000           0.000  
G17  23208215.618   121959980.159       -3121.977          41.000    23208212.338    95033803.431       -2433.374          27.750           0.000           0.000           0.000           0.000  
G19  22075353.227   116006763.428       -2870.960          46.000    22075351.076    90394907.553       -2237.493          38.000           0.000           0.000           0.000           0.000  
G25  23965188.253   125937912.054         415.609          42.750    23965189.098    98133469.799         323.327          28.750    23965248.402    94044777.212         310.265          48.000  
R02  20960171.629   111847491.223       -3236.302          49.750    20960188.557    86992562.762       -2516.607          44.000  
R03  19217874.997   102874783.439         564.682          53.000    19217892.802    80013794.341         439.685          51.250  
R17  20250392.093   108363940.518       -1061.350          52.250    20250412.056    84283142.589        -825.225          50.500  
R18  20211144.153   107888459.839        1932.047          52.750    20211162.558    83913320.602        1503.206          49.000  
C01  37442750.943   194974223.675         -84.611          44.250    37442760.130   150766490.093         -65.450          49.250    37442751.110   158432531.904         -68.692          44.000  
C02  37391179.259   194705670.375         -25.323          43.500    37391189.763   150558838.944         -19.489          50.000    37391180.638   158214320.122         -20.581          42.750  
C03  36666345.130   190931274.870         -67.739          47.250    36666356.984   147640230.417         -52.341          50.250    36666346.482   155147311.312         -55.146          44.750  
C04  38793965.650   202010349.543         -69.765          40.750    38793977.831   156207272.116         -54.112          48.250    38793967.453   164149971.845         -56.897          43.250  
C05  39396225.124   205146473.572         -29.657          35.000    39396238.105   158632338.648         -22.787          40.500    39396228.318   166698335.313         -23.937          36.500  
C06  37792136.517   196793566.041        1428.851          43.750    37792148.720   152173320.859        1104.888          49.000    37792135.771   159910897.048        1161.154          43.750  
C08  36650119.743   190846786.872         231.712          47.000    36650130.488   147574887.337         179.193          51.250    36650117.619   155078645.018         188.191          47.000  
C09  39763005.075   207056397.596        1473.423          39.500    39763019.527   160109198.353        1139.499          41.500    39763005.403   168250297.679        1197.259          37.750  
C13  36856448.423   191921197.853         266.113          48.750    36856466.721   148405716.994         205.896          49.500    36856453.936   155951715.189         216.399          47.500  
C16  38477135.333   200360542.970        1583.857          44.750    38477152.824   154931551.669        1224.817          46.500    38477138.404   162809368.570        1286.948          42.250  
C20  22833415.478   118899584.365        2046.064          52.000           0.000           0.000           0.000           0.000    22833413.266    96615643.443        1662.616          50.000  
C27  23293514.645   121295441.050       -2003.382          49.250           0.000           0.000           0.000           0.000    23293520.278    98562508.467       -1627.916          48.000  
C29  24575384.382   127970473.711        2696.550          42.500           0.000           0.000           0.000           0.000    24575388.444   103986506.384        2191.126          44.750  
C30  21606365.833   112510016.982         635.458          52.500           0.000           0.000           0.000           0.000    21606373.159    91423632.790         516.300          51.250  
C32  22024110.122   114685315.855        -938.566          52.750           0.000           0.000           0.000           0.000    22024116.371    93191245.117        -762.746          51.500  
> 2019 11  1  0 49 50.0000000  0 27
G02  21546420.011   113227200.591         771.240          48.750    21546416.825    88228993.767         601.127          42.000           0.000           0.000           0.000           0.000  
G05  21094049.874   110849979.247        1635.493          51.250    21094048.304    86376617.596        1274.587          42.250           0.000           0.000           0.000           0.000  
G06  21785637.051   114484294.558       -1208.812          47.250    21785639.513    89208561.453        -941.944          40.000    21785695.422    85491746.706        -902.529          53.500  
G09  23269922.757   122284269.656       -1886.569          41.250    23269923.685    95286472.026       -1470.123          30.500    23269979.665    91316396.542       -1408.543          49.500  
G12  22520656.449   118346845.112       -1662.456          46.750    22520655.218    92218326.913       -1295.460          36.500           0.000           0.000           0.000           0.000  
G17  23214057.609   121990681.852       -3124.246          41.000    23214054.303    95057726.835       -2435.381          27.500           0.000           0.000           0.000           0.000  
G19  22080719.036   116034960.474       -2874.147          46.000    22080716.481    90416879.258       -2239.716          38.250           0.000           0.000           0.000           0.000  
G25  23964302.126   125933254.135         410.276          42.000    23964302.986    98129840.261         319.515          29.750    23964362.085    94041298.869         306.696          48.250  
R02  20966138.327   111879330.959       -3240.255          50.250    20966155.551    87017327.013       -2520.029          44.500  
R03  19216724.966   102868630.420         557.464          52.750    19216743.416    80009008.669         433.619          51.500  
R17  20252278.400   108374032.986       -1065.298          52.500    20252298.068    84290992.282        -828.549          50.250  
R18  20207424.801   107868605.621        1930.517          52.750    20207443.511    83897878.442        1501.503          49.000  
C01  37442812.216   194974541.506         -83.548          44.250    37442820.866   150766735.874         -64.644          49.250    37442812.216   158432790.190         -67.996          44.250  
C02  37391126.218   194705394.648         -24.262          43.500    37391136.815   150558625.730         -18.812          50.000    37391127.700   158214096.065         -19.591          42.750  
C03  36666374.096   190931424.206         -66.797          47.500    36666385.706   147640345.908         -51.733          50.250    36666375.351   155147432.661         -54.283          44.500  
C04  38793998.680   202010520.474         -68.825          40.750    38794010.537   156207404.295         -53.339          48.250    38794000.488   164150110.755         -56.055          43.500  
C05  39396180.263   205146240.739         -28.439          34.750    39396192.989   158632158.651         -22.397          40.000    39396183.800   166698146.125         -22.933          36.250  
C06  37789291.624   196778751.126        1429.194          44.250    37789303.682   152161865.035        1105.234          49.000    37789290.797   159898858.710        1161.627          43.250  
C08  36649572.028   190843937.231         233.613          46.750    36649583.178   147572683.828         180.467          51.250    36649570.699   155076329.466         189.705          46.750  
C09  39760073.464   207041134.152        1474.413          39.750    39760088.455   160097395.748        1140.055          41.750    39760074.043   168237894.914        1197.960          37.750  
C13  36855834.655   191918002.854         268.151          48.500    36855852.680   148403246.437         207.318          49.250    36855840.405   155949119.003         217.878          47.250  
C16  38473992.700   200344178.289        1584.161          44.500    38474010.058   154918897.471        1225.062          46.500    38473996.172   162796070.925        1287.259          42.250  
C20  22829387.778   118878613.898        2043.296          51.750           0.000           0.000           0.000           0.000    22829385.911    96598603.229        1660.372          49.750  
C27  23297263.028   121314961.830       -2005.277          49.000           0.000           0.000           0.000           0.000    23297268.762    98578370.708       -1629.670          48.000  
C29  24570105.064   127942982.598        2696.988          43.750           0.000           0.000           0.000           0.000    24570109.448   103964167.599        2191.644          45.250  
C30  21605047.744   112503152.472         632.875          52.750           0.000           0.000           0.000           0.000    21605054.980    91418054.816         514.264          51.250  
C32  22025815.278   114694195.118        -941.959          53.000           0.000           0.000           0.000           0.000    22025821.635    93198460.242        -765.352          51.000  
> 2019 11  1  0 50  0.0000000  0 27
G02  21544853.520   113218969.489         770.185          48.750    21544850.277    88222579.921         600.112          41.750           0.000           0.000           0.000           0.000  
G05  21090842.135   110833122.947        1630.927          51.500    21090840.691    86363482.808        1270.369          41.750           0.000           0.000           0.000           0.000  
G06  21787839.581   114495868.830       -1210.672          47.500    21787841.905    89217580.350        -944.445          40.250    21787897.890    85500389.825        -904.209          53.000  
G09  23273418.094   122302639.381       -1892.091          41.500    23273419.696    95300786.083       -1474.779          31.000    23273475.237    91330114.191       -1413.081          49.250  
G12  22523725.337   118362971.760       -1667.637          47.250    22523724.038    92230893.120       -1300.177          35.750           0.000           0.000           0.000           0.000  
G17  23219905.519   122021416.455       -3127.388          39.750    23219902.390    95081675.825       -2437.599          27.250           0.000           0.000           0.000           0.000  
G19  22086092.523   116063198.946       -2878.341          46.000    22086090.297    90438883.245       -2243.507          38.250           0.000           0.000           0.000           0.000  
G25  23963427.762   125928657.822         404.351          43.000    23963427.495    98126258.693         314.494          29.750    23963487.132    94037866.546         301.753          48.000  
R02  20972114.670   111911221.127       -3244.474          51.000    20972131.742    87042130.475       -2523.664          44.500  
R03  19215590.372   102862564.656         548.847          53.250    19215609.422    80004290.864         426.877          51.500  
R17  20254175.157   108384179.007       -1070.439          52.500    20254194.055    84298883.631        -832.667          50.000  
R18  20203711.441   107848783.034        1927.369          53.000    20203730.151    83882460.872        1499.120          49.000  
C01  37442873.424   194974861.836         -84.185          43.750    37442882.510   150766983.569         -65.013          49.250    37442874.193   158433050.473         -68.456          44.250  
C02  37391073.927   194705121.585         -24.671          43.500    37391084.321   150558414.585         -19.212          50.000    37391074.992   158213874.186         -20.057          43.250  
C03  36666403.352   190931576.199         -67.317          47.250    36666415.101   147640463.435         -52.098          50.500    36666404.636   155147556.156         -54.760          44.750  
C04  38794031.820   202010694.002         -69.441          40.500    38794043.996   156207538.482         -53.803          48.500    38794033.804   164150251.749         -56.431          43.500  
C05  39396135.961   205146010.588         -28.822          35.500    39396148.830   158631980.671         -22.383          40.250    39396139.335   166697959.136         -23.817          36.250  
C06  37786448.424   196763947.131        1427.858          44.250    37786460.763   152150417.656        1104.040          49.000    37786447.907   159886829.271        1160.315          43.500  
C08  36649024.415   190841084.128         233.503          46.750    36649035.558   147570477.604         180.575          51.250    36649022.629   155074011.060         189.643          47.000  
C09  39757142.819   207025873.076        1473.873          39.750    39757157.112   160085594.914        1139.772          41.250    39757143.230   168225494.024        1197.783          38.500  
C13  36855220.228   191914803.189         268.211          48.500    36855238.595   148400772.250         207.395          49.250    36855225.875   155946519.016         217.915          47.250  
C16  38470851.099   200327823.119        1582.993          43.750    38470869.752   154906250.617        1223.944          46.750    38470855.245   162782781.022        1286.255          42.250  
C20  22825368.653   118857684.327        2038.833          51.750           0.000           0.000           0.000           0.000    22825366.136    96581596.241        1656.657          49.750  
C27  23301018.610   121334516.947       -2009.300          49.000           0.000           0.000           0.000           0.000    23301024.300    98594260.810       -1632.726          48.000  
C29  24564827.072   127915499.939        2695.890          43.250           0.000           0.000           0.000           0.000    24564831.699   103941835.715        2190.636          45.500  
C30  21603736.875   112496327.206         628.634          52.250           0.000           0.000           0.000           0.000    21603744.115    91412508.717         510.821          51.250  
C32  22027529.390   114703121.042        -946.996          52.750           0.000           0.000           0.000           0.000    22027535.828    93205713.282        -769.490          51.250  
> 2019 11  1  0 50 10.0000000  0 27
G02  21543288.755   113210747.124         769.974          48.750    21543285.738    88216172.881         599.943          41.500           0.000           0.000           0.000           0.000  
G05  21087642.937   110816311.093        1627.187          51.500    21087641.859    86350382.672        1267.727          42.750           0.000           0.000           0.000           0.000  
G06  21790045.137   114507459.459       -1211.825          47.500    21790047.494    89226612.005        -944.164          39.250    21790103.553    85509045.155        -905.113          53.250  
G09  23276924.294   122321063.451       -1897.071          41.000    23276925.495    95315142.514       -1479.025          29.500    23276981.330    91343872.433       -1416.868          49.500  
G12  22526803.713   118379147.598       -1671.973          47.750    22526801.751    92243497.660       -1303.204          35.750           0.000           0.000           0.000           0.000  
G17  23225759.405   122052181.810       -3129.896          37.500    23225756.351    95105648.894       -2439.708          27.750           0.000           0.000           0.000           0.000  
G19  22091473.817   116091476.717       -2881.640          46.250    22091471.238    90460917.870       -2245.537          38.750           0.000           0.000           0.000           0.000  
G25  23962565.432   125924121.019         398.805          44.750    23962563.697    98122723.528         310.760          30.000    23962622.749    94034478.689         297.378          47.500  
R02  20978099.868   111943159.429       -3249.455          51.500    20978117.002    87066971.351       -2526.841          44.750  
R03  19214473.602   102856584.137         540.520          53.000    19214492.518    79999639.332         420.771          51.750  
R17  20256081.307   108394376.401       -1075.617          52.000    20256099.605    84306814.920        -836.227          50.250  
R18  20200003.794   107828989.768        1924.539          53.000    20200022.253    83867066.087        1497.382          49.000  
C01  37442935.284   194975182.681         -83.771          44.000    37442943.930   150767231.665         -64.806          49.000    37442935.465   158433311.176         -68.052          44.250  
C02  37391021.649   194704849.008         -24.486          43.750    37391031.949   150558203.805         -18.949          50.000    37391023.001   158213652.701         -19.810          43.000  
C03  36666432.520   190931728.774         -66.902          47.500    36666444.155   147640581.415         -51.708          50.500    36666433.853   155147680.134         -54.225          44.750  
C04  38794065.451   202010868.057         -69.020          40.750    38794077.343   156207673.051         -53.426          48.500    38794066.980   164150393.166         -56.067          43.500  
C05  39396092.593   205145781.017         -28.367          35.000    39396104.758   158631803.142         -22.299          40.500    39396095.272   166697772.609         -23.625          36.750  
C06  37783607.763   196749151.987        1427.417          44.000    37783619.302   152138977.117        1103.846          49.000    37783607.004   159874807.007        1159.781          43.500  
C08  36648475.429   190838225.349         234.531          47.000    36648485.931   147568267.016         181.257          51.000    36648473.628   155071688.066         190.608          47.000  
C09  39754212.479   207010612.307        1474.406          39.750    39754225.914   160073794.319        1139.986          41.500    39754212.250   168213093.417        1198.229          38.500  
C13  36854604.590   191911596.901         269.169          48.250    36854622.777   148398292.950         208.109          49.000    36854610.098   155943913.628         218.928          47.250  
C16  38467711.904   200311475.389        1582.996          43.750    38467729.929   154893609.529        1223.862          46.500    38467716.095   162769497.173        1285.840          42.000  
C20  22821356.814   118836793.579        2035.426          51.750           0.000           0.000           0.000           0.000    22821354.222    96564620.789        1654.022          50.000  
C27  23304780.331   121354104.234       -2011.888          49.000           0.000           0.000           0.000           0.000    23304785.712    98610177.087       -1634.809          48.000  
C29  24559551.025   127888023.757        2695.591          44.250           0.000           0.000           0.000           0.000    24559554.529   103919509.074        2190.440          45.500  
C30  21602433.261   112489539.169         625.315          52.250           0.000           0.000           0.000           0.000    21602440.395    91406992.872         508.231          51.250  
C32  22029252.060   114712091.458        -950.894          52.500           0.000           0.000           0.000           0.000    22029258.714    93213002.483        -772.634          51.500  
> 2019 11  1  0 50 20.0000000  0 27
G02  21541725.629   113202532.176         768.907          49.000    21541722.184    88209771.613         599.229          41.500           0.000           0.000           0.000           0.000  
G05  21084452.030   110799542.372        1622.532          51.750    21084450.807    86337316.133        1264.278          43.000           0.000           0.000           0.000           0.000  
G06  21792253.583   114519065.105       -1213.604          47.250    21792256.225    89235655.348        -945.528          39.500    21792312.149    85517711.699        -906.376          53.000  
G09  23280440.404   122339540.450       -1902.524          41.250    23280441.525    95329540.170       -1482.954          30.500    23280497.060    91357670.190       -1420.913          49.250  
G12  22529891.017   118395371.329       -1677.021          47.750    22529889.228    92256139.520       -1306.963          35.750           0.000           0.000           0.000           0.000  
G17  23231618.859   122082976.548       -3133.117          35.500    23231616.156    95129644.696       -2441.238          27.000           0.000           0.000           0.000           0.000  
G19  22096862.167   116119792.425       -2885.637          46.500    22096859.531    90482982.037       -2248.603          37.750           0.000           0.000           0.000           0.000  
G25  23961712.674   125919642.405         392.661          44.500    23961711.576    98119233.741         306.260          29.750    23961769.647    94031134.242         293.144          46.750  
R02  20984093.945   111975144.359       -3253.346          51.000    20984111.491    87091848.534       -2530.692          44.750  
R03  19213372.945   102850687.384         532.343          52.750    19213391.583    79995052.990         414.019          51.500  
R17  20257996.264   108404623.849       -1080.125          52.000    20258014.454    84314785.155        -840.279          50.000  
R18  20196301.552   107809225.181        1922.207          53.000    20196319.170    83851693.658        1494.887          48.750  
C01  37442996.558   194975502.630         -83.810          44.250    37443005.604   150767479.068         -64.759          49.000    37442996.953   158433571.163         -68.074          44.250  
C02  37390969.292   194704575.660         -24.424          43.750    37390979.308   150557992.449         -19.143          50.000    37390970.320   158213430.599         -20.031          43.000  
C03  36666461.739   190931880.606         -66.928          47.500    36666473.336   147640698.836         -51.947          50.250    36666463.084   155147803.517         -54.485          45.000  
C04  38794098.439   202011041.275         -69.119          41.000    38794110.604   156207806.994         -53.507          48.500    38794100.375   164150533.927         -56.263          43.500  
C05  39396047.777   205145550.733         -28.749          35.000    39396060.669   158631625.068         -22.179          40.250    39396051.313   166697585.452         -23.394          36.500  
C06  37780767.296   196734364.394        1426.472          44.250    37780779.702   152127542.422        1103.018          49.000    37780767.147   159862790.887        1159.003          43.500  
C08  36647924.804   190835359.579         235.102          47.000    36647935.844   147566051.026         181.611          51.000    36647923.298   155069359.395         191.002          47.000  
C09  39751281.741   206995350.507        1474.194          40.250    39751295.393   160061992.950        1139.868          41.000    39751281.122   168200691.965        1197.945          38.250  
C13  36853987.074   191908382.549         270.024          48.500    36854005.410   148395807.415         208.727          49.000    36853992.710   155941301.722         219.408          47.250  
C16  38464573.709   200295133.881        1581.856          44.250    38464591.732   154880973.224        1223.188          46.500    38464577.651   162756218.321        1285.651          42.000  
C20  22817352.200   118815940.368        2031.619          52.000           0.000           0.000           0.000           0.000    22817349.725    96547675.870        1650.729          50.000  
C27  23308547.713   121373722.434       -2015.238          49.000           0.000           0.000           0.000           0.000    23308553.115    98626118.473       -1637.516          48.000  
C29  24554274.710   127860552.782        2695.066          44.000           0.000           0.000           0.000           0.000    24554278.891   103897186.655        2189.892          45.500  
C30  21601136.643   112482787.071         621.577          52.250           0.000           0.000           0.000           0.000    21601143.700    91401506.245         505.084          51.500  
C32  22030982.872   114721105.010        -955.359          52.750           0.000           0.000           0.000           0.000    22030989.520    93220326.730        -776.233          51.500  
> 2019 11  1  0 50 30.0000000  0 27
G02  21540164.255   113194327.082         769.030          49.000    21540160.627    88203378.032         599.250          41.500           0.000           0.000           0.000           0.000  
G05  21081269.978   110782819.400        1618.945          51.750    21081268.755    86324285.247        1261.485          43.000           0.000           0.000           0.000           0.000  
G06  21794465.459   114530688.189       -1214.308          47.250    21794467.842    89244712.296        -946.023          40.000    21794523.913    85526391.267        -906.622          52.750  
G09  23283966.626   122358072.744       -1906.868          40.500    23283968.057    95343980.906       -1486.231          29.750    23284023.601    91371509.228       -1424.054          48.750  
G12  22532987.932   118411645.253       -1680.872          47.750    22532985.508    92268820.497       -1309.619          36.500           0.000           0.000           0.000           0.000  
G17  23237484.755   122113802.915       -3135.263          36.000    23237482.120    95153665.189       -2443.820          27.750           0.000           0.000           0.000           0.000  
G19  22102258.090   116148148.413       -2888.634          46.500    22102255.723    90505077.602       -2250.478          38.500           0.000           0.000           0.000           0.000  
G25  23960871.828   125915224.342         387.787          44.250    23960871.439    98115791.076         302.473          31.000    23960928.782    94027835.047         289.692          46.500  
R02  20990096.972   112007178.243       -3257.588          50.500    20990114.285    87116763.772       -2533.979          44.750  
R03  19212287.630   102844876.830         524.780          52.750    19212306.178    79990533.672         408.082          51.750  
R17  20259920.663   108414923.952       -1084.456          51.750    20259939.122    84322796.361        -843.755          50.000  
R18  20192604.752   107789491.300        1920.222          52.500    20192622.378    83836345.093        1493.250          49.000  
C01  37443058.557   194975824.105         -82.758          44.000    37443067.194   150767727.647         -63.955          49.250    37443058.410   158433832.378         -67.207          44.000  
C02  37390916.865   194704304.020         -23.302          43.750    37390927.221   150557782.385         -18.129          50.000    37390918.279   158213209.862         -19.099          43.000  
C03  36666491.133   190932034.091         -66.103          47.250    36666502.695   147640817.505         -50.975          50.250    36666492.641   155147928.218         -53.557          45.000  
C04  38794132.238   202011216.073         -67.858          40.750    38794144.560   156207942.161         -52.794          48.500    38794133.859   164150675.953         -55.326          43.500  
C05  39396004.087   205145322.078         -27.726          35.500    39396016.744   158631448.253         -21.536          40.250    39396007.506   166697399.621         -22.434          36.500  
C06  37777929.372   196719586.769        1426.609          44.250    37777941.798   152116115.425        1103.295          48.750    37777929.223   159850782.846        1159.381          43.500  
C08  36647373.719   190832489.266         236.707          46.750    36647384.563   147563831.508         182.989          51.000    36647372.271   155067027.018         192.410          47.000  
C09  39748351.130   206980090.071        1475.499          39.750    39748364.162   160050192.602        1141.009          40.250    39748349.868   168188291.646        1198.430          37.500  
C13  36853368.776   191905162.545         271.633          48.750    36853387.054   148393317.484         210.218          49.000    36853374.332   155938685.188         220.827          47.000  
C16  38461436.960   200278800.896        1582.327          44.250    38461454.846   154868343.516        1223.499          46.750    38461441.025   162742946.435        1285.931          42.000  
C20  22813355.580   118795127.122        2028.754          52.000           0.000           0.000           0.000           0.000    22813352.614    96530763.387        1648.473          49.750  
C27  23312321.380   121393373.887       -2017.423          49.000           0.000           0.000           0.000           0.000    23312327.271    98642086.873       -1639.275          48.250  
C29  24549001.101   127833089.440        2695.347          43.750           0.000           0.000           0.000           0.000    24549005.375   103874870.458        2190.037          45.250  
C30  21599847.294   112476073.357         618.817          52.500           0.000           0.000           0.000           0.000    21599854.520    91396050.791         502.847          51.250  
C32  22032722.380   114730164.028        -958.763          52.750           0.000           0.000           0.000           0.000    22032729.102    93227687.918        -779.039          51.500  
> 2019 11  1  0 50 40.0000000  0 27
G02  21538604.327   113186129.937         768.591          48.750    21538600.786    88196990.647         598.639          41.250           0.000           0.000           0.000           0.000  
G05  21078096.159   110766139.942        1615.015          51.750    21078094.813    86311288.269        1258.573          43.000           0.000           0.000           0.000           0.000  
G06  21796680.055   114542326.776       -1215.438          47.000    21796682.628    89253781.327        -947.177          39.250    21796738.427    85535082.419        -907.566          53.250  
G09  23287502.994   122376658.297       -1911.979          39.500    23287504.673    95358463.162       -1488.900          29.500    23287560.215    91385388.030       -1427.815          49.000  
G12  22536093.937   118427967.343       -1685.257          47.750    22536091.935    92281538.999       -1312.426          36.250           0.000           0.000           0.000           0.000  
G17  23243356.914   122144658.995       -3138.304          35.500    23243354.180    95177708.925       -2444.738          25.500           0.000           0.000           0.000           0.000  
G19  22107661.267   116176542.602       -2892.105          46.250    22107659.047    90527202.939       -2254.026          38.250           0.000           0.000           0.000           0.000  
G25  23960042.209   125910864.917         382.256          44.000    23960042.534    98112394.161         297.568          31.000    23960100.015    94024579.645         285.421          47.750  
R02  20996108.788   112039258.877       -3262.265          50.750    20996125.725    87141715.354       -2537.127          44.750  
R03  19211216.922   102839150.568         516.458          53.000    19211235.963    79986079.901         401.883          51.500  
R17  20261854.227   108425274.642       -1089.579          52.000    20261873.295    84330846.888        -847.256          50.250  
R18  20188913.624   107769786.371        1917.217          52.750    20188930.812    83821019.028        1491.351          49.000  
C01  37443119.923   194976145.170         -82.518          43.750    37443128.844   150767975.907         -63.682          49.000    37443120.188   158434093.281         -66.960          44.250  
C02  37390864.718   194704032.068         -23.091          43.500    37390874.936   150557572.078         -17.911          49.750    37390865.847   158212988.873         -18.851          43.250  
C03  36666520.388   190932187.263         -65.651          47.250    36666532.408   147640935.949         -50.771          50.250    36666521.985   155148052.696         -53.358          44.750  
C04  38794165.549   202011390.529         -67.791          40.500    38794177.718   156208077.048         -52.505          48.500    38794167.326   164150817.709         -54.928          43.250  
C05  39395960.043   205145093.149         -27.684          35.500    39395973.134   158631271.213         -21.275          40.250    39395963.631   166697213.625         -22.460          36.250  
C06  37775093.410   196704817.142        1426.160          44.500    37775105.456   152104694.621        1102.788          48.750    37775092.617   159838781.322        1158.934          43.000  
C08  36646821.035   190829612.473         237.605          46.750    36646832.151   147561606.971         183.789          50.750    36646819.885   155064689.399         193.093          46.750  
C09  39745419.785   206964829.162        1475.867          39.750    39745433.220   160038391.897        1141.303          40.000    39745418.956   168175890.897        1198.839          37.500  
C13  36852749.111   191901934.976         272.850          48.750    36852767.329   148390821.739         210.918          48.750    36852754.507   155936062.540         221.764          47.000  
C16  38458301.920   200262474.567        1581.928          44.000    38458319.552   154855718.955        1223.309          46.250    38458305.788   162729679.971        1285.573          42.000  
C20  22809365.875   118774351.948        2025.204          51.500           0.000           0.000           0.000           0.000    22809363.125    96513881.847        1645.664          50.000  
C27  23316101.418   121413056.635       -2020.150          49.000           0.000           0.000           0.000           0.000    23316107.436    98658080.719       -1641.606          47.750  
C29  24543727.791   127805631.879        2695.046          43.000           0.000           0.000           0.000           0.000    24543732.574   103852558.932        2190.017          45.500  
C30  21598565.091   112469396.153         615.447          52.250           0.000           0.000           0.000           0.000    21598572.428    91390625.014         500.106          51.250  
C32  22034470.480   114739266.523        -962.772          52.750           0.000           0.000           0.000           0.000    22034477.362    93235084.445        -782.370          51.500  
> 2019 11  1  0 50 50.0000000  0 27
G02  21537045.859   113177939.850         768.303          49.000    21537042.267    88190608.761         598.853          41.250           0.000           0.000           0.000           0.000  
G05  21074930.311   110749503.231        1611.044          51.500    21074928.718    86298324.599        1255.264          42.250           0.000           0.000           0.000           0.000  
G06  21798897.637   114553980.014       -1216.589          47.000    21798900.067    89262861.768        -948.414          39.750    21798955.884    85543784.512        -908.407          53.250  
G09  23291049.434   122395296.191       -1916.869          39.250    23291051.144    95372986.169       -1493.323          28.500    23291106.954    91399305.945       -1431.344          49.000  
G12  22539209.043   118444336.628       -1689.792          48.250    22539206.409    92294294.284       -1317.282          36.750           0.000           0.000           0.000           0.000  
G17  23249233.431   122175543.711       -3140.254          35.250    23249231.483    95201774.926       -2447.398          27.250           0.000           0.000           0.000           0.000  
G19  22113071.320   116204974.101       -2895.478          46.250    22113069.552    90549357.338       -2256.504          38.250           0.000           0.000           0.000           0.000  
G25  23959223.690   125906563.221         376.806          43.500    23959225.248    98109042.185         293.538          31.750    23959281.811    94021367.345         281.372          48.000  
R02  21002129.285   112071385.044       -3266.507          50.750    21002146.607    87166702.371       -2540.307          44.750  
R03  19210162.272   102833507.689         508.200          53.000    19210181.384    79981691.003         395.676          51.250  
R17  20263796.723   108435675.153       -1094.374          51.750    20263816.489    84338936.163        -850.805          50.000  
R18  20185227.670   107750109.668        1914.568          52.750    20185244.463    83805714.929        1489.447          48.500  
C01  37443181.790   194976464.952         -81.865          44.250    37443190.078   150768223.202         -63.363          49.000    37443181.532   158434353.143         -66.538          44.250  
C02  37390812.172   194703758.946         -22.661          43.500    37390822.486   150557360.897         -17.633          50.000    37390813.612   158212766.937         -18.414          43.250  
C03  36666549.650   190932339.303         -65.071          47.250    36666561.513   147641053.528         -50.478          50.500    36666551.253   155148176.252         -53.073          44.750  
C04  38794198.710   202011563.781         -67.395          40.750    38794211.034   156208211.009         -52.079          48.500    38794200.822   164150958.485         -54.742          43.250  
C05  39395915.246   205144863.095         -26.942          34.500    39395928.534   158631093.335         -20.893          40.250    39395919.486   166697026.674         -22.093          36.500  
C06  37772258.322   196690054.661        1425.867          44.500    37772270.163   152093279.340        1102.481          49.000    37772258.191   159826785.600        1158.681          43.250  
C08  36646267.499   190826728.324         238.790          47.000    36646278.329   147559376.777         184.602          51.000    36646266.373   155062345.796         194.013          46.750  
C09  39742488.567   206949566.949        1476.093          39.750    39742502.689   160026590.179        1141.673          40.250    39742488.145   168163489.078        1199.685          38.250  
C13  36852127.346   191898698.984         274.007          48.750    36852145.994   148388319.455         211.820          49.000    36852133.053   155933433.039         222.441          47.000  
C16  38455167.601   200246154.077        1581.696          44.250    38455185.521   154843098.925        1222.995          46.750    38455171.672   162716418.221        1285.323          42.250  
C20  22805383.172   118753613.984        2021.918          51.500           0.000           0.000           0.000           0.000    22805380.595    96497030.556        1642.965          50.000  
C27  23319886.770   121432769.825       -2022.782          49.000           0.000           0.000           0.000           0.000    23319893.445    98674099.299       -1643.653          47.750  
C29  24538455.533   127778179.299        2694.785          42.750           0.000           0.000           0.000           0.000    24538460.095   103830251.453        2190.022          45.500  
C30  21597289.607   112462754.635         612.412          52.500           0.000           0.000           0.000           0.000    21597297.064    91385228.237         497.656          51.250  
C32  22036226.680   114748411.586        -966.615          52.750           0.000           0.000           0.000           0.000    22036233.534    93242515.554        -785.435          51.250  
> 2019 11  1  0 51  0.0000000  0 27
G02  21535489.290   113169759.291         767.352          49.250    21535485.495    88184234.300         597.936          41.750           0.000           0.000           0.000           0.000  
G05  21071773.023   110732911.714        1606.729          51.000    21071771.187    86285396.141        1251.750          41.750           0.000           0.000           0.000           0.000  
G06  21801118.396   114565650.373       -1218.050          46.750    21801120.768    89271955.554        -949.695          39.750    21801176.874    85552499.392        -909.614          53.250  
G09  23294606.473   122413988.789       -1922.229          38.750    23294608.564    95387551.848       -1497.643          30.250    23294664.180    91413264.701       -1435.462          48.750  
G12  22542333.495   118460755.398       -1694.622          48.250    22542331.288    92307088.129       -1320.268          36.500           0.000           0.000           0.000           0.000  
G17  23255116.653   122206459.535       -3143.184          35.000    23255114.183    95225865.150       -2448.728          25.500           0.000           0.000           0.000           0.000  
G19  22118489.296   116233445.263       -2899.341          46.500    22118487.384    90571542.649       -2259.226          38.000           0.000           0.000           0.000           0.000  
G25  23958416.502   125902321.681         370.942          43.250    23958417.629    98105737.079         289.188          30.000    23958474.547    94018199.972         276.937          48.000  
R02  21008158.482   112103559.391       -3270.563          50.250    21008176.269    87191726.866       -2543.873          45.250  
R03  19209124.897   102827950.575         500.509          53.000    19209143.463    79977368.815         389.176          51.500  
R17  20265749.995   108446127.944       -1098.626          51.750    20265770.253    84347066.106        -854.693          49.750  
R18  20181547.370   107730463.750        1912.201          52.500    20181564.048    83790434.772        1487.239          48.250  
C01  37443243.338   194976785.846         -81.967          44.000    37443252.100   150768471.328         -63.274          49.000    37443243.115   158434613.893         -66.626          44.250  
C02  37390760.212   194703487.043         -22.492          43.750    37390770.302   150557150.642         -17.477          50.000    37390761.327   158212545.993         -18.383          43.250  
C03  36666579.141   190932492.585         -65.217          47.250    36666591.078   147641172.037         -50.341          50.250    36666580.580   155148300.798         -52.906          44.750  
C04  38794232.216   202011738.183         -67.512          40.500    38794244.733   156208345.859         -52.059          48.500    38794234.437   164151100.196         -54.741          43.500  
C05  39395871.695   205144634.266         -26.821          35.500    39395884.598   158630916.380         -20.822          40.250    39395875.896   166696840.740         -22.011          37.000  
C06  37769424.940   196675301.832        1424.984          44.500    37769437.521   152081871.529        1101.894          49.000    37769424.663   159814797.737        1157.764          43.250  
C08  36645712.118   190823839.267         239.465          46.500    36645723.728   147557142.770         185.235          51.000    36645711.439   155059998.199         194.528          46.750  
C09  39739558.904   206934305.753        1476.510          40.000    39739571.514   160014789.302        1141.401          40.500    39739557.643   168151088.126        1199.909          38.750  
C13  36851505.182   191895456.975         274.728          48.750    36851523.438   148385812.536         212.342          49.000    36851510.740   155930798.628         223.166          47.250  
C16  38452035.178   200229841.801        1580.966          44.250    38452053.322   154830485.246        1222.576          46.750    38452038.904   162703163.188        1284.616          42.500  
C20  22801408.068   118732915.683        2018.018          51.000           0.000           0.000           0.000           0.000    22801405.607    96480211.494        1639.838          50.000  
C27  23323678.796   121452515.861       -2026.120          48.750           0.000           0.000           0.000           0.000    23323685.905    98690144.561       -1646.409          48.000  
C29  24533185.025   127750734.120        2694.353          42.500           0.000           0.000           0.000           0.000    24533189.633   103807950.015        2189.316          45.500  
C30  21596021.462   112456151.268         608.640          52.250           0.000           0.000           0.000           0.000    21596029.176    91379862.456         494.514          51.250  
C32  22037991.554   114757601.559        -971.103          52.500           0.000           0.000           0.000           0.000    22037998.377    93249983.157        -789.088          51.250  
> 2019 11  1  0 51 10.0000000  0 27
G02  21533933.992   113161585.483         767.684          49.500    21533930.137    88177865.091         598.131          41.500           0.000           0.000           0.000           0.000  
G05  21068623.506   110716362.390        1603.493          50.000    21068621.861    86272500.571        1249.368          41.250           0.000           0.000           0.000           0.000  
G06  21803341.874   114577335.052       -1218.537          46.500    21803344.078    89281060.490        -950.177          39.000    21803400.175    85561224.962        -910.069          53.000  
G09  23298173.289   122432733.216       -1926.319          37.750    23298175.391    95402157.865       -1501.432          29.250    23298231.466    91427262.164       -1438.740          48.500  
G12  22545466.749   118477220.752       -1698.277          48.250    22545464.134    92319918.263       -1323.619          36.500           0.000           0.000           0.000           0.000  
G17  23261004.910   122237403.592       -3145.371          33.250    23261003.082    95249977.412       -2451.453          27.000           0.000           0.000           0.000           0.000  
G19  22123914.360   116261953.257       -2902.093          46.500    22123912.757    90593756.651       -2261.975          38.250           0.000           0.000           0.000           0.000  
G25  23957619.809   125898137.456         366.211          43.500    23957621.026    98102476.637         285.302          30.250    23957678.711    94015075.404         273.197          48.000  
R02  21014196.001   112135778.902       -3274.878          49.750    21014214.362    87216786.488       -2546.776          45.250  
R03  19208103.338   102822476.451         492.169          53.500    19208121.322    79973111.154         383.371          51.250  
R17  20267713.103   108456630.303       -1103.578          52.250    20267732.995    84355234.595        -857.929          50.250  
R18  20177871.911   107710845.831        1909.479          52.750    20177888.893    83775176.387        1485.624          48.250  
C01  37443304.417   194977105.059         -80.750          44.000    37443313.228   150768718.176         -62.633          49.000    37443304.527   158434873.275         -65.614          44.250  
C02  37390707.419   194703213.611         -21.615          43.500    37390718.049   150556939.196         -16.758          50.250    37390708.755   158212323.789         -17.519          43.000  
C03  36666608.242   190932644.333         -64.178          47.250    36666619.904   147641289.387         -49.713          50.500    36666609.793   155148424.110         -52.247          45.000  
C04  38794265.634   202011911.024         -66.310          40.500    38794277.623   156208479.510         -51.351          48.500    38794267.399   164151240.640         -53.852          43.750  
C05  39395827.399   205144403.978         -26.449          35.250    39395840.105   158630738.293         -20.203          40.000    39395831.315   166696653.599         -21.086          36.750  
C06  37766593.537   196660555.868        1425.222          44.750    37766605.554   152070469.024        1101.961          49.000    37766592.677   159802815.445        1157.994          43.000  
C08  36645156.015   190820942.518         241.070          46.500    36645167.010   147554902.820         186.302          51.000    36645155.490   155057644.350         195.807          47.250  
C09  39736627.764   206919042.926        1477.363          40.250    39736639.745   160002987.098        1142.314          41.000    39736626.662   168138685.849        1200.423          38.500  
C13  36850880.860   191892206.153         276.563          49.000    36850898.950   148383298.782         213.795          49.000    36850886.347   155928157.073         224.626          47.250  
C16  38448903.933   200213535.014        1581.267          44.500    38448921.245   154817875.815        1222.733          47.000    38448907.708   162689912.585        1284.997          42.750  
C20  22797440.272   118712254.295        2015.158          51.000           0.000           0.000           0.000           0.000    22797437.630    96463422.435        1637.567          50.000  
C27  23327476.792   121472291.937       -2028.230          49.000           0.000           0.000           0.000           0.000    23327483.558    98706214.233       -1648.079          48.000  
C29  24527915.541   127723293.659        2694.767          43.000           0.000           0.000           0.000           0.000    24527920.328   103785652.388        2189.733          45.500  
C30  21594760.015   112449583.336         605.891          52.000           0.000           0.000           0.000           0.000    21594767.767    91374525.471         492.303          51.250  
C32  22039764.516   114766833.607        -974.421          52.500           0.000           0.000           0.000           0.000    22039771.394    93257484.948        -791.707          51.500  
> 2019 11  1  0 51 20.0000000  0 27
G02  21532380.212   113153419.457         766.908          49.500    21532376.115    88171501.948         597.784          41.500           0.000           0.000           0.000           0.000  
G05  21065482.430   110699856.579        1599.086          50.750    21065480.780    86259638.906        1245.685          41.000           0.000           0.000           0.000           0.000  
G06  21805568.516   114589035.062       -1219.976          47.000    21805570.591    89290177.365        -950.571          38.750    21805626.712    85569961.982        -911.065          52.750  
G09  23301750.199   122451530.423       -1931.550          36.750    23301752.460    95416805.003       -1504.015          29.750    23301808.758    91441299.010       -1442.327          48.750  
G12  22548608.972   118493733.521       -1702.864          48.500    22548606.707    92332785.354       -1326.677          36.000           0.000           0.000           0.000           0.000  
G17  23266898.649   122268376.837       -3148.197          33.750    23266897.061    95274112.368       -2450.706          26.500           0.000           0.000           0.000           0.000  
G19  22129346.877   116290499.032       -2905.840          47.000    22129344.690    90616000.103       -2264.575          38.500           0.000           0.000           0.000           0.000  
G25  23956834.276   125894011.609         360.402          42.500    23956836.239    98099261.686         281.191          30.250    23956893.488    94011994.414         269.140          48.000  
R02  21020242.576   112168044.114       -3278.808          49.000    21020260.659    87241881.669       -2550.232          45.250  
R03  19207096.644   102817086.348         484.733          53.500    19207114.243    79968918.864         376.972          51.250  
R17  20269685.848   108467183.131       -1107.526          52.000    20269705.292    84363442.345        -861.759          50.250  
R18  20174202.169   107691257.100        1907.568          52.750    20174219.231    83759940.717        1483.481          47.750  
C01  37443365.830   194977423.646         -80.695          44.000    37443374.373   150768964.514         -62.296          49.250    37443365.689   158435132.152         -65.340          44.250  
C02  37390654.952   194702939.618         -21.176          43.500    37390665.254   150556727.338         -16.466          50.000    37390656.259   158212101.157         -17.368          43.000  
C03  36666637.334   190932795.544         -63.733          47.000    36666648.873   147641406.310         -49.453          50.500    36666638.771   155148546.984         -51.909          44.750  
C04  38794298.776   202012083.275         -66.131          40.500    38794310.867   156208612.677         -50.944          48.750    38794300.581   164151380.592         -53.548          43.500  
C05  39395783.617   205144173.055         -25.042          35.750    39395795.988   158630559.720         -19.594          40.750    39395786.997   166696465.964         -20.744          36.750  
C06  37763763.120   196645817.761        1424.715          44.750    37763775.261   152059072.583        1101.644          49.500    37763762.336   159790839.528        1157.663          42.750  
C08  36644598.933   190818039.093         242.037          46.500    36644609.424   147552657.697         187.177          51.000    36644597.931   155055285.081         196.587          47.000  
C09  39733696.644   206903779.432        1477.583          40.000    39733708.767   159991184.382        1142.703          40.750    39733695.672   168126283.002        1200.642          38.250  
C13  36850254.952   191888947.558         277.539          48.500    36850272.988   148380779.021         214.600          49.250    36850260.479   155925509.193         225.465          47.000  
C16  38445773.786   200197234.735        1580.840          44.500    38445791.223   154805271.394        1222.310          47.250    38445777.323   162676667.263        1284.538          42.000  
C20  22793479.653   118691630.865        2011.642          51.000           0.000           0.000           0.000           0.000    22793477.449    96446664.213        1634.670          50.000  
C27  23331281.123   121492099.013       -2031.085          49.500           0.000           0.000           0.000           0.000    23331287.285    98722309.103       -1650.400          48.000  
C29  24522646.919   127695858.957        2694.459          42.750           0.000           0.000           0.000           0.000    24522652.125   103763359.455        2189.466          45.750  
C30  21593505.856   112443051.865         602.508          52.000           0.000           0.000           0.000           0.000    21593513.315    91369218.105         489.633          51.000  
C32  22041545.726   114776108.656        -978.393          52.500           0.000           0.000           0.000           0.000    22041552.795    93265021.683        -794.951          51.500  
> 2019 11  1  0 51 30.0000000  0 27
G02  21530827.983   113145263.031         766.485          49.250    21530824.114    88165146.295         597.059          41.250           0.000           0.000           0.000           0.000  
G05  21062350.052   110683395.933        1595.209          50.750    21062348.405    86246812.432        1242.839          41.250           0.000           0.000           0.000           0.000  
G06  21807798.183   114600752.143       -1221.080          47.250    21807800.327    89299307.556        -951.306          39.000    21807856.207    85578711.738        -912.055          52.750  
G09  23305337.426   122470382.082       -1936.769          36.750    23305340.204    95431494.631       -1510.761          28.250    23305396.067    91455376.542       -1446.245          48.500  
G12  22551760.600   118510295.441       -1707.320          48.250    22551757.826    92345690.749       -1330.743          36.250           0.000           0.000           0.000           0.000  
G17  23272798.998   122299380.898       -3150.440          33.750    23272797.029    95298271.349       -2450.708          26.000           0.000           0.000           0.000           0.000  
G19  22134786.883   116319084.229       -2909.178          47.500    22134784.232    90638274.273       -2267.219          39.250           0.000           0.000           0.000           0.000  
G25  23956060.569   125889945.824         354.909          42.500    23956063.533    98096093.527         276.545          31.000    23956119.915    94008958.241         264.962          48.750  
R02  21026297.805   112200356.818       -3283.288          49.250    21026316.156    87267013.748       -2553.440          45.250  
R03  19206104.414   102811781.936         476.226          53.500    19206122.623    79964793.200         370.639          51.250  
R17  20271668.394   108477788.388       -1112.711          52.250    20271687.900    84371690.848        -865.483          50.250  
R18  20170538.341   107671699.445        1904.397          53.000    20170555.663    83744729.183        1481.480          47.250  
C01  37443427.052   194977743.239         -80.326          44.000    37443435.736   150769211.637         -61.979          49.250    37443427.086   158435391.828         -65.004          44.000  
C02  37390602.425   194702666.833         -20.991          43.500    37390612.924   150556516.382         -16.117          50.000    37390603.675   158211879.474         -17.126          43.000  
C03  36666666.555   190932947.951         -63.536          47.000    36666678.190   147641524.163         -49.102          50.250    36666668.027   155148670.817         -51.628          45.000  
C04  38794331.737   202012256.612         -65.747          41.000    38794344.135   156208746.731         -50.690          48.500    38794333.900   164151521.439         -53.276          43.750  
C05  39395739.331   205143943.435         -25.221          35.000    39395752.333   158630382.166         -19.645          40.250    39395742.623   166696279.374         -20.904          36.750  
C06  37760934.371   196631089.244        1424.193          45.000    37760946.853   152047683.569        1101.269          49.250    37760934.360   159778871.392        1157.121          43.250  
C08  36644040.006   190815130.726         242.629          46.500    36644051.006   147550408.759         187.820          50.750    36644039.151   155052921.777         197.346          47.000  
C09  39730765.944   206888517.019        1477.808          39.750    39730778.270   159979382.516        1143.139          41.250    39730765.029   168113881.057        1200.915          38.750  
C13  36849628.114   191885682.909         278.406          48.750    36849646.048   148378254.586         215.381          49.000    36849633.704   155922856.386         226.297          47.250  
C16  38442645.125   200180942.647        1580.471          44.750    38442662.499   154792673.316        1222.144          47.500    38442648.516   162663428.615        1284.188          42.500  
C20  22789526.769   118671047.131        2007.996          51.250           0.000           0.000           0.000           0.000    22789524.653    96429938.250        1631.728          50.000  
C27  23335091.305   121511938.848       -2033.968          50.000           0.000           0.000           0.000           0.000    23335096.684    98738430.586       -1652.685          48.000  
C29  24517379.762   127668431.829        2693.804          42.750           0.000           0.000           0.000           0.000    24517385.643   103741072.662        2189.039          45.750  
C30  21592258.879   112436558.635         599.055          52.000           0.000           0.000           0.000           0.000    21592266.268    91363941.825         486.838          51.250  
C32  22043335.707   114785428.395        -982.536          52.750           0.000           0.000           0.000           0.000    22043342.752    93272594.744        -798.437          51.750  
> 2019 11  1  0 51 40.0000000  0 27
G02  21529277.379   113137114.610         765.622          49.250    21529273.660    88158796.876         596.850          42.000           0.000           0.000           0.000           0.000  
G05  21059226.006   110666978.902        1590.774          50.750    21059224.185    86234019.951        1239.792          41.250           0.000           0.000           0.000           0.000  
G06  21810030.850   114612484.776       -1222.933          47.250    21810033.226    89308449.859        -952.238          39.000    21810089.120    85587473.092        -913.031          53.000  
G09  23308935.021   122489286.550       -1941.980          37.750    23308937.012    95446225.363       -1512.449          28.000    23308993.587    91469493.513       -1450.047          48.500  
G12  22554921.378   118526904.852       -1712.098          48.500    22554918.648    92358633.147       -1334.081          36.750           0.000           0.000           0.000           0.000  
G17  23278704.285   122330414.044       -3152.950          34.000    23278702.643    95322453.078       -2457.496          28.250           0.000           0.000           0.000           0.000  
G19  22140233.461   116347707.091       -2912.990          47.500    22140231.031    90660577.800       -2269.548          39.000           0.000           0.000           0.000           0.000  
G25  23955298.705   125885938.484         348.988          43.000    23955300.854    98092970.912         272.013          31.500    23955357.235    94005965.746         260.752          49.000  
R02  21032362.074   112232715.538       -3287.033          49.750    21032380.407    87292181.664       -2557.122          45.500  
R03  19205129.147   102806561.554         468.801          53.000    19205147.821    79960732.929         364.049          51.500  
R17  20273660.212   108488444.379       -1117.195          52.250    20273679.262    84379978.840        -869.390          50.500  
R18  20166879.677   107652171.238        1902.263          53.000    20166897.438    83729540.593        1479.146          47.250  
C01  37443488.405   194978062.387         -80.058          44.000    37443497.159   150769458.431         -61.850          49.000    37443488.547   158435651.187         -65.024          44.500  
C02  37390549.899   194702393.618         -20.886          43.500    37390560.387   150556305.116         -16.095          49.750    37390551.320   158211657.464         -16.931          43.250  
C03  36666695.728   190933099.980         -63.392          47.250    36666707.327   147641641.717         -49.028          50.250    36666697.249   155148794.353         -51.617          44.750  
C04  38794365.364   202012429.500         -65.448          40.750    38794377.420   156208880.415         -50.636          48.250    38794367.078   164151661.944         -53.348          43.500  
C05  39395695.324   205143713.375         -25.121          35.250    39395708.026   158630204.262         -19.411          40.250    39395698.670   166696092.409         -20.530          36.750  
C06  37758107.858   196616368.789        1423.321          45.000    37758119.954   152036300.771        1100.649          49.250    37758107.576   159766909.797        1156.645          43.500  
C08  36643480.360   190812215.790         243.597          46.500    36643491.162   147548154.757         188.302          50.750    36643479.521   155050553.162         197.947          47.000  
C09  39727834.775   206873254.150        1478.126          39.500    39727847.607   159967580.335        1142.723          41.500    39727834.275   168101478.711        1201.302          39.500  
C13  36848999.733   191882410.652         279.373          48.750    36849017.789   148375724.270         216.098          49.000    36849005.216   155920197.402         227.135          47.250  
C16  38439517.625   200164657.234        1579.976          44.750    38439535.342   154780080.401        1221.880          47.750    38439521.248   162650195.387        1283.991          42.250  
C20  22785581.183   118650501.524        2004.510          51.000           0.000           0.000           0.000           0.000    22785579.128    96413243.271        1628.768          50.000  
C27  23338907.226   121531809.825       -2036.825          49.750           0.000           0.000           0.000           0.000    23338912.613    98754577.367       -1654.954          47.750  
C29  24512114.011   127641010.689        2693.680          42.250           0.000           0.000           0.000           0.000    24512119.377   103718790.755        2188.792          45.500  
C30  21591019.135   112430102.126         595.603          52.250           0.000           0.000           0.000           0.000    21591026.344    91358695.376         484.053          51.000  
C32  22045133.438   114794791.202        -986.662          52.750           0.000           0.000           0.000           0.000    22045140.922    93280202.778        -801.783          51.750  
> 2019 11  1  0 51 50.0000000  0 27
G02  21527728.550   113128976.018         765.873          49.000    21527724.871    88152455.116         596.487          41.750           0.000           0.000           0.000           0.000  
G05  21056110.675   110650607.385        1587.440          50.750    21056108.886    86221262.924        1236.740          41.500           0.000           0.000           0.000           0.000  
G06  21812266.834   114624234.744       -1223.405          47.250    21812268.813    89317605.678        -953.566          39.000    21812325.290    85596247.429        -913.705          52.750  
G09  23312542.752   122508245.563       -1946.240          38.750    23312544.464    95460998.626       -1517.394          29.750    23312601.224    91483651.219       -1453.327          47.750  
G12  22558091.413   118543563.499       -1715.812          48.250    22558089.247    92371613.898       -1337.109          36.500           0.000           0.000           0.000           0.000  
G17  23284615.115   122361478.349       -3155.826          34.250    23284614.083    95346658.982       -2457.569          26.750           0.000           0.000           0.000           0.000  
G19  22145687.697   116376369.589       -2915.726          47.500    22145685.236    90682912.204       -2272.461          39.000           0.000           0.000           0.000           0.000  
G25  23954547.553   125881991.420         344.200          43.250    23954549.779    98089895.273         268.117          31.000    23954606.585    94003018.268         256.900          49.250  
R02  21038434.822   112265121.553       -3291.763          49.750    21038453.138    87317386.312       -2559.807          45.500  
R03  19204170.980   102801427.286         460.166          53.500    19204189.260    79956739.595         358.357          51.500  
R17  20275661.386   108499153.121       -1122.484          52.250    20275680.481    84388307.821        -872.608          50.500  
R18  20163226.888   107632674.658        1899.213          53.750    20163244.872    83714376.554        1477.657          47.500  
C01  37443550.194   194978382.853         -79.401          44.000    37443558.520   150769706.219         -61.347          49.000    37443549.966   158435911.576         -64.398          44.250  
C02  37390497.800   194702121.824         -19.960          43.500    37390508.252   150556094.966         -15.563          50.000    37390499.145   158211436.627         -16.435          43.000  
C03  36666725.263   190933253.427         -62.496          47.500    36666736.907   147641760.369         -48.413          50.250    36666726.749   155148919.039         -50.869          45.000  
C04  38794398.678   202012603.759         -64.700          40.750    38794410.579   156209015.178         -50.036          48.250    38794400.568   164151803.529         -52.431          43.250  
C05  39395651.042   205143484.798         -24.619          35.250    39395664.058   158630027.502         -18.973          40.000    39395654.462   166695906.638         -19.454          36.500  
C06  37755282.506   196601658.195        1423.356          44.750    37755295.056   152024925.608        1100.689          49.000    37755282.761   159754956.243        1156.678          43.750  
C08  36642919.576   190809296.199         244.987          46.500    36642930.691   147545897.145         189.406          50.750    36642919.122   155048180.764         199.042          47.000  
C09  39724903.604   206857992.616        1478.905          40.000    39724917.124   159955779.146        1143.498          41.750    39724903.377   168089077.480        1201.842          39.000  
C13  36848370.014   191879132.471         280.853          48.750    36848388.207   148373189.365         217.289          49.000    36848375.829   155917533.616         228.256          47.000  
C16  38436391.610   200148380.350        1580.102          44.750    38436409.503   154767494.097        1221.676          48.000    38436395.324   162636969.115        1283.689          42.500  
C20  22781643.336   118629995.924        2001.346          51.000           0.000           0.000           0.000           0.000    22781641.071    96396580.798        1626.223          49.750  
C27  23342729.918   121551713.743       -2039.288          50.250           0.000           0.000           0.000           0.000    23342734.926    98770750.939       -1657.065          47.750  
C29  24506849.572   127613597.461        2693.803          42.750           0.000           0.000           0.000           0.000    24506854.947   103696515.273        2188.896          45.250  
C30  21589786.653   112423684.205         592.627          52.250           0.000           0.000           0.000           0.000    21589793.881    91353480.296         481.558          51.000  
C32  22046940.023   114804198.819        -990.213          52.500           0.000           0.000           0.000           0.000    22046947.776    93287847.241        -804.666          51.750  
> 2019 11  1  0 52  0.0000000  0 27
G02  21526181.138   113120844.305         765.049          49.250    21526177.383    88146118.720         596.128          42.250           0.000           0.000           0.000           0.000  
G05  21053003.462   110634278.297        1583.011          51.250    21053001.864    86208538.966        1233.401          42.000           0.000           0.000           0.000           0.000  
G06  21814505.376   114635999.140       -1224.883          47.000    21814507.613    89326772.739        -954.589          39.750    21814563.810    85605032.526        -914.587          53.000  
G09  23316160.715   122527256.085       -1951.301          39.000    23316161.790    95475811.971       -1520.793          28.500    23316218.860    91497847.352       -1457.041          48.000  
G12  22561270.185   118560268.234       -1720.514          48.000    22561268.288    92384630.569       -1340.621          37.000           0.000           0.000           0.000           0.000  
G17  23290531.689   122392570.423       -3158.579          32.750    23290530.803    95370886.545       -2461.493          28.500           0.000           0.000           0.000           0.000  
G19  22151148.714   116405068.655       -2919.517          47.500    22151146.786    90705275.108       -2274.685          39.500           0.000           0.000           0.000           0.000  
G25  23953806.744   125878101.614         338.493          42.250    23953809.606    98086864.274         263.306          30.750    23953866.495    94000113.545         252.874          50.000  
R02  21044516.292   112297571.894       -3296.440          49.750    21044534.152    87342625.473       -2563.324          45.750  
R03  19203227.712   102796375.885         451.956          53.250    19203246.305    79952810.739         351.755          52.000  
R17  20277671.068   108509911.443       -1127.381          52.250    20277690.530    84396675.416        -876.574          50.500  
R18  20159579.821   107613206.592        1896.408          53.750    20159598.298    83699234.735        1475.219          47.750  
C01  37443611.198   194978701.585         -78.942          44.000    37443619.464   150769952.695         -61.019          49.000    37443611.156   158436170.590         -64.288          44.250  
C02  37390445.070   194701848.503         -19.723          43.750    37390455.623   150555883.594         -15.287          50.000    37390446.578   158211214.509         -16.022          43.250  
C03  36666754.384   190933405.359         -62.325          47.250    36666765.876   147641877.837         -48.046          50.500    36666755.942   155149042.497         -50.696          44.750  
C04  38794432.033   202012776.430         -64.354          40.750    38794443.718   156209148.689         -49.851          48.500    38794433.503   164151943.846         -52.352          43.500  
C05  39395606.757   205143254.683         -24.371          34.500    39395619.498   158629849.578         -18.767          40.750    39395610.222   166695719.659         -19.448          36.250  
C06  37752458.707   196586954.551        1422.893          44.750    37752471.469   152013555.824        1100.283          49.000    37752459.107   159743008.337        1156.076          43.750  
C08  36642357.690   190806369.016         245.838          46.750    36642368.475   147543633.646         190.237          50.750    36642357.135   155045802.178         199.756          47.250  
C09  39721972.713   206842729.505        1479.138          39.500    39721985.915   159943976.766        1143.710          42.500    39721972.406   168076674.961        1202.154          39.500  
C13  36847738.757   191875845.554         282.046          48.500    36847756.715   148370647.726         218.076          49.250    36847744.512   155914862.727         229.231          47.250  
C16  38433267.188   200132109.035        1579.641          44.750    38433284.981   154754912.080        1221.520          48.000    38433270.693   162623747.298        1283.780          42.500  
C20  22777712.648   118609527.403        1997.832          51.500           0.000           0.000           0.000           0.000    22777710.476    96379948.444        1623.521          49.750  
C27  23346557.931   121571647.624       -2042.140          50.000           0.000           0.000           0.000           0.000    23346563.207    98786948.839       -1659.147          48.000  
C29  24501585.796   127586189.259        2693.358          42.500           0.000           0.000           0.000           0.000    24501591.840   103674243.845        2188.810          45.250  
C30  21588560.940   112417301.958         589.255          52.500           0.000           0.000           0.000           0.000    21588568.126    91348294.190         478.957          51.000  
C32  22048754.676   114813648.217        -994.180          52.250           0.000           0.000           0.000           0.000    22048762.315    93295525.644        -807.777          51.500  
> 2019 11  1  0 52 10.0000000  0 27
G02  21524635.843   113112722.773         763.956          49.500    21524631.715    88139790.250         595.337          41.750           0.000           0.000           0.000           0.000  
G05  21049905.046   110617994.902        1578.444          51.500    21049903.233    86195850.598        1229.929          42.250           0.000           0.000           0.000           0.000  
G06  21816747.603   114647781.262       -1226.707          46.750    21816749.578    89335953.602        -955.778          39.000    21816805.786    85613830.851        -916.039          53.000  
G09  23319788.835   122546321.409       -1956.942          39.500    23319789.514    95490668.060       -1524.854          29.000    23319846.865    91512084.442       -1461.368          48.250  
G12  22564458.064   118577022.014       -1725.483          47.750    22564456.698    92397685.447       -1344.600          37.000           0.000           0.000           0.000           0.000  
G17  23296454.342   122423693.647       -3161.662          33.250    23296454.069    95395138.400       -2462.961          28.250           0.000           0.000           0.000           0.000  
G19  22156617.581   116433807.488       -2923.470          47.250    22156615.498    90727668.991       -2278.241          39.000           0.000           0.000           0.000           0.000  
G25  23953078.173   125874272.453         332.378          42.250    23953081.019    98083880.487         259.275          29.250    23953138.067    93997254.098         248.119          50.500  
R02  21050606.448   112330069.775       -3300.200          49.000    21050624.684    87367901.603       -2566.961          45.500  
R03  19202299.315   102791410.775         443.860          53.250    19202317.890    79948948.986         345.101          52.250  
R17  20279691.074   108520722.871       -1132.235          52.250    20279710.894    84405084.305        -880.615          50.500  
R18  20155939.033   107593770.660        1893.800          53.750    20155957.411    83684117.882        1472.868          48.000  
C01  37443672.488   194979022.040         -79.526          44.250    37443681.275   150770200.482         -61.463          49.250    37443672.653   158436430.964         -64.544          44.000  
C02  37390393.130   194701576.871         -20.238          43.500    37390403.482   150555673.547         -15.600          50.000    37390394.381   158210993.797         -16.458          43.250  
C03  36666783.914   190933559.016         -62.765          47.250    36666795.447   147641996.666         -48.513          50.250    36666785.471   155149167.364         -51.101          44.750  
C04  38794465.345   202012950.770         -64.876          40.500    38794477.188   156209283.489         -50.145          48.500    38794467.291   164152085.502         -52.621          43.500  
C05  39395563.256   205143026.296         -24.633          34.750    39395575.614   158629672.976         -19.015          40.250    39395566.901   166695534.120         -19.910          36.750  
C06  37749637.292   196572261.131        1421.512          44.750    37749649.569   152002193.940        1099.251          48.750    37749637.324   159731068.732        1154.957          43.750  
C08  36641794.636   190803437.410         246.077          46.750    36641805.172   147541366.749         190.257          50.750    36641793.989   155043420.016         199.901          47.000  
C09  39719041.718   206827468.130        1479.018          40.000    39719055.835   159932175.702        1143.407          42.750    39719042.009   168064273.874        1201.571          40.000  
C13  36847106.523   191872553.174         282.178          48.500    36847124.551   148368101.847         218.175          49.000    36847112.171   155912187.401         229.352          47.250  
C16  38430143.418   200115846.626        1578.414          44.750    38430161.754   154742336.967        1220.588          48.250    38430148.084   162610532.760        1282.914          43.000  
C20  22773789.758   118589099.273        1993.476          51.750           0.000           0.000           0.000           0.000    22773787.628    96363348.927        1619.985          49.750  
C27  23350392.369   121591614.758       -2045.758          50.000           0.000           0.000           0.000           0.000    23350398.107    98803173.778       -1662.265          48.000  
C29  24496324.615   127558789.392        2692.235          43.250           0.000           0.000           0.000           0.000    24496330.503   103651979.220        2187.720          45.750  
C30  21587342.926   112410958.729         584.972          52.500           0.000           0.000           0.000           0.000    21587349.951    91343139.803         475.355          51.000  
C32  22050577.951   114823142.645        -998.981          52.250           0.000           0.000           0.000           0.000    22050585.396    93303240.650        -811.737          51.500  
> 2019 11  1  0 52 20.0000000  0 27
G02  21523092.031   113104609.571         764.299          49.500    21523087.989    88133468.262         595.705          41.750           0.000           0.000           0.000           0.000  
G05  21046814.855   110601755.363        1575.085          52.000    21046813.139    86183196.409        1227.377          42.250           0.000           0.000           0.000           0.000  
G06  21818992.672   114659579.228       -1227.112          46.750    21818994.840    89345146.815        -956.203          38.250    21819050.783    85622641.002        -916.152          53.250  
G09  23323426.977   122565439.473       -1960.960          38.000    23323427.576    95505565.260       -1527.739          28.000    23323484.875    91526360.922       -1464.253          48.250  
G12  22567655.042   118593823.172       -1729.062          47.500    22567653.441    92410777.235       -1347.292          36.250           0.000           0.000           0.000           0.000  
G17  23302382.568   122454846.121       -3163.479          35.000    23302382.294    95419412.973       -2464.373          28.250           0.000           0.000           0.000           0.000  
G19  22162093.544   116462584.142       -2926.140          47.500    22162091.436    90750092.350       -2280.046          38.500           0.000           0.000           0.000           0.000  
G25  23952361.146   125870501.959         327.612          42.000    23952362.541    98080942.427         255.248          31.000    23952420.875    93994438.429         244.863          50.750  
R02  21056705.327   112362612.966       -3303.898          48.500    21056723.097    87393212.985       -2569.787          45.500  
R03  19201386.740   102786529.923         436.564          53.000    19201405.306    79945152.777         339.387          52.000  
R17  20281720.868   108531585.427       -1136.117          52.750    20281740.759    84413532.969        -883.834          50.500  
R18  20152303.977   107574364.876        1891.996          53.500    20152322.221    83669024.513        1471.299          48.750  
C01  37443734.110   194979342.139         -78.108          44.250    37443742.612   150770448.002         -60.282          49.000    37443734.138   158436691.077         -63.368          44.250  
C02  37390341.060   194701305.094         -18.853          43.500    37390351.323   150555463.401         -14.446          50.000    37390342.256   158210772.954         -15.253          43.250  
C03  36666812.985   190933712.524         -61.270          47.250    36666825.085   147642115.366         -47.326          50.250    36666814.821   155149292.103         -49.740          45.000  
C04  38794498.792   202013124.851         -63.235          40.750    38794510.678   156209418.120         -48.996          48.250    38794500.670   164152226.961         -51.315          43.500  
C05  39395519.019   205142797.821         -23.485          34.500    39395532.230   158629496.308         -18.372          40.750    39395523.014   166695348.448         -18.984          36.750  
C06  37746817.250   196557576.038        1422.118          44.750    37746829.026   151990838.494        1099.818          49.000    37746817.478   159719135.885        1155.691          44.000  
C08  36641230.304   190800499.558         248.185          46.500    36641241.267   147539095.022         191.901          50.750    36641229.748   155041032.769         201.676          47.250  
C09  39716110.854   206812206.590        1480.305          39.000    39716124.861   159920374.520        1144.553          43.250    39716111.438   168051872.620        1202.604          40.250  
C13  36846472.830   191869253.400         284.417          48.250    36846490.575   148365550.260         219.800          49.000    36846478.524   155909506.061         231.124          47.250  
C16  38427021.852   200099591.140        1579.339          44.750    38427039.824   154729767.218        1221.069          48.500    38427026.078   162597323.881        1283.306          42.500  
C20  22769874.173   118568709.641        1991.171          51.750           0.000           0.000           0.000           0.000    22769871.739    96346780.682        1618.042          49.750  
C27  23354232.626   121611613.206       -2047.263          49.750           0.000           0.000           0.000           0.000    23354238.469    98819424.149       -1663.641          48.000  
C29  24491063.937   127531396.030        2692.960          42.250           0.000           0.000           0.000           0.000    24491070.120   103629719.872        2188.390          46.000  
C30  21586132.000   112404652.644         582.833          52.250           0.000           0.000           0.000           0.000    21586138.956    91338015.589         473.656          51.000  
C32  22052409.689   114832680.129       -1001.830          52.500           0.000           0.000           0.000           0.000    22052416.767    93310990.645        -814.100          51.500  
> 2019 11  1  0 52 30.0000000  0 27
G02  21521549.160   113096502.593         764.066          49.250    21521545.549    88127151.140         595.570          42.250           0.000           0.000           0.000           0.000  
G05  21043732.281   110585557.534        1571.458          51.500    21043730.959    86170574.723        1224.393          42.750           0.000           0.000           0.000           0.000  
G06  21821240.019   114671390.963       -1228.111          46.500    21821242.744    89354350.763        -957.136          38.750    21821298.599    85631461.448        -916.976          53.250  
G09  23327074.305   122584608.194       -1965.690          37.000    23327074.731    95520501.952       -1531.880          28.000    23327132.508    91540675.206       -1467.691          48.250  
G12  22570861.012   118610669.512       -1733.192          47.750    22570859.294    92423904.234       -1350.984          36.500           0.000           0.000           0.000           0.000  
G17  23308316.543   122486025.536       -3165.629          36.000    23308315.564    95443708.609       -2465.968          27.250           0.000           0.000           0.000           0.000  
G19  22167576.120   116491396.464       -2929.255          47.250    22167574.338    90772543.508       -2282.526          38.250           0.000           0.000           0.000           0.000  
G25  23951654.489   125866787.988         322.262          42.750    23951656.054    98078048.407         251.121          29.750    23951714.144    93991665.010         240.618          50.250  
R02  21062812.121   112395199.413       -3307.395          49.250    21062829.926    87418558.003       -2572.649          45.750  
R03  19200491.041   102781731.318         428.828          52.750    19200509.428    79941420.530         333.404          52.000  
R17  20283760.385   108542497.095       -1140.366          52.750    20283779.730    84422019.823        -887.231          50.750  
R18  20148673.998   107554987.423        1889.827          53.500    20148691.848    83653953.157        1469.448          48.750  
C01  37443795.234   194979659.893         -77.490          44.000    37443803.620   150770693.718         -59.966          49.000    37443795.159   158436949.274         -62.862          44.250  
C02  37390288.447   194701031.107         -18.280          43.750    37390298.743   150555251.525         -14.130          50.000    37390289.669   158210550.307         -14.809          42.750  
C03  36666842.213   190933863.826         -60.740          47.000    36666854.087   147642232.377         -47.139          50.250    36666843.837   155149415.050         -49.446          44.750  
C04  38794531.540   202013296.725         -62.775          41.250    38794543.850   156209550.997         -48.493          48.500    38794533.710   164152366.627         -51.205          43.500  
C05  39395474.687   205142567.098         -22.696          35.000    39395487.806   158629317.866         -17.295          40.750    39395478.628   166695160.995         -18.935          37.000  
C06  37743998.178   196542897.271        1421.827          44.750    37744009.974   151979487.960        1099.385          49.250    37743998.685   159707208.201        1155.375          44.000  
C08  36640664.731   190797553.445         249.182          46.750    36640675.438   147536816.890         192.753          50.750    36640664.050   155038638.810         202.476          47.000  
C09  39713179.409   206796942.881        1480.765          39.000    39713193.884   159908571.647        1144.846          43.250    39713180.839   168039469.595        1203.233          40.250  
C13  36845837.235   191865944.174         285.705          48.500    36845855.054   148362991.355         220.778          49.000    36845842.808   155906817.053         232.095          47.000  
C16  38423901.388   200083340.631        1579.077          44.750    38423919.104   154717201.300        1220.938          48.250    38423905.338   162584119.015        1283.092          42.250  
C20  22765965.576   118548356.538        1987.693          51.750           0.000           0.000           0.000           0.000    22765962.694    96330242.115        1615.160          49.250  
C27  23358078.592   121631640.934       -2050.017          49.500           0.000           0.000           0.000           0.000    23358083.997    98835698.310       -1665.786          48.000  
C29  24485803.325   127504007.174        2693.024          41.500           0.000           0.000           0.000           0.000    24485810.635   103607464.204        2188.345          46.000  
C30  21584927.471   112398381.752         579.567          52.250           0.000           0.000           0.000           0.000    21584934.725    91332919.979         470.939          51.000  
C32  22054249.314   114842258.598       -1005.593          52.750           0.000           0.000           0.000           0.000    22054256.094    93318773.933        -817.213          51.250  
> 2019 11  1  0 52 40.0000000  0 27
G02  21520008.141   113088403.934         763.410          49.000    21520004.694    88120840.497         594.964          42.250           0.000           0.000           0.000           0.000  
G05  21040658.119   110569403.428        1567.111          51.500    21040656.639    86157987.103        1221.108          42.750           0.000           0.000           0.000           0.000  
G06  21823491.096   114683218.509       -1229.511          46.500    21823493.471    89363567.015        -958.032          39.500    21823549.534    85640293.697        -918.328          53.250  
G09  23330731.609   122603829.535       -1970.845          36.000    23330732.750    95535479.542       -1534.652          28.750    23330790.593    91555028.779       -1471.754          48.250  
G12  22574075.648   118627562.924       -1737.747          48.000    22574074.050    92437067.912       -1354.129          36.000           0.000           0.000           0.000           0.000  
G17  23314255.947   122517233.927       -3168.466          35.750    23314254.779    95468026.832       -2469.136          28.250           0.000           0.000           0.000           0.000  
G19  22173065.910   116520246.379       -2932.954          47.250    22173064.295    90795023.952       -2285.025          38.000           0.000           0.000           0.000           0.000  
G25  23950958.904   125863132.631         316.642          41.750    23950960.118    98075200.068         247.309          30.500    23951017.962    93988935.342         236.248          50.000  
R02  21068926.910   112427830.847       -3312.303          49.750    21068945.297    87443937.982       -2576.181          46.000  
R03  19199611.393   102777016.944         420.319          53.000    19199629.781    79937753.793         326.978          52.000  
R17  20285809.249   108553459.976       -1145.855          52.500    20285828.737    84430546.510        -891.111          51.000  
R18  20145050.054   107535640.341        1886.354          53.000    20145067.886    83638905.416        1467.208          49.000  
C01  37443855.953   194979977.374         -77.607          43.750    37443864.821   150770939.209         -59.982          49.000    37443856.159   158437207.253         -62.962          44.250  
C02  37390235.547   194700756.896         -18.417          43.500    37390246.214   150555039.489         -14.204          50.000    37390237.079   158210327.480         -14.896          43.250  
C03  36666871.323   190934014.915         -60.829          47.000    36666883.320   147642349.196         -47.098          50.250    36666872.785   155149537.812         -49.409          45.000  
C04  38794564.828   202013468.316         -62.926          41.000    38794576.913   156209683.681         -48.693          48.250    38794566.435   164152506.039         -51.122          43.250  
C05  39395430.220   205142336.200         -22.513          34.750    39395443.792   158629139.321         -17.515          40.750    39395434.411   166694973.335         -18.396          36.250  
C06  37741180.702   196528226.856        1420.893          44.750    37741193.522   151968143.863        1098.672          49.000    37741181.385   159695287.286        1154.565          44.000  
C08  36640097.668   190794601.053         249.842          46.750    36640108.852   147534533.927         193.166          50.750    36640096.940   155036239.755         202.750          47.000  
C09  39710247.786   206781679.004        1480.456          38.000    39710262.735   159896768.638        1144.912          43.000    39710249.411   168027066.437        1203.091          40.750  
C13  36845200.431   191862627.463         286.197          48.250    36845218.686   148360426.661         221.314          49.000    36845206.016   155904121.955         232.537          47.000  
C16  38420782.156   200067097.124        1578.355          44.750    38420800.500   154704640.779        1220.344          48.250    38420786.273   162570919.817        1282.452          42.750  
C20  22762064.344   118528041.935        1983.761          51.500           0.000           0.000           0.000           0.000    22762061.396    96313734.839        1611.936          49.500  
C27  23361930.697   121651699.916       -2053.239          49.000           0.000           0.000           0.000           0.000    23361936.126    98851997.861       -1668.412          48.000  
C29  24480544.850   127476624.918        2692.176          41.000           0.000           0.000           0.000           0.000    24480552.246   103585213.894        2187.530          46.250  
C30  21583730.364   112392148.069         575.694          52.000           0.000           0.000           0.000           0.000    21583737.598    91327854.592         467.825          51.000  
C32  22056097.104   114851879.972       -1010.065          52.750           0.000           0.000           0.000           0.000    22056103.364    93326592.072        -820.670          51.250  
> 2019 11  1  0 52 50.0000000  0 27
G02  21518468.127   113080312.261         763.275          49.000    21518464.712    88114535.303         594.851          42.000           0.000           0.000           0.000           0.000  
G05  21037592.085   110553291.676        1563.510          51.250    21037590.835    86145432.496        1218.439          43.000           0.000           0.000           0.000           0.000  
G06  21825744.720   114695060.534       -1230.415          46.750    21825747.178    89372794.557        -958.309          39.000    21825803.082    85649136.754        -918.969          53.250  
G09  23334399.230   122623101.983       -1974.998          35.500    23334400.204    95550497.053       -1538.782          27.750    23334458.006    91569420.542       -1475.035          48.000  
G12  22577298.925   118644501.962       -1741.684          47.500    22577296.788    92450267.157       -1357.203          35.750           0.000           0.000           0.000           0.000  
G17  23320200.027   122548469.882       -3170.512          35.500    23320198.753    95492366.473       -2471.660          28.500           0.000           0.000           0.000           0.000  
G19  22178562.405   116549132.426       -2936.023          46.750    22178560.727    90817532.562       -2287.309          37.750           0.000           0.000           0.000           0.000  
G25  23950274.611   125859534.442         311.353          42.250    23950276.190    98072396.288         243.728          30.750    23950332.724    93986248.380         232.499          49.500  
R02  21075050.114   112460506.096       -3315.274          49.500    21075068.546    87469352.055       -2578.964          46.000  
R03  19198746.571   102772385.412         413.090          52.750    19198764.341    79934151.492         320.980          51.750  
R17  20287867.513   108564472.639       -1149.936          52.250    20287886.939    84439111.910        -894.480          50.750  
R18  20141431.401   107516322.267        1884.549          52.750    20141448.938    83623880.243        1465.454          48.750  
C01  37443916.828   194980293.182         -76.584          44.000    37443925.519   150771183.406         -59.384          49.000    37443916.798   158437463.874         -62.347          44.250  
C02  37390182.722   194700481.141         -17.455          43.500    37390193.328   150554826.255         -13.583          50.000    37390184.134   158210103.415         -14.329          43.000  
C03  36666900.377   190934164.437         -59.941          47.250    36666911.903   147642464.837         -46.463          50.250    36666901.483   155149659.326         -48.875          44.750  
C04  38794597.284   202013638.305         -62.165          40.500    38794609.382   156209815.110         -48.055          48.250    38794599.224   164152644.161         -50.453          43.750  
C05  39395385.996   205142103.741         -21.866          34.750    39395398.740   158628959.564         -16.468          40.500    39395389.812   166694784.453         -17.600          37.250  
C06  37738365.105   196513563.395        1420.912          44.500    37738377.344   151956805.156        1098.624          49.250    37738365.075   159683372.039        1154.329          44.000  
C08  36639529.370   190791641.055         251.313          47.000    36639540.410   147532245.060         194.254          50.750    36639528.582   155033834.516         204.106          47.000  
C09  39707316.437   206766413.667        1481.254          37.250    39707331.052   159884964.499        1145.671          42.750    39707318.337   168014662.089        1203.862          41.000  
C13  36844561.559   191859302.003         287.716          48.250    36844580.114   148357855.200         222.539          48.750    36844566.995   155901419.735         233.799          47.000  
C16  38417663.423   200050859.232        1578.312          45.000    38417682.284   154692084.604        1220.494          48.250    38417668.098   162557725.205        1282.589          42.750  
C20  22758170.286   118507764.540        1980.694          51.500           0.000           0.000           0.000           0.000    22758167.419    96297257.778        1609.625          49.500  
C27  23365788.621   121671788.786       -2055.511          49.250           0.000           0.000           0.000           0.000    23365794.254    98868321.700       -1670.245          47.750  
C29  24475287.566   127449247.934        2692.268          41.000           0.000           0.000           0.000           0.000    24475294.387   103562967.864        2187.616          45.750  
C30  21582539.878   112385950.303         572.878          52.000           0.000           0.000           0.000           0.000    21582547.267    91322818.400         465.436          51.000  
C32  22057952.615   114861542.835       -1013.494          52.750           0.000           0.000           0.000           0.000    22057958.972    93334443.937        -823.497          51.000  
> 2019 11  1  0 53  0.0000000  0 27
G02  21516929.833   113072228.958         763.116          49.000    21516926.801    88108236.631         594.640          42.000           0.000           0.000           0.000           0.000  
G05  21034534.508   110537223.644        1559.753          51.500    21034533.207    86132911.956        1215.929          42.500           0.000           0.000           0.000           0.000  
G06  21828001.125   114706918.411       -1231.382          46.500    21828003.731    89382034.449        -959.288          39.000    21828059.479    85657991.628        -919.484          53.500  
G09  23338076.596   122642426.958       -1980.595          36.000    23338077.275    95565555.474       -1542.025          29.250    23338135.680    91583851.461       -1478.065          48.500  
G12  22580531.126   118661487.815       -1745.879          47.500    22580528.766    92463502.888       -1359.659          36.000           0.000           0.000           0.000           0.000  
G17  23326149.849   122579734.769       -3172.860          36.500    23326148.633    95516728.747       -2470.266          28.250           0.000           0.000           0.000           0.000  
G19  22184066.334   116578055.943       -2939.098          46.750    22184064.453    90840070.361       -2289.805          37.250           0.000           0.000           0.000           0.000  
G25  23949601.034   125855994.798         306.318          42.500    23949601.634    98069638.142         239.700          30.750    23949659.181    93983605.155         228.746          49.750  
R02  21081181.826   112493225.959       -3319.849          49.250    21081200.500    87494800.808       -2582.066          46.500  
R03  19197895.368   102767837.953         404.824          52.500    19197913.792    79930614.586         314.951          52.000  
R17  20289935.207   108575536.556       -1155.040          52.000    20289954.543    84447717.175        -897.995          50.750  
R18  20137818.113   107497034.760        1881.927          52.500    20137835.382    83608878.863        1463.504          48.750  
C01  37443977.338   194980608.566         -76.033          43.750    37443985.978   150771427.277         -58.727          49.000    37443977.311   158437720.131         -61.507          44.250  
C02  37390129.597   194700205.106         -16.579          43.750    37390139.946   150554612.811         -12.849          50.000    37390131.298   158209879.112         -13.639          43.000  
C03  36666928.667   190934313.753         -59.202          47.250    36666940.302   147642580.279         -45.783          50.250    36666930.245   155149780.639         -48.066          45.000  
C04  38794629.667   202013807.982         -61.382          41.250    38794641.895   156209946.328         -47.428          48.250    38794631.813   164152782.037         -49.744          43.750  
C05  39395340.753   205141871.101         -21.065          34.500    39395354.241   158628779.679         -16.285          40.250    39395345.086   166694595.377         -16.892          36.500  
C06  37735550.462   196498908.287        1420.802          44.500    37735562.612   151945472.884        1098.784          49.000    37735550.894   159671463.568        1154.541          44.250  
C08  36638959.328   190788674.813         252.570          46.750    36638970.268   147529951.371         195.202          50.750    36638958.909   155031424.188         205.380          47.000  
C09  39704384.360   206751148.122        1482.425          37.250    39704398.316   159873160.231        1146.414          42.500    39704386.477   168002257.613        1204.479          40.500  
C13  36843921.670   191855969.021         289.355          48.000    36843939.753   148355277.934         223.737          49.000    36843927.102   155898711.412         235.172          47.250  
C16  38414546.841   200034628.320        1578.464          44.750    38414564.928   154679533.858        1220.549          48.500    38414551.219   162544536.271        1282.674          42.750  
C20  22754283.929   118487525.696        1977.611          51.750           0.000           0.000           0.000           0.000    22754280.933    96280812.060        1607.038          49.250  
C27  23369652.571   121691908.859       -2057.891          49.000           0.000           0.000           0.000           0.000    23369657.693    98884670.893       -1672.163          47.750  
C29  24470031.018   127421877.620        2692.656          40.750           0.000           0.000           0.000           0.000    24470038.124   103540727.253        2187.684          45.500  
C30  21581356.912   112379789.834         569.759          52.000           0.000           0.000           0.000           0.000    21581364.225    91317812.498         463.096          51.000  
C32  22059816.419   114871248.467       -1016.869          53.000           0.000           0.000           0.000           0.000    22059822.926    93342330.564        -826.388          51.000  
> 2019 11  1  0 53 10.0000000  0 27
G02  21515393.753   113064156.361         762.781          49.250    21515390.649    88101946.304         594.370          42.250           0.000           0.000           0.000           0.000  
G05  21031485.961   110521201.586        1555.899          51.750    21031484.228    86120427.232        1212.012          42.500           0.000           0.000           0.000           0.000  
G06  21830261.006   114718794.369       -1232.547          46.500    21830263.768    89391288.442        -960.874          38.500    21830319.610    85666860.049        -920.444          53.500  
G09  23341764.501   122661806.490       -1984.646          35.000    23341764.999    95580656.410       -1545.462          28.000    23341823.268    91598323.240       -1482.212          48.500  
G12  22583772.760   118678522.579       -1749.946          47.750    22583770.822    92476776.727       -1363.868          35.250           0.000           0.000           0.000           0.000  
G17  23332104.993   122611030.639       -3175.229          34.750    23332103.845    95541115.122       -2474.351          27.750           0.000           0.000           0.000           0.000  
G19  22189577.818   116607019.087       -2942.361          46.750    22189575.840    90862639.040       -2293.152          37.500           0.000           0.000           0.000           0.000  
G25  23948938.364   125852515.922         300.746          42.500    23948939.676    98066927.344         233.360          30.000    23948996.608    93981007.300         224.499          49.500  
R02  21087322.415   112525992.499       -3323.888          49.000    21087340.829    87520285.882       -2585.067          46.500  
R03  19197061.717   102763376.858         396.700          52.750    19197080.678    79927144.844         308.748          51.750  
R17  20292012.029   108586654.103       -1159.523          51.750    20292031.705    84456364.159        -901.612          50.250  
R18  20134211.277   107477780.170        1878.747          52.750    20134228.089    83593903.069        1461.475          48.250  
C01  37444038.340   194980925.888         -75.624          44.000    37444046.841   150771672.650         -58.398          49.000    37444038.261   158437977.980         -61.266          44.000  
C02  37390077.283   194699931.118         -16.338          43.500    37390087.353   150554400.937         -12.681          50.000    37390078.627   158209656.460         -13.286          43.000  
C03  36666957.695   190934465.081         -58.982          47.000    36666969.491   147642697.302         -45.599          50.250    36666959.370   155149903.619         -47.924          45.000  
C04  38794662.979   202013979.595         -61.040          41.000    38794674.925   156210079.034         -47.108          48.250    38794664.692   164152921.487         -49.431          43.500  
C05  39395296.893   205141640.448         -20.719          35.500    39395309.719   158628601.335         -16.092          40.750    39395300.649   166694407.979         -16.682          37.000  
C06  37732738.529   196484263.802        1420.085          44.750    37732750.464   151934148.846        1098.158          49.250    37732738.208   159659563.705        1154.194          44.000  
C08  36638389.422   190785704.470         253.517          47.000    36638400.046   147527654.520         196.086          50.750    36638388.429   155029010.544         206.007          47.000  
C09  39701453.098   206735884.705        1482.632          37.500    39701467.673   159861357.609        1146.550          43.250    39701455.607   167989854.846        1204.799          40.750  
C13  36843280.587   191852630.945         290.305          48.250    36843298.476   148352696.717         224.496          49.000    36843286.121   155895998.956         235.959          47.250  
C16  38411431.466   200018406.708        1577.830          44.750    38411449.658   154666990.262        1220.181          48.250    38411436.093   162531354.868        1282.499          43.000  
C20  22750404.788   118467327.702        1974.021          51.500           0.000           0.000           0.000           0.000    22750402.035    96264399.541        1604.091          49.250  
C27  23373522.588   121712062.364       -2060.867          49.000           0.000           0.000           0.000           0.000    23373528.041    98901047.259       -1674.441          47.500  
C29  24464776.443   127394516.290        2692.089          39.250           0.000           0.000           0.000           0.000    24464783.429   103518493.944        2187.617          45.250  
C30  21580181.309   112373668.948         566.323          51.750           0.000           0.000           0.000           0.000    21580188.784    91312838.790         460.126          51.000  
C32  22061688.786   114880999.070       -1021.024          52.750           0.000           0.000           0.000           0.000    22061695.253    93350253.710        -829.604          51.000  
> 2019 11  1  0 53 20.0000000  0 27
G02  21513859.559   113056093.233         761.920          49.000    21513856.161    88095663.334         594.128          41.750           0.000           0.000           0.000           0.000  
G05  21028445.734   110505224.310        1551.583          51.500    21028444.074    86107977.396        1208.570          42.250           0.000           0.000           0.000           0.000  
G06  21832524.124   114730687.210       -1234.029          46.500    21832526.802    89400555.587        -961.680          39.000    21832582.551    85675741.058        -921.398          53.500  
G09  23345462.454   122681239.336       -1989.678          36.250    23345463.443    95595798.882       -1549.005          27.500    23345520.910    91612834.770       -1485.922          48.250  
G12  22587023.543   118695605.014       -1754.457          47.750    22587021.453    92490087.703       -1367.016          35.250           0.000           0.000           0.000           0.000  
G17  23338066.434   122642356.148       -3177.805          38.250    23338065.653    95565524.589       -2476.099          27.250           0.000           0.000           0.000           0.000  
G19  22195096.625   116636020.618       -2945.954          46.500    22195094.547    90885237.624       -2295.593          36.750           0.000           0.000           0.000           0.000  
G25  23948286.848   125849096.568         294.869          41.000    23948288.084    98064262.902         229.943          28.750    23948346.183    93978453.894         220.287          49.250  
R02  21093471.299   112558804.790       -3328.470          49.000    21093489.964    87545806.537       -2588.509          46.250  
R03  19196244.856   102759001.232         388.053          53.000    19196263.754    79923741.578         302.314          52.000  
R17  20294098.730   108597823.934       -1164.914          51.500    20294118.460    84465051.791        -905.487          50.000  
R18  20130610.318   107458557.496        1875.535          52.750    20130627.273    83578952.104        1459.210          48.500  
C01  37444099.415   194981243.814         -75.105          43.750    37444107.770   150771918.498         -58.152          49.000    37444099.469   158438236.340         -61.137          44.000  
C02  37390024.575   194699657.808         -16.088          44.000    37390035.113   150554189.594         -12.444          50.000    37390025.935   158209434.380         -13.169          43.000  
C03  36666986.871   190934617.159         -58.603          47.000    36666998.893   147642814.893         -45.382          50.250    36666988.498   155150027.202         -47.819          44.750  
C04  38794695.994   202014151.894         -60.838          40.750    38794707.922   156210212.257         -47.033          48.250    38794697.913   164153061.505         -49.341          43.250  
C05  39395252.694   205141410.598         -20.858          35.250    39395265.720   158628423.568         -16.014          40.750    39395256.266   166694221.167         -16.631          36.250  
C06  37729927.309   196469628.692        1419.628          45.000    37729940.192   151922832.057        1097.677          49.250    37729927.852   159647671.493        1153.550          44.250  
C08  36637817.612   190782728.975         254.403          47.000    36637828.487   147525353.680         196.649          50.500    36637817.119   155026592.729         206.509          47.000  
C09  39698521.955   206720622.157        1482.589          36.750    39698536.794   159849555.636        1146.482          43.250    39698523.979   167977452.768        1205.014          40.750  
C13  36842638.162   191849286.383         291.365          48.250    36842656.430   148350110.494         225.223          49.000    36842643.695   155893281.223         236.827          47.000  
C16  38408317.959   200002193.063        1577.532          45.500    38408335.957   154654452.865        1219.728          48.250    38408322.698   162518179.981        1281.773          42.750  
C20  22746533.426   118447169.313        1970.420          51.750           0.000           0.000           0.000           0.000    22746531.109    96248019.196        1601.082          49.250  
C27  23377399.280   121732248.022       -2063.541          48.750           0.000           0.000           0.000           0.000    23377404.305    98917449.763       -1676.798          47.500  
C29  24459523.618   127367162.736        2691.512          40.250           0.000           0.000           0.000           0.000    24459529.459   103496266.948        2187.073          44.500  
C30  21579013.271   112367586.456         562.916          51.750           0.000           0.000           0.000           0.000    21579020.586    91307896.256         457.429          51.000  
C32  22063569.625   114890793.301       -1025.137          52.500           0.000           0.000           0.000           0.000    22063576.214    93358212.321        -832.868          50.750  
> 2019 11  1  0 53 30.0000000  0 27
G02  21512327.129   113048039.850         760.727          49.750    21512323.569    88089387.967         592.866          42.750           0.000           0.000           0.000           0.000  
G05  21025413.563   110489291.996        1546.903          51.000    21025412.456    86095562.611        1205.073          42.000           0.000           0.000           0.000           0.000  
G06  21834790.571   114742597.259       -1235.818          46.250    21834792.999    89409836.142        -963.535          38.500    21834848.827    85684634.943        -923.145          53.500  
G09  23349170.875   122700725.781       -1995.395          38.000    23349171.872    95610983.098       -1553.845          29.500    23349229.058    91627386.329       -1490.246          48.250  
G12  22590283.356   118712735.279       -1759.556          48.250    22590282.269    92503435.963       -1371.278          36.000           0.000           0.000           0.000           0.000  
G17  23344033.021   122673711.624       -3181.013          37.500    23344032.671    95589957.386       -2478.426          28.000           0.000           0.000           0.000           0.000  
G19  22200622.843   116665060.825       -2950.033          46.500    22200620.315    90907866.352       -2298.932          36.750           0.000           0.000           0.000           0.000  
G25  23947647.006   125845737.036         288.828          39.250    23947649.472    98061645.084         224.746          27.750    23947706.785    93975945.165         215.471          49.250  
R02  21099628.675   112591662.724       -3332.773          49.250    21099647.116    87571362.697       -2592.130          46.500  
R03  19195443.998   102754710.979         379.663          53.000    19195462.994    79920404.725         295.462          52.000  
R17  20296195.740   108609046.510       -1170.084          52.000    20296215.756    84473780.447        -909.708          50.000  
R18  20127015.461   107439367.063        1872.422          53.250    20127031.852    83564026.204        1456.603          47.500  
C01  37444160.528   194981562.744         -75.979          44.000    37444169.171   150772165.093         -58.604          49.000    37444160.765   158438495.473         -61.579          44.000  
C02  37389972.308   194699385.621         -16.791          43.500    37389982.722   150553979.115         -12.878          50.000    37389973.887   158209213.209         -13.643          42.750  
C03  36667016.392   190934770.359         -59.266          47.000    36667028.208   147642933.361         -45.823          50.250    36667018.047   155150151.675         -48.156          45.000  
C04  38794729.311   202014325.230         -61.298          40.500    38794741.418   156210346.296         -47.380          48.250    38794731.139   164153202.348         -49.770          43.500  
C05  39395209.016   205141181.837         -21.233          35.500    39395222.009   158628246.651         -16.274          40.750    39395212.611   166694035.292         -17.194          36.500  
C06  37727119.053   196455003.305        1417.956          44.750    37727131.611   151911522.758        1096.725          49.000    37727119.377   159635787.173        1152.344          44.500  
C08  36637245.315   190779748.559         254.341          47.000    36637256.145   147523049.033         196.711          50.500    36637244.979   155024170.881         206.634          46.750  
C09  39695591.438   206705360.839        1482.502          37.000    39695606.353   159837754.643        1146.023          42.250    39695593.512   167965051.723        1204.471          40.500  
C13  36841994.821   191845935.724         291.484          48.000    36842012.681   148347519.554         225.327          48.750    36842000.308   155890558.546         236.855          47.000  
C16  38405205.688   199985987.843        1576.162          45.000    38405223.917   154641921.953        1218.813          48.000    38405210.316   162505011.890        1280.636          42.750  
C20  22742670.207   118427050.906        1965.979          51.500           0.000           0.000           0.000           0.000    22742667.689    96231671.338        1597.447          49.500  
C27  23381282.087   121752466.206       -2067.490          48.500           0.000           0.000           0.000           0.000    23381286.829    98933878.666       -1680.007          47.000  
C29  24454272.470   127339817.433        2690.104          40.500           0.000           0.000           0.000           0.000    24454278.030   103474046.613        2185.956          44.500  
C30  21577852.506   112361542.767         558.414          52.000           0.000           0.000           0.000           0.000    21577860.064    91302985.258         453.818          51.000  
C32  22065458.954   114900631.468       -1029.969          52.500           0.000           0.000           0.000           0.000    22065465.600    93366206.648        -836.909          50.750  
> 2019 11  1  0 53 40.0000000  0 27
G02  21510796.746   113039997.408         760.783          49.750    21510793.313    88083121.133         592.129          42.000           0.000           0.000           0.000           0.000  
G05  21022390.294   110473405.981        1543.203          50.500    21022389.181    86083183.903        1202.386          41.500           0.000           0.000           0.000           0.000  
G06  21837060.122   114754525.766       -1236.949          46.000    21837063.105    89419131.082        -964.173          39.000    21837118.683    85693542.562        -923.600          53.500  
G09  23352889.681   122720266.907       -1999.922          38.500    23352891.484    95626209.934       -1558.474          31.250    23352947.690    91641978.692       -1493.453          48.250  
G12  22593552.576   118729914.499       -1763.415          48.000    22593551.354    92516822.368       -1374.838          36.250           0.000           0.000           0.000           0.000  
G17  23350005.413   122705098.241       -3183.161          38.250    23350006.028    95614414.450       -2480.883          28.500           0.000           0.000           0.000           0.000  
G19  22206156.658   116694140.751       -2953.057          46.250    22206154.541    90930526.030       -2301.483          36.750           0.000           0.000           0.000           0.000  
G25  23947019.653   125842438.506         283.855          40.750    23947022.032    98059074.798         219.980          29.250    23947078.472    93973481.947         211.893          49.000  
R02  21105795.180   112624567.193       -3336.474          49.000    21105813.567    87596955.066       -2595.041          46.750  
R03  19194657.891   102750507.324         372.524          53.000    19194676.851    79917135.230         289.537          51.750  
R17  20298303.356   108620322.965       -1173.860          52.000    20298323.104    84482551.043        -913.240          50.500  
R18  20123426.296   107420210.142        1870.530          52.750    20123443.296    83549126.385        1454.694          47.250  
C01  37444222.406   194981883.747         -74.902          44.250    37444231.157   150772413.325         -57.983          49.000    37444222.224   158438756.322         -60.898          44.000  
C02  37389920.725   194699115.655         -15.996          43.500    37389931.064   150553770.359         -12.275          50.000    37389921.750   158208993.817         -12.877          42.750  
C03  36667046.242   190934925.784         -58.340          47.000    36667058.546   147643053.552         -45.203          50.250    36667047.760   155150277.975         -47.483          45.000  
C04  38794762.786   202014500.738         -60.018          40.750    38794775.183   156210482.019         -46.641          48.000    38794764.559   164153344.986         -49.175          43.250  
C05  39395164.913   205140955.290         -20.094          35.000    39395178.858   158628071.513         -15.830          41.000    39395168.914   166693851.231         -16.499          36.500  
C06  37724312.280   196440388.773        1418.077          44.750    37724324.698   151900221.907        1096.529          49.000    37724312.853   159623911.692        1152.176          44.250  
C08  36636672.540   190776764.376         255.847          47.250    36636683.241   147520741.477         197.792          50.500    36636671.637   155021745.979         208.010          47.000  
C09  39692660.974   206690101.958        1483.310          37.750    39692675.831   159825955.514        1146.776          43.000    39692662.858   167952652.632        1205.240          40.500  
C13  36841350.244   191842580.056         293.199          48.250    36841368.678   148344924.753         226.495          48.750    36841355.902   155887831.791         238.101          47.000  
C16  38402095.550   199969792.136        1576.278          45.000    38402113.854   154629398.416        1219.015          48.250    38402100.135   162491851.554        1280.978          42.750  
C20  22738814.521   118406973.646        1962.948          51.500           0.000           0.000           0.000           0.000    22738812.518    96215356.923        1595.080          49.500  
C27  23385171.082   121772717.973       -2069.692          48.750           0.000           0.000           0.000           0.000    23385175.936    98950334.886       -1681.708          47.250  
C29  24449022.557   127312481.483        2690.221          41.500           0.000           0.000           0.000           0.000    24449028.251   103451833.902        2186.278          44.500  
C30  21576699.695   112355539.019         555.640          52.000           0.000           0.000           0.000           0.000    21576707.170    91298106.718         451.468          51.000  
C32  22067356.834   114910514.634       -1033.249          52.500           0.000           0.000           0.000           0.000    22067363.436    93374237.529        -839.571          50.500  
> 2019 11  1  0 53 50.0000000  0 27
G02  21509267.873   113031963.484         759.976          49.750    21509264.138    88076860.929         591.904          41.500           0.000           0.000           0.000           0.000  
G05  21019375.231   110457563.937        1538.953          50.250    21019374.262    86070839.452        1198.913          41.000           0.000           0.000           0.000           0.000  
G06  21839333.300   114766470.323       -1238.682          46.250    21839335.964    89428438.523        -965.369          38.000    21839391.416    85702462.203        -924.686          53.250  
G09  23356618.348   122739860.323       -2005.131          38.500    23356620.184    95641477.542       -1561.838          29.750    23356676.492    91656610.128       -1497.297          48.250  
G12  22596830.656   118747140.219       -1768.004          48.000    22596829.442    92530245.003       -1377.780          35.250           0.000           0.000           0.000           0.000  
G17  23355983.774   122736513.551       -3186.103          38.250    23355984.586    95638893.899       -2483.374          27.750           0.000           0.000           0.000           0.000  
G19  22211697.324   116723258.085       -2956.669          46.250    22211695.716    90953214.864       -2303.814          36.250           0.000           0.000           0.000           0.000  
G25  23946403.495   125839198.615         277.937          41.250    23946406.179    98056550.226         216.215          30.250    23946462.328    93971062.554         207.643          49.000  
R02  21111970.170   112657515.949       -3340.814          49.000    21111988.056    87622581.873       -2598.377          46.750  
R03  19193887.887   102746387.924         363.783          53.000    19193906.552    79913931.248         283.087          51.750  
R17  20300421.042   108631651.070       -1179.417          52.250    20300440.298    84491361.774        -917.179          50.750  
R18  20119842.913   107401084.627        1867.297          52.750    20119860.906    83534250.972        1452.398          47.750  
C01  37444283.892   194982204.615         -74.913          44.000    37444292.547   150772661.433         -57.864          48.750    37444283.958   158439017.035         -60.517          44.250  
C02  37389868.606   194698845.618         -15.712          43.750    37389879.168   150553561.554         -12.084          50.000    37389870.051   158208774.401         -12.682          42.750  
C03  36667076.132   190935081.150         -58.135          46.750    36667088.089   147643173.681         -44.985          50.000    36667077.604   155150404.234         -47.244          44.750  
C04  38794796.458   202014676.141         -60.268          41.000    38794809.124   156210617.635         -46.586          48.500    38794798.577   164153487.498         -48.964          43.500  
C05  39395121.897   205140728.728         -19.815          35.500    39395134.693   158627896.326         -15.801          40.250    39395125.873   166693667.160         -16.420          36.500  
C06  37721507.329   196425782.841        1417.412          44.750    37721519.984   151888927.686        1095.964          49.250    37721507.908   159612043.178        1151.927          44.500  
C08  36636097.907   190773774.137         256.547          47.000    36636109.151   147518429.223         198.407          50.500    36636097.274   155019316.161         208.751          46.750  
C09  39689731.537   206674843.247        1483.324          37.750    39689745.108   159814156.499        1146.827          42.250    39689732.601   167940253.678        1205.151          40.000  
C13  36840704.646   191839217.254         293.968          48.000    36840722.973   148342324.395         227.249          49.250    36840710.047   155885099.239         238.910          47.000  
C16  38398986.946   199953603.706        1575.597          45.000    38399005.246   154616880.507        1218.359          48.250    38398990.913   162478697.134        1280.563          42.500  
C20  22734966.280   118386935.279        1959.234          51.500           0.000           0.000           0.000           0.000    22734964.259    96199074.112        1592.107          49.750  
C27  23389066.450   121793001.079       -2072.582          49.000           0.000           0.000           0.000           0.000    23389071.311    98966816.585       -1684.107          47.250  
C29  24443774.609   127285152.678        2689.792          42.750           0.000           0.000           0.000           0.000    24443780.505   103429627.031        2185.564          44.250  
C30  21575554.094   112349573.000         552.011          52.000           0.000           0.000           0.000           0.000    21575561.395    91293258.843         448.575          51.000  
C32  22069263.065   114920440.479       -1037.410          52.500           0.000           0.000           0.000           0.000    22069269.393    93382303.102        -842.943          50.500  
> 2019 11  1  0 54  0.0000000  0 27
G02  21507740.660   113023938.740         760.086          49.500    21507737.131    88070607.884         592.375          42.000           0.000           0.000           0.000           0.000  
G05  21016369.092   110441766.277        1535.559          50.250    21016368.329    86058529.606        1196.739          41.500           0.000           0.000           0.000           0.000  
G06  21841609.424   114778431.442       -1239.035          46.750    21841612.195    89437758.882        -965.138          39.250    21841667.571    85711394.217        -925.035          53.250  
G09  23360357.161   122759506.358       -2009.101          39.500    23360358.360    95656786.138       -1565.672          29.250    23360414.793    91671280.868       -1500.435          48.250  
G12  22600117.476   118764412.810       -1771.615          48.000    22600116.310    92543704.162       -1380.492          36.500           0.000           0.000           0.000           0.000  
G17  23361967.748   122767957.866       -3187.850          38.000    23361968.838    95663395.938       -2483.444          29.250           0.000           0.000           0.000           0.000  
G19  22217245.170   116752413.323       -2959.516          46.250    22217243.530    90975933.224       -2305.888          35.750           0.000           0.000           0.000           0.000  
G25  23945798.751   125836017.734         273.075          42.750    23945800.507    98054071.634         213.298          30.000    23945856.055    93968687.237         204.201          48.250  
R02  21118152.920   112690509.131       -3344.992          49.750    21118170.314    87648243.218       -2601.166          46.000  
R03  19193134.881   102742353.392         355.820          53.250    19193153.349    79910793.270         277.209          51.500  
R17  20302548.108   108643031.311       -1184.266          52.500    20302567.274    84500213.053        -920.439          50.750  
R18  20116265.821   107381990.938        1864.397          52.750    20116283.671    83519400.324        1450.554          48.000  
C01  37444345.445   194982525.654         -73.591          44.000    37444354.030   150772909.693         -56.913          48.750    37444345.518   158439277.924         -59.745          44.250  
C02  37389816.872   194698575.947         -14.568          43.500    37389827.313   150553353.015         -11.175          49.750    37389818.326   158208555.261         -11.679          42.750  
C03  36667105.967   190935236.893         -56.986          47.000    36667117.984   147643294.118         -44.089          50.000    36667107.566   155150530.769         -46.268          45.000  
C04  38794830.099   202014851.844         -58.968          41.000    38794842.487   156210753.488         -45.678          48.250    38794832.219   164153630.251         -47.885          43.500  
C05  39395078.297   205140502.576         -19.252          35.250    39395091.435   158627721.416         -14.661          39.750    39395082.211   166693483.310         -14.944          36.500  
C06  37718703.747   196411186.012        1417.964          44.500    37718716.619   151877640.475        1096.399          49.000    37718704.608   159600182.047        1152.136          44.250  
C08  36635522.939   190770778.339         258.390          47.250    36635533.577   147516112.673         199.841          50.750    36635521.579   155016881.826         210.123          47.000  
C09  39686801.071   206659585.083        1484.360          37.000    39686814.993   159802357.891        1147.786          42.250    39686802.068   167927855.136        1206.408          40.500  
C13  36840057.473   191835847.511         295.833          48.250    36840075.849   148339718.688         228.845          49.250    36840062.759   155882361.029         240.548          47.000  
C16  38395879.057   199937422.974        1576.441          45.250    38395897.621   154604368.543        1218.869          48.000    38395883.638   162465548.960        1280.934          42.750  
C20  22731125.427   118366936.258        1956.524          51.500           0.000           0.000           0.000           0.000    22731123.692    96182823.281        1589.838          49.750  
C27  23392967.798   121813315.924       -2074.459          49.250           0.000           0.000           0.000           0.000    23392972.796    98983324.031       -1685.620          47.250  
C29  24438528.723   127257831.559        2690.268          43.250           0.000           0.000           0.000           0.000    24438533.575   103407426.347        2186.101          44.000  
C30  21574415.608   112343645.185         549.448          52.000           0.000           0.000           0.000           0.000    21574423.041    91288442.004         446.496          51.000  
C32  22071177.432   114930409.368       -1040.428          52.250           0.000           0.000           0.000           0.000    22071183.593    93390403.634        -845.385          50.500  
> 2019 11  1  0 54 10.0000000  0 27
G02  21506215.247   113015922.109         759.505          49.500    21506211.754    88064361.162         591.984          42.000           0.000           0.000           0.000           0.000  
G05  21013371.507   110426011.936        1531.468          51.000    21013370.484    86046253.500        1193.470          42.000           0.000           0.000           0.000           0.000  
G06  21843888.696   114790408.018       -1240.295          46.750    21843891.239    89447091.278        -966.665          39.000    21843946.563    85720337.762        -926.449          53.250  
G09  23364105.799   122779203.895       -2014.066          41.000    23364106.582    95672134.840       -1570.213          29.500    23364163.210    91685990.065       -1504.381          48.250  
G12  22603412.958   118781731.046       -1775.901          47.750    22603411.912    92557198.895       -1383.589          37.000           0.000           0.000           0.000           0.000  
G17  23367955.535   122799429.901       -3190.339          36.250    23367957.835    95687919.546       -2485.959          28.750           0.000           0.000           0.000           0.000  
G19  22222800.158   116781604.955       -2962.759          45.750    22222798.446    90998679.932       -2308.392          36.500           0.000           0.000           0.000           0.000  
G25  23945204.391   125832894.813         267.481          41.750    23945206.344    98051638.193         207.894          30.250    23945261.939    93966355.199         199.494          48.500  
R02  21124343.844   112723545.361       -3348.403          50.000    21124361.005    87673938.062       -2604.146          45.250  
R03  19192397.954   102738402.380         348.426          53.250    19192415.580    79907720.267         271.013          51.500  
R17  20304684.691   108654462.396       -1188.281          52.250    20304703.374    84509103.894        -924.095          50.250  
R18  20112694.548   107362927.983        1862.035          53.000    20112712.918    83504573.567        1448.493          48.250  
C01  37444407.208   194982845.901         -73.636          43.750    37444415.307   150773157.321         -56.937          48.750    37444407.090   158439538.160         -59.881          44.250  
C02  37389764.976   194698305.477         -14.631          43.500    37389775.263   150553143.874         -11.248          49.750    37389766.357   158208335.491         -11.986          42.750  
C03  36667135.837   190935391.899         -57.337          47.250    36667147.497   147643413.971         -44.234          50.000    36667137.374   155150656.720         -46.416          45.000  
C04  38794864.355   202015026.736         -59.213          40.750    38794875.832   156210888.721         -45.648          48.000    38794866.114   164153772.373         -48.200          43.750  
C05  39395034.652   205140275.625         -18.396          35.000    39395047.897   158627545.939         -14.689          40.250    39395038.664   166693298.944         -15.332          37.000  
C06  37715902.405   196396597.126        1416.682          44.750    37715914.664   151866359.426        1095.522          48.750    37715902.639   159588327.375        1151.256          44.250  
C08  36634946.502   190767775.848         258.704          47.250    36634956.890   147513790.955         200.112          50.750    36634945.135   155014442.051         210.344          46.750  
C09  39683871.265   206644326.410        1484.180          38.000    39683883.739   159790558.923        1147.622          42.000    39683871.340   167915456.247        1205.879          40.500  
C13  36839409.022   191832469.845         296.366          48.250    36839426.958   148337106.866         229.299          49.000    36839414.008   155879616.407         240.837          47.000  
C16  38392773.421   199921248.892        1575.231          45.000    38392791.024   154591861.693        1218.212          47.750    38392777.760   162452406.182        1280.060          42.750  
C20  22727292.486   118346975.496        1952.376          51.500           0.000           0.000           0.000           0.000    22727290.750    96166603.527        1586.431          50.000  
C27  23396875.088   121833661.353       -2077.936          49.250           0.000           0.000           0.000           0.000    23396879.983    98999856.363       -1688.364          47.250  
C29  24433282.637   127230517.010        2689.437          44.000           0.000           0.000           0.000           0.000    24433288.068   103385231.030        2185.398          44.250  
C30  21573284.801   112337754.521         545.382          52.000           0.000           0.000           0.000           0.000    21573291.880    91283655.345         443.284          51.250  
C32  22073099.937   114940420.122       -1044.938          52.250           0.000           0.000           0.000           0.000    22073105.993    93398538.197        -849.153          50.500  
> 2019 11  1  0 54 20.0000000  0 27
G02  21504691.573   113007915.494         758.201          49.000    21504688.223    88058122.239         590.629          42.000           0.000           0.000           0.000           0.000  
G05  21010382.601   110410302.780        1526.796          51.250    21010381.058    86034012.595        1189.686          42.250           0.000           0.000           0.000           0.000  
G06  21846171.061   114802402.021       -1242.190          46.750    21846173.587    89456437.243        -967.942          39.000    21846228.812    85729294.300        -927.496          53.250  
G09  23367864.350   122798954.795       -2019.806          41.500    23367865.214    95687525.149       -1574.887          30.750    23367921.724    91700739.083       -1507.991          48.250  
G12  22606717.630   118799096.725       -1780.904          48.250    22606716.702    92570730.592       -1388.244          36.750           0.000           0.000           0.000           0.000  
G17  23373949.217   122830931.623       -3192.981          34.500    23373952.394    95712466.376       -2488.135          28.250           0.000           0.000           0.000           0.000  
G19  22228362.580   116810834.950       -2966.831          45.750    22228360.849    91021456.550       -2312.180          35.750           0.000           0.000           0.000           0.000  
G25  23944621.657   125829831.748         261.510          41.500    23944623.409    98049251.360         203.571          29.750    23944679.866    93964067.852         195.226          48.750  
R02  21130543.069   112756626.516       -3353.209          49.750    21130560.642    87699667.847       -2607.850          44.750  
R03  19191675.863   102734536.945         339.343          53.250    19191693.552    79904713.832         263.977          51.500  
R17  20306831.044   108665946.571       -1194.374          52.750    20306849.646    84518036.036        -928.534          50.250  
R18  20109129.635   107343898.019        1858.346          53.250    20109147.789    83489772.507        1445.589          48.250  
C01  37444468.569   194983167.167         -73.614          43.750    37444477.296   150773405.747         -56.925          49.000    37444468.717   158439799.205         -59.813          44.250  
C02  37389713.120   194698036.269         -14.603          43.750    37389723.673   150552935.706         -11.245          49.750    37389714.529   158208116.731         -11.848          43.000  
C03  36667165.756   190935548.091         -57.064          47.250    36667177.793   147643534.765         -44.255          50.250    36667167.352   155150783.666         -46.414          44.750  
C04  38794897.610   202015202.750         -59.331          40.750    38794910.088   156211024.843         -45.766          48.250    38794899.744   164153915.389         -47.886          43.500  
C05  39394991.721   205140049.942         -18.884          35.500    39395004.702   158627371.416         -14.906          40.500    39394995.048   166693115.528         -15.458          36.500  
C06  37713102.820   196382018.130        1416.167          44.750    37713115.134   151855086.037        1094.974          48.750    37713103.006   159576480.761        1150.747          44.500  
C08  36634369.508   190764768.498         259.625          47.250    36634379.757   147511465.481         200.734          50.750    36634367.621   155011998.344         210.964          46.750  
C09  39680941.082   206629069.207        1483.899          37.750    39680954.539   159778761.081        1147.852          42.500    39680941.135   167903058.480        1206.421          40.250  
C13  36838759.042   191829086.249         297.218          48.000    36838777.221   148334490.460         229.796          48.750    36838764.208   155876866.963         241.387          46.750  
C16  38389668.594   199905083.363        1574.680          44.750    38389687.258   154579361.490        1217.734          48.000    38389673.154   162439270.378        1279.697          42.750  
C20  22723467.191   118327054.976        1948.597          51.750           0.000           0.000           0.000           0.000    22723465.446    96150416.473        1583.443          50.000  
C27  23400788.258   121854039.310       -2080.898          48.750           0.000           0.000           0.000           0.000    23400793.517    99016415.120       -1690.841          47.500  
C29  24428038.818   127203211.043        2688.725          44.000           0.000           0.000           0.000           0.000    24428043.687   103363042.689        2184.924          43.750  
C30  21572161.160   112331902.985         541.800          52.250           0.000           0.000           0.000           0.000    21572167.945    91278900.500         440.258          51.000  
C32  22075030.682   114950474.613       -1048.969          52.000           0.000           0.000           0.000           0.000    22075036.980    93406708.290        -852.347          50.500  
> 2019 11  1  0 54 30.0000000  0 27
G02  21503169.731   112999918.958         757.789          49.000    21503166.334    88051891.173         590.803          41.750           0.000           0.000           0.000           0.000  
G05  21007401.874   110394638.847        1522.728          51.250    21007400.649    86021806.941        1186.499          42.750           0.000           0.000           0.000           0.000  
G06  21848456.713   114814413.471       -1243.441          46.750    21848459.265    89465796.813        -968.883          38.500    21848514.562    85738263.890        -928.443          52.750  
G09  23371632.963   122818759.020       -2024.564          41.250    23371633.572    95702957.024       -1577.036          29.000    23371690.141    91715527.937       -1511.795          47.750  
G12  22610031.170   118816509.623       -1785.072          48.250    22610030.314    92584299.092       -1390.830          36.250           0.000           0.000           0.000           0.000  
G17  23379949.531   122862463.076       -3195.940          35.000    23379952.371    95737036.268       -2491.141          28.500           0.000           0.000           0.000           0.000  
G19  22233932.363   116840103.350       -2970.068          45.500    22233930.716    91044263.094       -2314.141          36.000           0.000           0.000           0.000           0.000  
G25  23944049.907   125826828.568         255.826          41.500    23944051.892    98046911.238         198.876          31.250    23944109.745    93961825.191         191.207          50.000  
R02  21136750.905   112789752.570       -3356.967          48.750    21136768.254    87725432.532       -2610.883          44.500  
R03  19190968.326   102730756.962         331.430          53.000    19190986.758    79901773.829         257.851          51.500  
R17  20308986.525   108677483.760       -1198.301          52.500    20309005.262    84527009.398        -932.154          50.750  
R18  20105570.610   107324901.077        1855.854          53.750    20105588.774    83474997.101        1443.493          48.500  
C01  37444530.797   194983489.552         -73.228          44.000    37444539.074   150773655.050         -56.752          49.000    37444530.764   158440061.169         -59.491          44.250  
C02  37389661.714   194697768.291         -14.322          43.500    37389672.169   150552728.491         -11.120          49.750    37389663.222   158207898.979         -11.638          43.000  
C03  36667195.888   190935705.519         -56.681          47.000    36667207.767   147643656.513         -44.080          50.250    36667197.567   155150911.581         -46.085          45.000  
C04  38794931.861   202015379.915         -58.578          40.750    38794943.709   156211161.839         -45.426          48.000    38794933.780   164154059.371         -47.711          43.750  
C05  39394948.273   205139825.512         -19.139          35.000    39394961.198   158627197.833         -14.430          40.000    39394952.214   166692933.129         -15.394          36.750  
C06  37710304.915   196367449.091        1415.466          44.250    37710317.330   151843820.350        1094.499          48.750    37710304.924   159564642.227        1150.205          44.250  
C08  36633790.453   190761756.478         260.392          47.250    36633801.096   147509136.411         201.229          51.000    36633789.054   155009550.832         211.563          47.000  
C09  39678011.655   206613813.446        1484.509          37.750    39678024.840   159766964.386        1148.052          42.750    39678011.696   167890661.964        1206.219          40.250  
C13  36838108.026   191825696.669         298.325          48.000    36838126.066   148331869.417         230.710          49.000    36838113.154   155874112.646         242.348          46.750  
C16  38386566.158   199888926.465        1574.168          44.750    38386584.053   154566867.955        1217.340          47.750    38386570.029   162426141.576        1279.219          42.750  
C20  22719649.566   118307174.732        1945.062          51.750           0.000           0.000           0.000           0.000    22719647.455    96134262.153        1580.435          50.250  
C27  23404707.962   121874449.806       -2083.678          49.000           0.000           0.000           0.000           0.000    23404713.461    99033000.312       -1693.151          48.000  
C29  24422796.320   127175913.750        2688.373          43.750           0.000           0.000           0.000           0.000    24422801.481   103340861.408        2184.447          44.000  
C30  21571044.831   112326090.666         538.316          52.250           0.000           0.000           0.000           0.000    21571051.733    91274177.505         437.503          51.000  
C32  22076969.877   114960572.845       -1053.014          52.000           0.000           0.000           0.000           0.000    22076976.611    93414913.932        -855.730          50.500  
> 2019 11  1  0 54 40.0000000  0 27
G02  21501649.624   112991929.265         757.262          49.250    21501645.805    88045665.428         589.951          42.000           0.000           0.000           0.000           0.000  
G05  21004429.139   110379016.746        1518.851          51.500    21004427.806    86009633.869        1183.308          42.500           0.000           0.000           0.000           0.000  
G06  21850745.154   114826439.030       -1244.554          46.750    21850747.526    89475167.366        -969.625          38.750    21850802.869    85747244.000        -929.446          53.000  
G09  23375410.680   122838613.059       -2029.099          40.500    23375411.599    95718427.663       -1581.380          30.000    23375468.624    91730354.014       -1515.422          49.000  
G12  22613352.820   118833966.500       -1789.224          48.000    22613351.975    92597901.831       -1393.682          37.000           0.000           0.000           0.000           0.000  
G17  23385955.735   122894020.845       -3198.700          37.250    23385957.094    95761626.675       -2491.591          28.000           0.000           0.000           0.000           0.000  
G19  22239508.740   116869406.657       -2973.443          46.000    22239507.017    91067096.824       -2317.208          36.750           0.000           0.000           0.000           0.000  
G25  23943489.651   125823881.880         250.540          43.000    23943491.476    98044615.099         195.177          31.500    23943549.231    93959624.728         186.877          50.250  
R02  21142966.218   112822920.094       -3360.709          48.750    21142984.382    87751229.484       -2613.836          44.000  
R03  19190276.933   102727059.027         323.456          52.500    19190295.535    79898897.661         251.779          51.750  
R17  20311151.159   108689070.584       -1203.286          52.500    20311170.030    84536021.370        -935.733          51.000  
R18  20102017.828   107305933.864        1853.171          53.750    20102035.839    83460244.824        1441.518          48.500  
C01  37444592.158   194983809.718         -72.940          43.750    37444600.757   150773902.605         -56.400          49.000    37444592.135   158440321.333         -59.205          44.250  
C02  37389609.583   194697498.176         -13.775          43.250    37389620.253   150552519.610         -10.689          50.250    37389611.073   158207679.482         -11.413          42.750  
C03  36667225.814   190935860.840         -56.435          47.000    36667237.820   147643776.589         -43.700          50.500    36667227.495   155151037.798         -45.980          45.000  
C04  38794965.274   202015554.976         -58.608          41.000    38794977.520   156211297.185         -45.232          48.750    38794967.126   164154201.595         -47.548          43.500  
C05  39394904.725   205139598.913         -18.363          34.500    39394918.131   158627022.621         -14.053          40.250    39394908.381   166692749.007         -14.724          37.250  
C06  37707508.632   196352886.672        1414.765          44.500    37707520.446   151832559.738        1094.124          48.750    37707508.883   159552809.078        1149.668          44.500  
C08  36633210.127   190758736.471         261.323          47.250    36633221.139   147506801.136         202.159          50.750    36633209.422   155007096.834         212.327          47.000  
C09  39675081.192   206598555.892        1484.655          37.500    39675094.592   159755166.250        1148.391          42.500    39675081.452   167878263.923        1206.618          40.250  
C13  36837455.401   191822297.799         299.382          48.000    36837473.680   148329241.194         231.434          49.250    36837460.530   155871350.790         243.113          47.000  
C16  38383464.016   199872774.862        1573.586          44.750    38383482.338   154554378.490        1217.145          48.000    38383468.098   162413017.064        1278.967          42.750  
C20  22715838.706   118287331.460        1941.438          52.000           0.000           0.000           0.000           0.000    22715836.426    96118137.860        1577.578          50.250  
C27  23408632.854   121894889.486       -2086.642          48.750           0.000           0.000           0.000           0.000    23408638.998    99049609.212       -1695.538          48.250  
C29  24417555.497   127148621.851        2687.822          44.000           0.000           0.000           0.000           0.000    24417559.758   103318684.482        2184.282          43.500  
C30  21569935.729   112320314.272         534.782          52.500           0.000           0.000           0.000           0.000    21569942.575    91269483.712         434.529          51.000  
C32  22078916.955   114970711.384       -1057.016          52.250           0.000           0.000           0.000           0.000    22078923.500    93423152.316        -858.811          50.250  
> 2019 11  1  0 54 50.0000000  0 27
G02  21500130.283   112983946.040         757.401          49.000    21500126.782    88039444.728         589.789          41.500           0.000           0.000           0.000           0.000  
G05  21001464.163   110363436.220        1515.337          51.500    21001462.444    85997493.192        1180.489          42.250           0.000           0.000           0.000           0.000  
G06  21853036.094   114838478.487       -1245.559          46.500    21853038.267    89484548.751        -970.728          38.500    21853093.514    85756234.496        -930.141          53.000  
G09  23379198.116   122858516.677       -2033.539          39.000    23379199.255    95733936.976       -1584.698          30.750    23379256.015    91745217.114       -1518.830          49.000  
G12  22616683.012   118851466.993       -1792.868          47.500    22616681.755    92611538.568       -1397.280          36.750           0.000           0.000           0.000           0.000  
G17  23391966.821   122925604.438       -3200.534          37.750    23391967.446    95786237.274       -2493.619          28.000           0.000           0.000           0.000           0.000  
G19  22245091.489   116898744.602       -2976.231          45.250    22245089.862    91089957.554       -2319.457          36.250           0.000           0.000           0.000           0.000  
G25  23942940.253   125820991.383         245.597          44.000    23942941.683    98042362.757         190.597          32.500    23942998.852    93957466.239         183.136          50.250  
R02  21149189.375   112856128.507       -3364.701          49.000    21149207.333    87777058.241       -2616.550          44.500  
R03  19189602.085   102723443.026         315.692          52.750    19189621.359    79896085.223         245.872          51.750  
R17  20313325.007   108700706.929       -1207.962          52.250    20313344.719    84545071.842        -939.109          50.500  
R18  20098470.723   107286996.175        1850.517          53.750    20098488.395    83445515.500        1439.644          48.250  
C01  37444653.131   194984127.332         -72.043          43.750    37444661.764   150774148.197         -55.704          48.750    37444653.115   158440579.417         -58.505          44.500  
C02  37389557.733   194697225.672         -13.047          43.500    37389567.814   150552308.892         -10.083          50.000    37389558.747   158207458.042         -10.618          43.000  
C03  36667255.237   190936013.776         -55.501          46.750    36667266.864   147643894.861         -43.112          50.500    36667256.991   155151162.065         -45.292          44.750  
C04  38794997.991   202015727.546         -57.766          40.500    38795010.850   156211430.635         -44.534          48.250    38795000.180   164154341.828         -46.854          43.750  
C05  39394861.273   205139370.040         -17.653          35.250    39394874.600   158626845.627         -13.688          40.750    39394864.264   166692563.006         -14.156          36.750  
C06  37704712.994   196338330.661        1414.922          44.500    37704725.183   151821304.122        1093.945          48.750    37704713.218   159540981.125        1149.672          45.000  
C08  36632628.761   190755708.160         262.638          47.500    36632639.573   147504459.447         203.208          50.750    36632627.635   155004636.069         213.524          47.000  
C09  39672150.820   206583296.282        1485.502          37.750    39672163.032   159743366.574        1148.596          42.250    39672151.068   167865864.239        1207.210          40.250  
C13  36836800.827   191818889.346         300.935          48.000    36836818.872   148326605.559         232.596          49.000    36836805.969   155868581.141         244.439          46.750  
C16  38380363.621   199856628.332        1573.971          45.250    38380381.407   154541892.998        1216.894          48.000    38380368.060   162399896.696        1278.896          42.750  
C20  22712034.860   118267524.951        1938.273          51.500           0.000           0.000           0.000           0.000    22712032.653    96102043.437        1575.119          50.500  
C27  23412563.516   121915358.074       -2088.871          48.500           0.000           0.000           0.000           0.000    23412569.972    99066241.600       -1697.351          48.500  
C29  24412314.903   127121335.159        2688.027          43.500           0.000           0.000           0.000           0.000    24412319.754   103296511.839        2184.087          43.750  
C30  21568833.347   112314573.587         531.842          52.500           0.000           0.000           0.000           0.000    21568839.903    91264818.931         432.073          51.000  
C32  22080871.426   114980889.917       -1060.319          52.000           0.000           0.000           0.000           0.000    22080878.044    93431423.223        -861.674          50.500  
> 2019 11  1  0 55  0.0000000  0 27
G02  21498613.477   112975974.688         756.566          49.250    21498609.578    88033233.274         589.372          41.750           0.000           0.000           0.000           0.000  
G05  20998507.895   110347902.649        1511.007          51.000    20998506.662    85985389.114        1177.349          41.500           0.000           0.000           0.000           0.000  
G06  21855330.734   114850537.163       -1246.675          46.250    21855333.128    89493945.111        -971.214          39.250    21855388.311    85765239.339        -931.133          52.750  
G09  23382995.792   122878475.174       -2039.032          38.500    23382997.598    95749489.057       -1587.716          29.500    23383054.267    91760121.128       -1522.387          49.000  
G12  22620022.906   118869016.306       -1797.425          48.250    22620021.488    92625213.356       -1400.570          37.500           0.000           0.000           0.000           0.000  
G17  23397982.583   122957219.215       -3202.906          37.000    23397983.493    95810872.175       -2495.458          28.000           0.000           0.000           0.000           0.000  
G19  22250682.184   116928122.521       -2979.862          45.750    22250680.268    91112849.429       -2321.931          36.250           0.000           0.000           0.000           0.000  
G25  23942402.045   125818162.450         239.823          43.750    23942403.652    98040158.419         186.932          31.500    23942460.131    93955353.726         178.974          49.750  
R02  21155421.781   112889382.957       -3369.075          49.500    21155439.461    87802922.792       -2619.700          44.000  
R03  19188943.477   102719914.179         307.065          53.000    19188962.635    79893340.572         239.486          51.500  
R17  20315510.340   108712398.126       -1213.295          52.000    20315529.721    84554164.987        -942.995          50.250  
R18  20094930.020   107268093.583        1847.304          53.750    20094947.352    83430813.467        1437.335          48.250  
C01  37444714.477   194984447.764         -71.877          44.000    37444723.322   150774395.972         -55.543          48.750    37444714.924   158440839.783         -58.419          44.500  
C02  37389505.506   194696956.093         -13.065          43.500    37389516.209   150552100.427          -9.862          50.250    37389507.234   158207238.976         -10.442          43.000  
C03  36667284.951   190936169.659         -55.493          46.750    36667296.865   147644015.400         -42.883          50.000    36667286.795   155151288.728         -45.028          45.000  
C04  38795032.156   202015902.979         -57.559          40.250    38795043.999   156211566.289         -44.296          48.250    38795034.115   164154484.377         -46.740          43.750  
C05  39394817.624   205139144.015         -17.203          35.500    39394830.708   158626670.863         -13.116          40.750    39394821.359   166692379.371         -13.924          37.000  
C06  37701919.933   196323786.341        1414.035          44.250    37701932.400   151810057.546        1093.385          49.000    37701920.004   159529162.671        1149.146          44.500  
C08  36632046.680   190752676.854         263.404          47.250    36632057.602   147502115.468         203.755          51.000    36632045.719   155002172.886         214.129          46.750  
C09  39669220.692   206568039.958        1485.825          36.500    39669234.423   159731569.399        1148.994          43.250    39669221.161   167853467.233        1207.055          40.250  
C13  36836145.608   191815476.731         301.814          48.000    36836163.929   148323966.719         233.264          49.500    36836150.536   155865808.100         245.180          47.000  
C16  38377264.558   199840492.201        1573.262          44.500    38377282.827   154529415.501        1216.594          48.000    38377268.926   162386784.751        1278.677          42.750  
C20  22708239.091   118247760.509        1934.668          51.250           0.000           0.000           0.000           0.000    22708237.362    96085983.228        1572.012          50.500  
C27  23416500.748   121935860.853       -2091.659          48.250           0.000           0.000           0.000           0.000    23416507.326    99082901.776       -1699.657          48.500  
C29  24407077.425   127094059.059        2687.286          43.750           0.000           0.000           0.000           0.000    24407081.941   103274347.768        2183.716          44.250  
C30  21567738.962   112308873.962         528.201          52.500           0.000           0.000           0.000           0.000    21567745.179    91260187.515         429.214          50.500  
C32  22082834.778   114991113.725       -1064.408          52.000           0.000           0.000           0.000           0.000    22082841.363    93439730.895        -864.922          50.250  
> 2019 11  1  0 55 10.0000000  0 27
G02  21497098.404   112968012.523         755.470          49.500    21497094.426    88027028.988         588.830          41.750           0.000           0.000           0.000           0.000  
G05  20995560.143   110332413.516        1506.366          50.750    20995558.877    85973319.656        1173.670          41.750           0.000           0.000           0.000           0.000  
G06  21857628.563   114862612.510       -1248.589          46.750    21857631.076    89503354.462        -973.112          39.250    21857686.314    85774256.633        -932.396          53.250  
G09  23386803.285   122898485.747       -2043.869          39.250    23386805.187    95765081.718       -1592.530          26.750    23386861.974    91775064.116       -1526.270          49.750  
G12  22623371.170   118886611.650       -1802.100          48.250    22623369.614    92638924.003       -1404.401          37.000           0.000           0.000           0.000           0.000  
G17  23404003.428   122988862.584       -3206.273          37.500    23404005.056    95835529.332       -2498.051          28.750           0.000           0.000           0.000           0.000  
G19  22256279.595   116957537.677       -2983.676          45.500    22256277.562    91135770.320       -2324.914          36.000           0.000           0.000           0.000           0.000  
G25  23941875.194   125815392.429         233.663          43.750    23941877.250    98037999.952         181.978          32.500    23941932.739    93953285.225         174.552          49.750  
R02  21161661.956   112922680.788       -3372.458          50.000    21161678.875    87828821.132       -2623.352          44.250  
R03  19188299.719   102716469.857         299.539          52.750    19188318.518    79890661.676         232.706          51.750  
R17  20317705.036   108724141.587       -1217.505          51.750    20317724.346    84563298.831        -947.374          50.750  
R18  20091395.152   107249223.584        1844.592          53.500    20091412.385    83416136.813        1434.442          48.250  
C01  37444776.273   194984768.428         -71.902          44.000    37444784.601   150774643.941         -55.716          48.750    37444776.249   158441100.373         -58.485          44.250  
C02  37389453.788   194696686.825         -12.967          43.250    37389464.495   150551892.212         -10.032          50.000    37389455.396   158207020.190         -10.549          43.000  
C03  36667315.115   190936325.861         -55.440          47.000    36667326.830   147644136.179         -42.925          50.000    36667317.092   155151415.671         -45.240          45.000  
C04  38795065.893   202016078.691         -57.247          40.750    38795078.073   156211702.151         -44.350          48.250    38795067.474   164154627.154         -46.602          43.250  
C05  39394774.724   205138918.404         -17.102          35.250    39394787.289   158626496.405         -13.496          40.750    39394778.245   166692196.073         -14.226          37.250  
C06  37699128.807   196309251.153        1413.306          44.500    37699141.104   151798818.022        1092.738          49.000    37699128.696   159517351.664        1148.350          44.500  
C08  36631463.733   190749639.997         264.164          47.500    36631474.342   147499767.177         204.216          51.000    36631462.117   154999705.206         214.502          46.750  
C09  39666291.807   206552784.327        1485.971          37.500    39666304.582   159719772.811        1148.700          43.250    39666291.493   167841070.788        1207.192          40.500  
C13  36835488.647   191812057.293         302.513          47.750    36835507.112   148321322.577         233.840          49.250    36835494.043   155863029.521         245.780          47.000  
C16  38374167.421   199824363.864        1572.665          45.000    38374185.236   154516944.052        1216.166          47.750    38374171.857   162373679.182        1277.729          42.500  
C20  22704450.914   118228035.575        1930.708          51.000           0.000           0.000           0.000           0.000    22704449.195    96069955.114        1568.837          50.750  
C27  23420443.791   121956395.234       -2094.716          47.500           0.000           0.000           0.000           0.000    23420449.964    99099587.645       -1702.286          48.000  
C29  24401840.668   127066791.000        2686.401          44.250           0.000           0.000           0.000           0.000    24401845.303   103252190.241        2183.085          44.250  
C30  21566651.850   112303212.869         524.389          52.750           0.000           0.000           0.000           0.000    21566658.107    91255587.417         426.056          50.500  
C32  22084806.563   115001380.117       -1068.525          52.000           0.000           0.000           0.000           0.000    22084812.634    93448073.186        -868.355          50.250  
> 2019 11  1  0 55 20.0000000  0 27
G02  21495585.119   112960061.107         756.070          49.250    21495581.290    88020833.076         588.599          41.000           0.000           0.000           0.000           0.000  
G05  20992621.256   110316970.111        1503.581          51.000    20992620.530    85961285.837        1171.083          41.750           0.000           0.000           0.000           0.000  
G06  21859929.812   114874705.988       -1248.633          46.500    21859932.261    89512777.946        -973.232          38.500    21859987.698    85783287.483        -932.643          53.500  
G09  23390621.641   122918549.945       -2047.654          39.250    23390623.296    95780716.139       -1595.989          29.500    23390679.972    91790047.102       -1529.073          49.500  
G12  22626728.482   118904254.503       -1805.162          48.250    22626727.173    92652671.672       -1406.847          37.000           0.000           0.000           0.000           0.000  
G17  23410030.868   123020535.821       -3207.438          38.500    23410031.638    95860209.755       -2499.603          28.500           0.000           0.000           0.000           0.000  
G19  22261884.597   116986991.537       -2985.834          46.000    22261882.601    91158721.373       -2327.464          35.750           0.000           0.000           0.000           0.000  
G25  23941359.918   125812682.765         229.456          44.000    23941361.986    98035888.539         178.225          32.000    23941416.585    93951261.788         171.310          49.250  
R02  21167910.432   112956023.582       -3376.003          50.250    21167927.136    87854754.406       -2625.473          43.750  
R03  19187671.558   102713111.575         292.275          53.000    19187690.161    79888049.681         227.261          51.750  
R17  20319910.128   108735938.954       -1221.849          51.750    20319929.107    84572474.535        -950.217          50.750  
R18  20087867.521   107230387.922        1842.531          53.750    20087883.822    83401486.851        1433.180          48.500  
C01  37444838.120   194985090.763         -70.451          44.250    37444846.728   150774893.192         -54.543          48.750    37444838.224   158441362.290         -57.483          44.250  
C02  37389402.774   194696419.321         -11.396          43.750    37389413.123   150551685.371          -8.934          50.000    37389403.842   158206802.816          -9.395          42.750  
C03  36667345.269   190936483.873         -54.141          47.000    36667357.305   147644258.370         -41.890          50.250    36667347.216   155151544.056         -43.998          45.000  
C04  38795099.746   202016256.123         -55.743          40.500    38795112.291   156211839.377         -43.425          48.500    38795102.009   164154771.345         -45.427          43.500  
C05  39394731.307   205138694.663         -15.992          35.000    39394744.407   158626323.399         -12.323          40.750    39394735.199   166692014.212         -12.619          37.000  
C06  37696339.487   196294726.604        1413.661          45.000    37696351.663   151787586.721        1093.154          49.250    37696339.296   159505549.267        1148.734          44.500  
C08  36630879.746   190746599.060         266.159          47.500    36630890.317   147497415.729         205.811          51.250    36630878.303   154997234.190         216.249          47.000  
C09  39663361.417   206537530.857        1486.857          37.000    39663375.471   159707977.851        1149.829          43.500    39663362.064   167828676.081        1208.144          40.000  
C13  36834830.975   191808632.465         304.505          47.750    36834849.411   148318674.298         235.451          49.250    36834836.322   155860246.574         247.340          46.750  
C16  38371071.715   199808244.802        1573.423          45.000    38371090.201   154504479.800        1216.477          48.000    38371076.236   162360581.127        1278.243          42.500  
C20  22700670.661   118208351.650        1928.161          51.000           0.000           0.000           0.000           0.000    22700668.951    96053960.313        1566.770          50.750  
C27  23424393.710   121976962.672       -2096.500          47.250           0.000           0.000           0.000           0.000    23424399.650    99116300.365       -1703.735          48.000  
C29  24396606.055   127039532.486        2687.360          44.250           0.000           0.000           0.000           0.000    24396609.889   103230040.478        2183.542          43.500  
C30  21565572.028   112297591.820         521.940          52.500           0.000           0.000           0.000           0.000    21565578.734    91251019.844         424.116          50.750  
C32  22086786.547   115011690.525       -1071.418          52.000           0.000           0.000           0.000           0.000    22086792.562    93456451.236        -870.673          50.250  
> 2019 11  1  0 55 30.0000000  0 27
G02  21494073.425   112952117.530         754.930          49.000    21494069.612    88014643.271         588.229          41.250           0.000           0.000           0.000           0.000  
G05  20989690.629   110301569.371        1498.875          51.000    20989689.652    85949285.269        1168.178          42.000           0.000           0.000           0.000           0.000  
G06  21862234.148   114886814.607       -1250.755          47.000    21862236.237    89522213.231        -974.541          38.750    21862291.884    85792329.609        -933.705          53.000  
G09  23394449.332   122938664.532       -2053.092          38.750    23394450.984    95796389.843       -1599.816          29.250    23394507.397    91805067.723       -1532.798          49.000  
G12  22630094.172   118921941.676       -1809.933          48.250    22630092.918    92666453.886       -1410.214          36.750           0.000           0.000           0.000           0.000  
G17  23416062.998   123052235.935       -3210.722          37.500    23416063.603    95884911.152       -2501.496          27.750           0.000           0.000           0.000           0.000  
G19  22267496.512   117016480.921       -2989.812          46.250    22267494.186    91181700.112       -2329.297          36.750           0.000           0.000           0.000           0.000  
G25  23940854.720   125810030.423         223.226          44.750    23940856.978    98033821.774         173.850          32.000    23940911.724    93949281.119         166.983          49.000  
R02  21174166.411   112989407.694       -3379.535          50.500    21174183.992    87880719.808       -2629.052          43.250  
R03  19187059.933   102709836.309         284.076          53.000    19187078.276    79885502.256         220.488          51.500  
R17  20322124.782   108747786.976       -1226.522          51.750    20322143.143    84581689.673        -954.516          50.500  
R18  20084344.608   107211583.263        1839.860          54.000    20084361.420    83386861.017        1430.372          48.750  
C01  37444899.819   194985411.752         -70.489          44.000    37444908.416   150775141.402         -54.528          48.500    37444899.798   158441623.102         -57.193          44.500  
C02  37389351.044   194696150.588         -11.639          43.500    37389361.834   150551477.566          -8.878          50.000    37389352.074   158206584.425          -9.248          43.000  
C03  36667375.506   190936640.628         -54.019          47.000    36667387.718   147644379.590         -41.774          50.250    36667377.277   155151671.443         -44.101          45.000  
C04  38795133.696   202016432.278         -55.862          40.250    38795146.159   156211975.584         -43.260          48.250    38795135.768   164154914.496         -45.661          43.750  
C05  39394688.058   205138469.617         -15.723          34.500    39394701.325   158626149.378         -12.056          40.750    39394692.098   166691831.350         -12.729          36.500  
C06  37693551.893   196280209.595        1413.023          44.750    37693564.112   151776361.250        1092.469          48.750    37693551.156   159493753.004        1148.186          44.500  
C08  36630294.218   190743550.989         266.710          47.250    36630305.453   147495058.768         206.255          51.000    36630292.979   154994757.378         216.802          46.750  
C09  39660432.271   206522276.523        1486.979          36.500    39660446.554   159696182.250        1149.611          44.000    39660432.683   167816280.683        1208.448          39.750  
C13  36834171.698   191805199.261         305.367          48.250    36834190.504   148316019.531         236.038          49.250    36834176.736   155857456.806         248.222          46.750  
C16  38367977.705   199792132.016        1572.551          45.000    38367996.140   154492020.389        1215.940          48.250    38367981.928   162347488.195        1277.807          42.750  
C20  22696897.850   118188705.702        1924.430          51.000           0.000           0.000           0.000           0.000    22696896.069    96037996.387        1563.570          50.750  
C27  23428349.028   121997560.074       -2099.750          47.250           0.000           0.000           0.000           0.000    23428354.539    99133037.433       -1706.040          47.750  
C29  24391372.703   127012280.582        2686.534          45.000           0.000           0.000           0.000           0.000    24391376.652   103207896.070        2182.883          44.000  
C30  21564499.719   112292007.814         518.125          52.500           0.000           0.000           0.000           0.000    21564506.498    91246482.383         421.067          51.000  
C32  22088774.411   115022041.829       -1075.513          51.750           0.000           0.000           0.000           0.000    22088780.386    93464862.527        -874.028          50.500  
> 2019 11  1  0 55 40.0000000  0 27
G02  21492563.723   112944183.630         754.967          49.250    21492560.076    88008461.009         588.008          41.250           0.000           0.000           0.000           0.000  
G05  20986768.707   110286213.300        1495.395          51.250    20986767.707    85937319.499        1164.639          42.250           0.000           0.000           0.000           0.000  
G06  21864541.784   114898940.140       -1251.447          47.500    21864543.804    89531661.693        -975.638          39.250    21864599.531    85801384.394        -934.717          53.250  
G09  23398286.859   122958831.306       -2057.328          38.750    23398288.324    95812104.224       -1604.279          29.250    23398344.482    91820127.329       -1536.484          48.750  
G12  22633468.543   118939674.920       -1813.635          47.750    22633467.358    92680271.984       -1413.806          36.750           0.000           0.000           0.000           0.000  
G17  23422101.448   123083964.510       -3212.379          39.500    23422101.290    95909634.684       -2503.748          28.500           0.000           0.000           0.000           0.000  
G19  22273115.200   117046007.543       -2992.612          46.250    22273112.932    91204707.866       -2332.384          36.250           0.000           0.000           0.000           0.000  
G25  23940360.723   125807437.182         218.201          43.500    23940363.378    98031801.073         169.049          30.750    23940418.017    93947344.634         162.748          49.000  
R02  21180430.490   113022835.128       -3384.255          50.250    21180448.510    87906718.874       -2631.651          44.000  
R03  19186465.074   102706645.726         275.649          53.000    19186483.390    79883020.665         214.799          51.500  
R17  20324348.343   108759687.757       -1232.202          52.000    20324367.214    84590945.797        -957.693          50.500  
R18  20080828.032   107192811.805        1836.087          53.750    20080844.817    83372260.960        1428.782          48.750  
C01  37444961.362   194985733.196         -70.081          44.000    37444970.090   150775389.949         -54.090          48.750    37444961.814   158441884.308         -56.883          44.500  
C02  37389299.834   194695882.444         -11.022          43.750    37389310.324   150551270.217          -8.536          49.750    37389300.728   158206366.558          -9.096          43.000  
C03  36667405.671   190936797.998         -53.637          47.250    36667417.834   147644501.276         -41.452          50.250    36667407.203   155151799.298         -43.447          44.750  
C04  38795167.599   202016608.974         -55.487          40.500    38795180.306   156212112.192         -42.890          48.500    38795169.516   164155058.043         -45.176          43.500  
C05  39394644.689   205138245.206         -15.619          35.250    39394658.209   158625975.849         -11.823          40.250    39394648.713   166691649.011         -12.471          36.500  
C06  37690765.808   196265702.079        1412.472          44.500    37690778.060   151765143.116        1092.044          49.000    37690765.219   159481964.453        1147.713          44.500  
C08  36629707.999   190740497.669         267.702          47.500    36629719.058   147492697.745         207.054          51.250    36629706.704   154992276.315         217.534          47.000  
C09  39657502.850   206507023.243        1487.952          37.500    39657517.336   159684387.459        1150.226          44.500    39657503.627   167803886.144        1208.879          40.000  
C13  36833511.389   191801759.480         306.534          48.750    36833529.756   148313359.668         236.924          49.000    36833516.344   155854661.712         248.950          47.000  
C16  38364885.166   199776027.396        1572.189          45.500    38364903.256   154479567.245        1215.834          48.000    38364889.052   162334401.857        1277.545          42.500  
C20  22693132.296   118169099.653        1920.783          50.750           0.000           0.000           0.000           0.000    22693130.828    96022064.857        1560.702          51.000  
C27  23432310.402   122018189.283       -2102.434          47.000           0.000           0.000           0.000           0.000    23432316.033    99149800.358       -1708.401          47.750  
C29  24386142.171   126985037.193        2686.011          46.250           0.000           0.000           0.000           0.000    24386145.006   103185758.568        2182.656          44.500  
C30  21563434.745   112286462.750         514.637          52.500           0.000           0.000           0.000           0.000    21563441.695    91241976.563         418.223          50.750  
C32  22090770.283   115032435.846       -1079.417          51.750           0.000           0.000           0.000           0.000    22090776.627    93473308.514        -877.169          50.500  
> 2019 11  1  0 55 50.0000000  0 27
G02  21491055.677   112936258.125         753.728          49.250    21491051.760    88002285.291         587.370          41.250           0.000           0.000           0.000           0.000  
G05  20983854.894   110270900.570        1490.664          51.000    20983853.885    85925387.500        1161.757          42.750           0.000           0.000           0.000           0.000  
G06  21866852.372   114911081.435       -1253.335          47.500    21866854.213    89541122.428        -975.853          39.500    21866909.871    85810450.925        -935.696          53.250  
G09  23402134.449   122979049.001       -2062.857          39.000    23402135.570    95827858.272       -1606.071          30.250    23402191.827    91835224.939       -1540.283          48.500  
G12  22636851.219   118957452.815       -1818.476          48.000    22636850.107    92694124.885       -1416.937          36.500           0.000           0.000           0.000           0.000  
G17  23428144.015   123115720.605       -3215.154          38.250    23428144.444    95934379.661       -2503.810          26.750           0.000           0.000           0.000           0.000  
G19  22278740.705   117075570.210       -2996.495          46.000    22278738.604    91227743.696       -2334.574          36.000           0.000           0.000           0.000           0.000  
G25  23939877.914   125804901.816         212.314          43.000    23939880.489    98029825.458         166.515          31.250    23939935.450    93945451.351         158.524          48.750  
R02  21186702.625   113056304.070       -3387.711          50.750    21186720.475    87932750.281       -2635.072          44.750  
R03  19185884.778   102703538.659         267.814          53.000    19185903.157    79880604.070         207.994          51.750  
R17  20326581.373   108771639.906       -1236.643          52.000    20326600.494    84600241.930        -962.006          50.500  
R18  20077316.898   107174072.245        1833.661          54.000    20077333.933    83357685.768        1425.880          49.000  
C01  37445023.223   194986053.861         -69.781          44.000    37445031.509   150775637.924         -54.180          48.750    37445023.430   158442144.875         -56.782          44.500  
C02  37389248.017   194695613.666         -10.874          43.750    37389258.512   150551062.390          -8.548          50.000    37389249.394   158206148.154          -8.928          42.750  
C03  36667435.954   190936954.711         -53.760          47.000    36667447.484   147644622.437         -41.303          50.250    36667437.756   155151926.639         -43.372          44.750  
C04  38795201.153   202016784.931         -55.340          40.500    38795213.653   156212248.268         -42.900          48.250    38795203.311   164155201.033         -45.119          43.500  
C05  39394602.015   205138020.192         -15.359          34.750    39394614.790   158625801.824         -11.735          40.000    39394605.610   166691466.161         -12.677          36.750  
C06  37687980.585   196251202.787        1411.563          44.000    37687993.161   151753931.336        1091.519          49.250    37687981.087   159470182.591        1147.150          44.500  
C08  36629120.303   190737437.873         268.268          47.250    36629130.995   147490331.709         207.543          51.000    36629118.920   154989789.955         218.126          46.750  
C09  39654574.072   206491769.777        1487.157          38.000    39654587.961   159672592.490        1150.164          44.750    39654574.421   167791491.464        1208.450          40.000  
C13  36832849.352   191798311.907         307.174          48.500    36832867.440   148310693.769         237.587          49.250    36832854.603   155851860.252         249.708          47.000  
C16  38361793.630   199759929.664        1571.486          45.500    38361811.559   154467119.457        1215.337          48.000    38361797.704   162321321.107        1277.103          42.750  
C20  22689374.649   118149532.217        1916.914          50.250           0.000           0.000           0.000           0.000    22689372.966    96006164.721        1557.571          50.750  
C27  23436278.102   122038849.048       -2105.457          47.000           0.000           0.000           0.000           0.000    23436283.838    99166588.098       -1710.805          47.750  
C29  24380911.263   126957801.074        2685.425          45.750           0.000           0.000           0.000           0.000    24380915.503   103163626.996        2181.906          44.750  
C30  21562377.107   112280955.429         510.849          52.250           0.000           0.000           0.000           0.000    21562384.059    91237501.407         415.206          50.750  
C32  22092774.541   115042871.233       -1083.486          52.000           0.000           0.000           0.000           0.000    22092780.870    93481788.114        -880.414          50.500  
> 2019 11  1  0 56  0.0000000  0 28
G02  21489549.644   112928344.280         752.724          49.250    21489546.345    87996118.662         587.070          41.500           0.000           0.000           0.000           0.000  
G05  20980949.985   110255634.479        1486.259          51.500    20980948.927    85913491.853        1158.756          43.250           0.000           0.000           0.000           0.000  
G06  21869166.380   114923241.719       -1254.953          47.500    21869168.060    89550597.981        -977.474          39.250    21869224.387    85819531.656        -936.808          53.500  
G09  23405991.949   122999320.728       -2067.767          39.000    23405992.819    95843654.412       -1611.975          29.750    23406048.660    91850362.907       -1543.843          48.500  
G12  22640243.298   118975278.537       -1822.905          47.750    22640242.241    92708015.053       -1419.877          36.750           0.000           0.000           0.000           0.000  
G17  23434192.614   123147507.010       -3218.013          38.750    23434192.268    95959148.252       -2506.698          28.000           0.000           0.000           0.000           0.000  
G19  22284373.765   117105172.008       -3000.064          45.500    22284372.025    91250810.015       -2336.917          36.500           0.000           0.000           0.000           0.000  
G25  23939406.887   125802427.561         206.481          42.750    23939409.357    98027897.427         161.278          31.250    23939464.519    93943603.643         154.462          48.500  
R02  21192983.074   113089818.056       -3391.791          50.250    21193000.826    87958816.713       -2638.318          45.250  
R03  19185319.431   102700518.308         259.422          52.750    19185337.863    79878254.904         201.506          52.250  
R17  20328824.669   108783646.739       -1241.745          51.750    20328844.543    84609580.572        -966.031          50.250  
R18  20073812.252   107155368.209        1830.556          53.250    20073830.362    83343138.177        1423.418          49.250  
R19  23188734.181   124044103.622        3358.740          37.500    23188752.488    96478813.513        2612.564          41.250  
C01  37445085.081   194986376.992         -69.816          44.250    37445093.693   150775887.763         -53.874          48.750    37445085.435   158442407.421         -56.684          44.500  
C02  37389196.542   194695347.442         -10.804          43.500    37389207.091   150550856.520          -8.425          49.750    37389197.831   158205931.811          -8.620          42.750  
C03  36667466.470   190937113.985         -53.426          47.250    36667478.215   147644745.618         -41.318          50.000    36667467.885   155152056.068         -43.253          44.750  
C04  38795236.043   202016963.395         -55.061          40.750    38795248.080   156212386.268         -42.829          48.500    38795237.442   164155346.037         -44.750          43.250  
C05  39394558.919   205137797.677         -14.759          35.500    39394571.561   158625629.797         -11.678          40.500    39394563.086   166691285.360         -12.052          36.750  
C06  37685198.605   196236714.907        1410.955          44.000    37685211.009   151742728.395        1091.041          49.000    37685199.015   159458410.012        1146.409          44.500  
C08  36628532.182   190734374.800         269.236          47.500    36628542.997   147487963.137         208.242          51.000    36628530.852   154987300.957         218.768          46.750  
C09  39651645.464   206476519.258        1487.934          38.000    39651660.347   159660799.833        1150.370          45.250    39651646.000   167779099.152        1208.852          40.250  
C13  36832186.354   191794859.829         308.177          48.750    36832204.493   148308024.402         238.205          49.250    36832191.193   155849055.157         250.448          47.000  
C16  38358704.059   199743842.051        1571.133          45.000    38358721.972   154454679.498        1214.782          48.000    38358708.301   162308248.612        1276.635          42.500  
C20  22685624.853   118130006.667        1913.235          50.250           0.000           0.000           0.000           0.000    22685623.758    95990298.604        1554.734          51.000  
C27  23440252.163   122059542.528       -2108.236          47.250           0.000           0.000           0.000           0.000    23440257.994    99183403.261       -1713.042          47.750  
C29  24375682.490   126930575.520        2684.746          45.500           0.000           0.000           0.000           0.000    24375687.400   103141504.013        2181.520          44.500  
C30  21561327.411   112275489.112         507.260          52.250           0.000           0.000           0.000           0.000    21561334.441    91233059.575         412.197          51.000  
C32  22094786.889   115053351.176       -1087.540          52.000           0.000           0.000           0.000           0.000    22094793.560    93490303.914        -883.620          50.750  
> 2019 11  1  0 56 10.0000000  0 28
G02  21488045.767   112920439.848         752.378          49.250    21488042.233    87989959.358         586.414          41.750           0.000           0.000           0.000           0.000  
G05  20978053.358   110240412.655        1482.285          51.500    20978052.366    85901630.693        1155.452          43.250           0.000           0.000           0.000           0.000  
G06  21871483.562   114935418.716       -1256.149          47.750    21871485.591    89560086.547        -978.617          38.750    21871541.768    85828624.881        -938.042          53.500  
G09  23409859.425   123019644.205       -2072.511          38.500    23409860.467    95859490.857       -1614.474          29.000    23409915.900    91865539.495       -1547.556          48.000  
G12  22643644.422   118993149.792       -1827.004          48.000    22643643.489    92721940.689       -1423.070          36.750           0.000           0.000           0.000           0.000  
G17  23440246.771   123179321.423       -3220.468          38.500    23440246.660    95983938.660       -2508.602          26.500           0.000           0.000           0.000           0.000  
G19  22290014.081   117134810.656       -3003.409          46.000    22290011.707    91273905.057       -2339.891          34.750           0.000           0.000           0.000           0.000  
G25  23938947.732   125800012.055         201.043          44.000    23938949.542    98026015.216         156.636          30.500    23939004.624    93941799.860         150.166          48.250  
R02  21199271.785   113123374.587       -3395.424          50.000    21199289.286    87984916.246       -2641.268          44.750  
R03  19184770.357   102697582.204         251.192          52.500    19184788.977    79875971.275         195.290          52.000  
R17  20331078.573   108795705.961       -1246.707          51.750    20331097.810    84618959.967        -969.698          50.000  
R18  20070314.023   107136697.355        1827.246          53.250    20070332.635    83328616.398        1421.186          49.250  
R19  23182381.358   124010123.010        3360.199          36.750    23182400.148    96452384.174        2613.461          41.500  
C01  37445146.959   194986700.293         -69.713          44.250    37445156.018   150776137.773         -53.872          49.000    37445147.529   158442670.136         -56.494          44.500  
C02  37389145.556   194695081.516         -10.719          43.750    37389156.181   150550650.882          -8.282          49.750    37389146.994   158205715.725          -8.790          42.750  
C03  36667496.948   190937273.577         -53.354          47.250    36667508.782   147644869.026         -41.253          50.000    36667498.579   155152185.754         -43.390          44.500  
C04  38795270.194   202017142.107         -55.382          40.750    38795282.775   156212524.441         -42.719          48.500    38795271.692   164155491.242         -44.674          43.250  
C05  39394516.559   205137575.555         -14.903          35.750    39394529.142   158625458.016         -11.526          40.000    39394520.279   166691104.886         -12.521          37.000  
C06  37682417.955   196222236.264        1410.148          44.000    37682430.911   151731532.602        1090.394          49.000    37682418.536   159446644.937        1145.751          44.750  
C08  36627942.811   190731306.179         269.864          47.500    36627953.802   147485590.283         208.606          51.000    36627941.325   154984807.438         219.363          46.750  
C09  39648716.774   206461269.606        1487.448          38.000    39648731.584   159649007.832        1150.272          45.250    39648717.991   167766707.559        1208.705          40.500  
C13  36831522.092   191791400.864         309.056          49.000    36831540.454   148305349.704         238.916          49.250    36831527.326   155846244.469         251.079          46.750  
C16  38355616.300   199727762.354        1570.313          45.750    38355634.218   154442245.664        1214.257          47.750    38355620.246   162295182.550        1275.877          42.250  
C20  22681882.863   118110520.774        1909.393          50.750           0.000           0.000           0.000           0.000    22681881.842    95974464.736        1551.462          51.000  
C27  23444232.412   122080267.505       -2111.263          47.500           0.000           0.000           0.000           0.000    23444238.283    99200244.000       -1715.625          47.500  
C29  24370456.091   126903358.376        2684.027          46.250           0.000           0.000           0.000           0.000    24370460.052   103119387.864        2181.001          44.250  
C30  21560285.187   112270061.587         503.536          52.500           0.000           0.000           0.000           0.000    21560292.042    91228649.266         409.144          50.750  
C32  22096807.476   115063873.320       -1091.553          52.000           0.000           0.000           0.000           0.000    22096814.496    93498854.031        -887.082          50.750  
> 2019 11  1  0 56 20.0000000  0 28
G02  21486543.128   112912543.777         751.977          49.500    21486539.498    87983806.578         586.074          41.750           0.000           0.000           0.000           0.000  
G05  20975165.168   110225234.011        1478.577          51.750    20975164.002    85889803.182        1152.329          43.500           0.000           0.000           0.000           0.000  
G06  21873803.730   114947611.352       -1257.141          47.500    21873805.602    89569587.292        -979.132          39.750    21873862.076    85837729.761        -938.906          53.750  
G09  23413736.357   123040018.181       -2077.253          38.750    23413737.350    95875366.680       -1616.900          29.250    23413792.867    91880753.796       -1551.064          48.250  
G12  22647053.753   119011065.269       -1830.921          48.250    22647052.995    92735900.793       -1426.708          36.250           0.000           0.000           0.000           0.000  
G17  23446305.905   123211162.738       -3222.645          39.000    23446306.329    96008750.133       -2511.439          27.750           0.000           0.000           0.000           0.000  
G19  22295660.844   117164484.930       -3006.366          45.750    22295658.170    91297027.865       -2342.797          36.000           0.000           0.000           0.000           0.000  
G25  23938498.238   125797654.178         195.725          42.750    23938500.855    98024177.921         152.267          31.250    23938555.542    93940039.127         146.330          48.000  
R02  21205568.176   113156972.065       -3398.818          49.750    21205585.435    88011047.619       -2644.091          44.250  
R03  19184237.959   102694729.412         244.275          52.500    19184257.438    79873752.445         189.217          52.000  
R17  20333341.865   108807816.582       -1250.925          52.250    20333360.834    84628379.332        -973.363          49.750  
R18  20066822.033   107118058.777        1825.201          53.250    20066841.083    83314119.719        1419.120          49.000  
R19  23176027.208   123976132.129        3361.910          35.750    23176045.667    96425946.836        2614.558          41.750  
C01  37445209.064   194987022.613         -68.878          44.000    37445217.701   150776387.028         -53.430          48.750    37445209.330   158442932.064         -56.207          44.000  
C02  37389094.617   194694814.767         -10.131          44.000    37389105.107   150550444.609          -7.763          49.750    37389095.636   158205498.979          -8.157          42.750  
C03  36667527.616   190937432.351         -52.745          47.250    36667539.302   147644991.808         -40.823          50.000    36667529.246   155152314.784         -42.858          44.750  
C04  38795304.419   202017319.910         -54.408          41.000    38795316.669   156212661.937         -42.171          48.500    38795305.765   164155635.734         -44.225          43.000  
C05  39394473.024   205137352.640         -14.787          34.750    39394486.527   158625285.611         -11.069          40.250    39394477.374   166690923.693         -11.528          36.250  
C06  37679639.202   196207765.744        1409.745          44.000    37679651.913   151720343.076        1090.187          49.000    37679639.480   159434886.438        1145.624          44.500  
C08  36627352.182   190728230.975         270.808          47.250    36627363.061   147483212.329         209.566          51.250    36627350.948   154982308.586         220.048          46.500  
C09  39645788.023   206446019.661        1487.933          38.250    39645802.855   159637215.603        1150.514          45.500    39645789.767   167754315.703        1209.348          40.500  
C13  36830856.264   191787933.911         310.230          48.750    36830874.575   148302668.833         239.952          49.250    36830861.444   155843427.288         251.979          46.750  
C16  38352529.714   199711689.464        1569.916          45.750    38352547.225   154429817.088        1214.049          47.750    38352534.119   162282121.996        1275.890          42.500  
C20  22678148.326   118091073.445        1905.898          50.750           0.000           0.000           0.000           0.000    22678147.179    95958662.196        1548.668          51.250  
C27  23448218.267   122101022.846       -2114.045          48.250           0.000           0.000           0.000           0.000    23448224.495    99217109.395       -1717.609          47.750  
C29  24365230.842   126876148.582        2683.676          46.750           0.000           0.000           0.000           0.000    24365234.158   103097277.647        2180.904          44.750  
C30  21559249.876   112264671.810         500.170          52.250           0.000           0.000           0.000           0.000    21559256.919    91224269.617         406.515          50.750  
C32  22098835.955   115074436.541       -1095.287          52.000           0.000           0.000           0.000           0.000    22098843.127    93507437.508        -890.062          50.750  
> 2019 11  1  0 56 30.0000000  0 28
G02  21485042.572   112904658.135         751.717          49.500    21485038.952    87977661.919         585.915          42.000           0.000           0.000           0.000           0.000  
G05  20972285.478   110210100.598        1474.712          51.250    20972284.347    85878010.914        1149.511          43.250           0.000           0.000           0.000           0.000  
G06  21876127.238   114959821.683       -1258.369          47.250    21876129.191    89579101.827        -980.654          39.750    21876185.640    85846847.839        -939.582          54.000  
G09  23417623.546   123060444.550       -2081.728          37.500    23417624.190    95891283.318       -1622.596          28.500    23417680.220    91896007.279       -1554.421          47.750  
G12  22650471.728   119029026.854       -1834.809          48.250    22650470.914    92749896.833       -1429.489          36.750           0.000           0.000           0.000           0.000  
G17  23452371.095   123243033.004       -3224.903          39.250    23452371.641    96033584.050       -2513.716          26.750           0.000           0.000           0.000           0.000  
G19  22301314.780   117194196.894       -3009.477          46.000    22301312.293    91320180.039       -2344.833          36.000           0.000           0.000           0.000           0.000  
G25  23938060.273   125795355.941         190.405          41.500    23938063.393    98022387.076         148.071          31.000    23938118.945    93938322.913         142.321          47.750  
R02  21211871.924   113190612.701       -3403.473          49.750    21211889.399    88037212.551       -2646.862          43.500  
R03  19183721.889   102691961.924         235.210          52.750    19183741.136    79871599.952         183.020          52.000  
R17  20335615.702   108819980.651       -1256.261          52.500    20335634.170    84637840.275        -977.012          49.500  
R18  20063336.873   107099454.416        1821.574          53.250    20063355.475    83299649.662        1416.833          49.000  
R19  23169672.405   123942132.827        3363.183          36.000    23169690.381    96399502.929        2615.755          41.000  
C01  37445271.205   194987346.002         -68.248          44.000    37445279.773   150776637.086         -52.857          48.750    37445271.256   158443194.842         -55.656          44.000  
C02  37389043.232   194694549.206          -9.294          43.750    37389053.850   150550239.277          -7.275          49.750    37389044.551   158205283.201          -7.733          43.000  
C03  36667558.234   190937592.321         -51.975          47.250    36667570.061   147645115.489         -40.234          50.000    36667559.887   155152444.773         -42.224          44.750  
C04  38795338.626   202017498.876         -54.041          40.500    38795350.999   156212800.310         -41.652          48.500    38795340.348   164155781.142         -43.696          43.000  
C05  39394430.590   205137130.873         -13.868          34.250    39394443.821   158625114.164         -10.682          40.500    39394434.880   166690743.519         -11.387          37.000  
C06  37676862.004   196193305.315        1409.726          43.750    37676874.732   151709161.353        1090.157          49.000    37676862.598   159423136.167        1145.488          44.500  
C08  36626760.771   190725151.118         272.366          47.250    36626771.811   147480830.813         210.622          51.250    36626759.440   154979805.974         221.228          46.750  
C09  39642860.274   206430771.365        1488.812          38.500    39642874.431   159625424.663        1151.262          46.000    39642861.532   167741925.238        1209.840          40.500  
C13  36830189.400   191784461.050         311.641          48.750    36830207.649   148299983.399         240.920          49.250    36830194.494   155840605.302         253.077          46.500  
C16  38349444.828   199695625.371        1570.183          45.750    38349462.055   154417395.328        1214.063          47.500    38349448.756   162269068.633        1275.643          42.250  
C20  22674421.511   118071666.697        1902.790          50.750           0.000           0.000           0.000           0.000    22674420.245    95942892.630        1546.194          51.250  
C27  23452210.444   122121810.485       -2116.272          48.250           0.000           0.000           0.000           0.000    23452216.596    99234001.063       -1719.616          48.000  
C29  24360007.396   126848948.156        2683.622          47.000           0.000           0.000           0.000           0.000    24360011.354   103075175.099        2180.641          44.750  
C30  21558222.510   112259321.796         497.153          52.000           0.000           0.000           0.000           0.000    21558229.544    91219922.305         403.846          51.000  
C32  22100872.787   115085042.745       -1098.675          51.750           0.000           0.000           0.000           0.000    22100879.747    93516055.917        -892.752          50.750  
> 2019 11  1  0 56 40.0000000  0 28
G02  21483543.635   112896781.257         751.409          49.500    21483540.044    87971524.100         585.268          42.000           0.000           0.000           0.000           0.000  
G05  20969413.962   110195010.687        1470.990          51.500    20969412.488    85866252.557        1145.899          42.750           0.000           0.000           0.000           0.000  
G06  21878453.774   114972048.016       -1259.147          47.500    21878455.962    89588628.841        -980.600          39.250    21878512.319    85855977.892        -940.183          53.750  
G09  23421520.133   123080921.730       -2085.910          37.750    23421521.132    95907239.557       -1624.374          30.250    23421576.541    91911298.652       -1557.577          47.500  
G12  22653898.150   119047032.854       -1838.560          48.000    22653897.337    92763927.483       -1432.596          36.000           0.000           0.000           0.000           0.000  
G17  23458441.209   123274930.418       -3226.915          40.250    23458441.377    96058439.156       -2514.906          28.250           0.000           0.000           0.000           0.000  
G19  22306975.793   117223944.739       -3012.191          45.500    22306973.354    91343360.180       -2346.948          35.500           0.000           0.000           0.000           0.000  
G25  23937634.082   125793115.705         185.338          41.250    23937637.835    98020641.427         143.721          29.750    23937693.087    93936649.968         138.490          48.750  
R02  21218183.849   113224294.474       -3407.010          50.000    21218201.395    88063409.470       -2649.611          43.250  
R03  19183220.244   102689277.955         227.609          52.750    19183238.953    79869512.415         177.089          52.000  
R17  20337898.934   108832196.510       -1260.740          52.750    20337917.115    84647341.494        -980.519          49.750  
R18  20059858.026   107080882.868        1818.882          53.500    20059876.691    83285205.125        1414.812          48.500  
R19  23163313.755   123908123.863        3365.056          34.750    23163333.029    96373051.534        2617.034          40.500  
C01  37445333.408   194987668.872         -67.686          44.250    37445341.738   150776886.741         -52.280          48.750    37445333.518   158443457.192         -55.018          44.000  
C02  37388992.488   194694283.203          -8.734          43.500    37389002.972   150550033.578          -6.764          49.750    37388993.636   158205067.053          -7.004          43.000  
C03  36667588.874   190937751.846         -51.260          47.250    36667600.625   147645238.844         -39.662          50.250    36667590.517   155152574.396         -41.761          44.500  
C04  38795373.290   202017677.312         -53.294          40.500    38795385.189   156212938.292         -41.155          48.500    38795374.592   164155926.157         -43.268          43.250  
C05  39394387.933   205136908.724         -13.067          35.250    39394401.390   158624942.372         -10.236          40.500    39394392.068   166690562.980         -10.528          36.500  
C06  37674086.528   196178853.408        1409.272          43.750    37674099.275   151697986.242        1089.831          49.000    37674087.389   159411392.814        1145.286          44.750  
C08  36626168.227   190722065.083         273.441          47.000    36626178.966   147478444.485         211.643          51.250    36626166.822   154977298.295         222.447          46.500  
C09  39639932.063   206415523.241        1489.065          38.750    39639946.663   159613633.835        1151.597          46.000    39639933.133   167729534.875        1210.426          41.000  
C13  36829521.018   191780980.586         312.962          48.750    36829539.007   148297292.076         242.096          49.250    36829526.324   155837777.127         254.479          46.500  
C16  38346361.472   199679568.499        1569.969          45.750    38346378.339   154404979.126        1213.932          47.500    38346365.358   162256021.096        1275.703          42.250  
C20  22670702.456   118052298.945        1899.487          51.000           0.000           0.000           0.000           0.000    22670700.846    95927154.753        1543.405          51.000  
C27  23456208.452   122142628.794       -2118.702          48.750           0.000           0.000           0.000           0.000    23456214.460    99250917.642       -1721.549          47.500  
C29  24354785.079   126821755.543        2683.425          47.000           0.000           0.000           0.000           0.000    24354788.086   103053078.878        2180.752          44.000  
C30  21557202.446   112254009.995         493.996          52.250           0.000           0.000           0.000           0.000    21557209.547    91215606.018         401.388          51.000  
C32  22102917.546   115095690.262       -1102.258          52.000           0.000           0.000           0.000           0.000    22102924.387    93524707.891        -895.561          50.750  
> 2019 11  1  0 56 50.0000000  0 28
G02  21482046.447   112888913.837         750.166          49.500    21482042.990    87965393.641         584.505          42.250           0.000           0.000           0.000           0.000  
G05  20966551.023   110179964.981        1466.216          51.500    20966549.010    85854528.625        1142.036          42.750           0.000           0.000           0.000           0.000  
G06  21880783.651   114984291.041       -1261.307          47.250    21880785.363    89598168.858        -982.793          39.750    21880842.113    85865120.417        -941.987          54.000  
G09  23425426.616   123101450.160       -2091.525          37.000    23425428.017    95923235.743       -1630.719          30.000    23425483.021    91926628.349       -1561.942          47.750  
G12  22657332.728   119065083.745       -1843.451          47.500    22657331.748    92777993.112       -1436.946          35.750           0.000           0.000           0.000           0.000  
G17  23464516.292   123306855.459       -3229.923          41.000    23464518.661    96083315.803       -2517.307          28.750           0.000           0.000           0.000           0.000  
G19  22312643.551   117253729.033       -3016.302          45.500    22312641.233    91366568.714       -2350.022          35.750           0.000           0.000           0.000           0.000  
G25  23937219.870   125790934.028         179.231          43.000    23937222.986    98018941.379         139.067          31.250    23937278.429    93935020.769         133.787          49.000  
R02  21224503.834   113258018.042       -3411.063          50.250    21224521.487    88089638.886       -2653.065          43.250  
R03  19182733.435   102686678.116         219.085          52.750    19182752.207    79867490.327         170.302          52.000  
R17  20340191.228   108844464.735       -1266.068          52.500    20340210.036    84656883.443        -984.844          49.750  
R18  20056385.387   107062344.818        1815.323          53.750    20056403.694    83270786.639        1412.045          48.000  
R19  23156955.055   123874105.711        3365.258          34.750    23156973.291    96346592.939        2617.724          40.000  
C01  37445395.505   194987991.722         -68.000          44.000    37445403.930   150777136.388         -52.568          49.000    37445395.509   158443719.532         -55.233          44.250  
C02  37388941.590   194694017.348          -9.120          43.500    37388951.664   150549828.002          -7.117          49.750    37388942.478   158204851.001          -7.443          42.500  
C03  36667619.562   190937911.536         -51.655          47.000    36667631.423   147645362.328         -39.986          50.000    36667621.302   155152704.142         -41.955          44.750  
C04  38795407.180   202017855.848         -53.615          40.500    38795419.329   156213076.352         -41.450          48.250    38795408.856   164156071.230         -43.613          43.250  
C05  39394346.009   205136686.746         -13.711          35.000    39394358.501   158624770.708         -10.410          40.500    39394349.377   166690382.629         -10.986          36.750  
C06  37671313.132   196164410.654        1407.855          44.000    37671325.757   151686818.187        1088.856          48.750    37671314.193   159399656.894        1144.198          44.750  
C08  36625574.226   190718973.436         273.813          47.000    36625585.230   147476053.844         211.495          51.000    36625573.123   154974786.089         222.458          46.500  
C09  39637003.756   206400275.798        1489.124          38.500    39637018.817   159601843.572        1151.329          45.750    39637005.026   167717145.118        1209.818          41.000  
C13  36828851.100   191777493.204         313.434          48.250    36828869.458   148294595.405         242.406          49.000    36828856.658   155834943.346         254.687          46.750  
C16  38343279.066   199663519.452        1568.637          45.500    38343296.792   154392568.996        1213.171          47.250    38343283.391   162242979.954        1274.687          42.500  
C20  22666990.768   118032970.800        1895.171          51.250           0.000           0.000           0.000           0.000    22666988.691    95911449.054        1539.928          50.750  
C27  23460212.652   122163478.378       -2122.187          48.750           0.000           0.000           0.000           0.000    23460218.126    99267859.637       -1724.447          47.500  
C29  24349564.865   126794571.426        2682.367          47.250           0.000           0.000           0.000           0.000    24349567.318   103030989.576        2179.511          43.750  
C30  21556189.731   112248737.049         489.715          52.250           0.000           0.000           0.000           0.000    21556196.817    91211321.319         397.831          51.000  
C32  22104970.276   115106379.608       -1106.762          51.750           0.000           0.000           0.000           0.000    22104977.127    93533393.871        -899.385          50.750  
> 2019 11  1  0 57  0.0000000  0 28
G02  21480551.381   112881057.290         749.595          49.250    21480547.934    87959271.658         584.214          42.500           0.000           0.000           0.000           0.000  
G05  20963696.523   110164964.834        1462.247          51.750    20963694.424    85842840.197        1139.296          42.750           0.000           0.000           0.000           0.000  
G06  21883116.781   114996552.186       -1262.507          47.000    21883118.645    89607722.998        -983.906          39.250    21883175.138    85874276.472        -942.987          54.250  
G09  23429343.173   123122031.285       -2096.385          37.750    23429344.098    95939272.984       -1633.087          30.000    23429399.346    91941997.353       -1565.501          47.750  
G12  22660776.392   119083180.889       -1847.500          47.250    22660775.707    92792094.767       -1439.092          35.500           0.000           0.000           0.000           0.000  
G17  23470596.893   123338809.475       -3232.465          41.000    23470599.159    96108215.035       -2519.133          30.250           0.000           0.000           0.000           0.000  
G19  22318318.497   117283551.194       -3019.604          45.250    22318316.054    91389806.757       -2353.339          35.250           0.000           0.000           0.000           0.000  
G25  23936816.489   125788812.292         173.619          42.500    23936819.116    98017288.108         134.760          30.750    23936874.955    93933436.362         129.666          48.750  
R02  21230831.687   113291784.830       -3414.933          50.000    21230849.385    88115901.929       -2655.948          43.750  
R03  19182264.029   102684163.935         211.018          52.750    19182282.926    79865534.850         164.128          52.000  
R17  20342493.189   108856786.958       -1271.019          52.250    20342512.158    84666467.380        -988.593          49.750  
R18  20052919.506   107043841.844        1812.431          53.500    20052937.356    83256395.443        1409.733          48.000  
R19  23150592.317   123840079.882        3366.989          36.250    23150612.218    96320128.417        2618.771          40.250  
C01  37445457.580   194988316.096         -67.981          44.000    37445466.465   150777387.205         -52.437          49.000    37445457.625   158443983.104         -55.062          44.250  
C02  37388890.327   194693753.092          -9.045          43.750    37388901.612   150549623.647          -6.983          49.750    37388891.964   158204636.260          -7.369          42.750  
C03  36667650.761   190938072.829         -51.504          47.250    36667662.611   147645487.048         -39.852          50.000    36667652.257   155152835.201         -41.877          44.750  
C04  38795441.630   202018035.936         -53.408          40.750    38795454.215   156213215.588         -41.223          48.500    38795443.550   164156217.560         -43.480          43.000  
C05  39394303.491   205136466.342         -13.191          34.500    39394316.606   158624600.267         -10.315          40.500    39394307.187   166690203.506         -10.781          37.000  
C06  37668541.801   196149978.463        1407.331          43.750    37668554.671   151675658.310        1088.257          48.750    37668542.639   159387929.568        1143.541          45.250  
C08  36624979.838   190715877.572         274.570          47.000    36624991.323   147473659.912         212.266          51.000    36624978.594   154972270.441         223.089          46.750  
C09  39634076.141   206385030.560        1489.139          38.750    39634091.704   159590054.979        1151.370          46.250    39634077.699   167704757.127        1209.790          40.750  
C13  36828180.614   191774000.288         314.138          48.250    36828199.095   148291894.454         243.055          49.250    36828185.524   155832105.060         255.348          46.750  
C16  38340199.147   199647479.691        1568.142          45.750    38340216.343   154380166.032        1212.694          47.250    38340202.884   162229946.330        1274.200          42.250  
C20  22663286.965   118013683.757        1891.316          51.750           0.000           0.000           0.000           0.000    22663285.035    95895776.746        1536.846          51.000  
C27  23464222.948   122184360.652       -2125.144          49.000           0.000           0.000           0.000           0.000    23464228.407    99284828.211       -1726.926          47.750  
C29  24344346.522   126767397.328        2681.618          47.250           0.000           0.000           0.000           0.000    24344349.046   103008908.378        2178.969          44.000  
C30  21555185.045   112243504.440         485.946          52.250           0.000           0.000           0.000           0.000    21555192.002    91207069.386         394.878          51.000  
C32  22107031.408   115117112.202       -1110.724          52.000           0.000           0.000           0.000           0.000    22107038.227    93542114.978        -902.567          51.000  
> 2019 11  1  0 57 10.0000000  0 28
G02  21479058.628   112873212.608         748.362          49.250    21479055.251    87953158.918         583.524          42.250           0.000           0.000           0.000           0.000  
G05  20960850.969   110150011.310        1457.432          51.500    20960848.960    85831188.100        1135.806          42.000           0.000           0.000           0.000           0.000  
G06  21885453.505   115008832.460       -1264.554          46.750    21885455.342    89617292.046        -985.222          39.250    21885512.019    85883446.787        -944.075          54.000  
G09  23433269.765   123142665.971       -2101.853          38.750    23433271.189    95955351.941       -1636.907          30.250    23433326.080    91957406.350       -1569.234          47.750  
G12  22664229.032   119101325.141       -1852.384          47.250    22664228.815    92806233.137       -1443.185          35.750           0.000           0.000           0.000           0.000  
G17  23476683.046   123370793.436       -3235.375          41.250    23476685.689    96133137.583       -2520.481          29.750           0.000           0.000           0.000           0.000  
G19  22324000.044   117313412.152       -3023.808          44.750    22323998.750    91413075.023       -2355.754          35.250           0.000           0.000           0.000           0.000  
G25  23936424.062   125786751.508         167.482          43.250    23936426.867    98015682.319         130.917          31.000    23936482.768    93931897.477         125.176          48.750  
R02  21237167.619   113325595.325       -3419.375          50.250    21237185.855    88142198.970       -2659.566          43.750  
R03  19181811.529   102681736.344         202.164          53.000    19181830.614    79863646.726         157.235          52.000  
R17  20344805.665   108869164.050       -1276.680          52.000    20344825.252    84676093.999        -992.936          49.750  
R18  20049460.254   107025375.059        1808.753          53.250    20049477.657    83242032.387        1406.818          48.000  
R19  23144231.491   123806047.521        3367.369          35.500    23144250.997    96293658.773        2619.187          39.750  
C01  37445520.186   194988642.828         -67.941          44.000    37445529.093   150777639.872         -52.544          49.000    37445520.302   158444248.614         -55.139          44.000  
C02  37388840.311   194693491.386          -9.017          43.750    37388850.980   150549421.285          -7.011          49.750    37388841.589   158204423.617          -7.428          43.000  
C03  36667682.085   190938236.673         -51.654          47.250    36667694.293   147645613.743         -39.963          50.000    36667683.830   155152968.337         -41.797          44.750  
C04  38795476.708   202018218.480         -53.438          40.750    38795489.653   156213356.763         -41.444          48.750    38795478.651   164156365.878         -43.418          43.000  
C05  39394261.436   205136248.516         -13.299          34.750    39394274.761   158624431.855         -10.393          40.250    39394265.379   166690026.489         -10.400          36.250  
C06  37665772.229   196135557.833        1406.435          44.000    37665785.317   151664507.376        1087.564          48.500    37665773.335   159376211.643        1142.676          45.000  
C08  36624384.636   190712778.562         275.037          46.750    36624396.245   147471263.556         212.615          51.250    36624383.416   154969752.229         223.502          46.750  
C09  39631148.796   206369788.525        1488.809          38.750    39631164.549   159578268.875        1151.385          46.250    39631150.598   167692371.690        1210.176          40.750  
C13  36827508.520   191770502.843         314.964          48.250    36827527.619   148289190.019         243.461          49.500    36827513.996   155829263.094         256.084          46.750  
C16  38337120.927   199631450.171        1567.540          46.000    38337138.695   154367771.011        1212.010          47.500    38337124.557   162216921.046        1273.726          42.250  
C20  22659591.141   117994438.757        1887.405          51.750           0.000           0.000           0.000           0.000    22659589.547    95880138.604        1533.712          50.750  
C27  23468239.805   122205276.562       -2128.195          49.250           0.000           0.000           0.000           0.000    23468245.335    99301824.092       -1729.389          47.500  
C29  24339130.122   126740234.204        2680.681          47.250           0.000           0.000           0.000           0.000    24339132.878   102986836.129        2178.099          44.250  
C30  21554188.238   112238313.155         482.031          52.500           0.000           0.000           0.000           0.000    21554195.205    91202851.038         391.762          51.000  
C32  22109101.110   115127888.913       -1114.916          52.000           0.000           0.000           0.000           0.000    22109107.863    93550871.931        -905.915          50.750  
> 2019 11  1  0 57 20.0000000  0 28
G02  21477567.422   112865376.460         749.057          49.250    21477564.026    87947052.829         584.064          42.500           0.000           0.000           0.000           0.000  
G05  20958013.444   110135100.921        1454.798          51.250    20958011.739    85819569.612        1133.555          42.750           0.000           0.000           0.000           0.000  
G06  21887793.376   115021128.432       -1264.525          46.500    21887795.172    89626873.311        -985.683          39.250    21887851.733    85892628.847        -944.275          54.000  
G09  23437206.181   123163350.753       -2105.297          38.750    23437207.179    95971469.933       -1639.924          29.750    23437262.803    91972852.758       -1572.070          47.750  
G12  22667690.097   119119512.971       -1855.120          47.250    22667689.757    92820405.472       -1445.802          35.250           0.000           0.000           0.000           0.000  
G17  23482774.191   123402803.912       -3236.537          41.000    23482777.254    96158080.771       -2522.033          29.250           0.000           0.000           0.000           0.000  
G19  22329689.203   117343308.259       -3025.555          44.000    22329687.762    91436370.679       -2357.619          35.000           0.000           0.000           0.000           0.000  
G25  23936042.539   125784748.206         163.420          43.000    23936044.625    98014121.310         127.462          31.500    23936101.262    93930401.534         121.953          48.500  
R02  21243510.890   113359446.121       -3422.573          50.250    21243529.537    88168527.328       -2661.434          43.750  
R03  19181374.083   102679391.746         194.700          53.000    19181392.506    79861823.143         151.988          52.250  
R17  20347128.218   108881592.712       -1280.950          52.250    20347147.626    84685760.738        -995.786          50.000  
R18  20046007.311   107006941.109        1806.318          53.250    20046023.845    83227694.867        1405.491          47.500  
R19  23137868.325   123772005.142        3369.823          35.500    23137887.760    96267181.387        2621.024          41.500  
C01  37445582.928   194988968.629         -66.483          43.750    37445591.500   150777891.800         -51.343          48.750    37445582.711   158444513.346         -53.956          44.250  
C02  37388790.037   194693228.868          -7.701          43.500    37388800.530   150549218.277          -5.829          49.750    37388791.203   158204210.273          -6.103          42.750  
C03  36667713.305   190938399.691         -50.047          47.000    36667725.235   147645739.805         -38.705          50.000    36667714.946   155153100.812         -40.667          44.500  
C04  38795511.433   202018400.162         -51.970          40.750    38795524.524   156213497.243         -40.116          48.500    38795513.711   164156513.524         -42.188          43.250  
C05  39394219.337   205136029.875         -11.605          35.000    39394232.711   158624262.780          -8.798          39.750    39394223.367   166689848.867          -9.624          37.000  
C06  37663004.331   196121145.397        1407.006          43.750    37663017.321   151653362.780        1088.002          48.750    37663005.755   159364500.362        1143.251          45.250  
C08  36623788.054   190709672.927         277.247          46.500    36623799.718   147468862.080         214.321          51.000    36623786.993   154967228.647         225.291          46.750  
C09  39628221.150   206354546.286        1490.166          38.500    39628237.147   159566482.597        1152.636          46.250    39628223.630   167679986.116        1211.165          41.000  
C13  36826835.641   191766997.422         317.171          48.000    36826854.332   148286479.405         245.272          49.250    36826840.587   155826414.664         257.653          46.750  
C16  38334044.045   199615427.578        1568.111          46.000    38334061.158   154355381.333        1212.536          47.250    38334047.544   162203901.389        1274.176          42.500  
C20  22655902.849   117975232.481        1884.936          51.750           0.000           0.000           0.000           0.000    22655901.615    95864531.942        1531.634          50.750  
C27  23472262.283   122226222.712       -2129.983          49.000           0.000           0.000           0.000           0.000    23472268.371    99318844.538       -1730.662          48.000  
C29  24333915.062   126713078.808        2681.233          47.250           0.000           0.000           0.000           0.000    24333917.470   102964770.128        2178.907          43.250  
C30  21553198.624   112233159.895         479.498          52.500           0.000           0.000           0.000           0.000    21553205.649    91198663.595         389.651          51.000  
C32  22111178.421   115138706.317       -1117.645          51.750           0.000           0.000           0.000           0.000    22111185.483    93559661.964        -908.184          51.000  
> 2019 11  1  0 57 30.0000000  0 28
G02  21476077.831   112857548.602         747.534          49.250    21476074.543    87940953.205         582.635          42.500           0.000           0.000           0.000           0.000  
G05  20955184.208   110120233.365        1449.743          51.500    20955182.681    85807984.509        1129.754          42.000           0.000           0.000           0.000           0.000  
G06  21890135.977   115033439.897       -1266.744          46.750    21890138.259    89636466.646        -986.413          38.500    21890194.829    85901822.446        -945.891          54.250  
G09  23441152.188   123184085.229       -2110.811          38.250    23441153.025    95987626.671       -1645.155          29.000    23441208.665    91988336.288       -1576.107          48.500  
G12  22671159.377   119137744.019       -1860.137          46.750    22671158.755    92834611.477       -1449.065          34.000           0.000           0.000           0.000           0.000  
G17  23488870.379   123434840.610       -3239.735          40.000    23488873.470    96183044.408       -2524.335          29.000           0.000           0.000           0.000           0.000  
G19  22335385.250   117373239.301       -3029.795          44.500    22335383.182    91459693.553       -2360.965          34.750           0.000           0.000           0.000           0.000  
G25  23935672.260   125782802.174         156.676          43.250    23935674.340    98012604.928         122.094          29.500    23935730.467    93928948.298         117.140          48.500  
R02  21249862.122   113393336.692       -3426.039          49.500    21249880.661    88194886.690       -2665.067          44.500  
R03  19180950.310   102677129.971         187.130          52.500    19180969.020    79860064.007         145.157          52.000  
R17  20349460.792   108894072.614       -1285.464          51.750    20349480.271    84695467.323       -1000.192          50.250  
R18  20042560.136   106988539.636        1803.536          53.250    20042576.965    83213382.622        1402.417          47.500  
R19  23131503.722   123737952.581        3370.146          35.750    23131521.760    96240696.048        2621.657          42.000  
C01  37445644.930   194989293.216         -66.868          44.000    37445653.551   150778142.803         -51.737          48.500    37445645.096   158444777.116         -54.400          44.000  
C02  37388739.314   194692965.242          -8.270          43.750    37388749.947   150549014.428          -6.300          49.750    37388740.555   158203996.067          -6.646          42.750  
C03  36667744.571   190938561.630         -50.731          47.000    36667756.378   147645865.024         -39.195          50.000    36667745.970   155153232.409         -41.111          44.750  
C04  38795546.661   202018580.658         -52.372          40.500    38795558.824   156213636.823         -40.685          48.250    38795547.905   164156660.198         -42.690          43.250  
C05  39394177.196   205135810.222         -12.834          35.500    39394190.504   158624092.906          -9.506          39.750    39394181.535   166689670.334          -9.908          37.250  
C06  37660238.669   196106740.905        1405.583          44.000    37660250.755   151642224.310        1086.819          48.500    37660239.721   159352795.519        1142.132          45.250  
C08  36623190.128   190706560.510         277.005          46.750    36623201.799   147466455.360         214.172          51.000    36623189.532   154964699.568         225.108          46.750  
C09  39625293.996   206339303.550        1489.902          38.500    39625309.699   159554695.991        1151.918          46.000    39625296.659   167667600.180        1210.451          41.000  
C13  36826160.654   191763483.893         317.224          48.000    36826179.280   148283762.527         245.201          49.000    36826166.031   155823559.629         257.850          46.750  
C16  38330967.996   199599411.636        1566.716          45.750    38330985.292   154342996.791        1211.567          47.250    38330971.957   162190887.118        1273.133          42.500  
C20  22652221.883   117956064.668        1880.314          51.750           0.000           0.000           0.000           0.000    22652220.160    95848956.526        1528.026          50.750  
C27  23476290.310   122247198.796       -2133.604          48.750           0.000           0.000           0.000           0.000    23476296.660    99335889.319       -1733.670          48.000  
C29  24328701.660   126685930.902        2679.866          47.000           0.000           0.000           0.000           0.000    24328703.925   102942710.226        2177.773          43.750  
C30  21552216.278   112228044.424         475.175          52.250           0.000           0.000           0.000           0.000    21552223.343    91194506.860         386.015          51.000  
C32  22113263.635   115149564.059       -1122.292          51.750           0.000           0.000           0.000           0.000    22113271.058    93568484.783        -912.025          51.250  
