     2.11           OBSERVATION DATA    M (MIXED)           RINEX VERSION / TYPE
teqc  2013Mar15                         20151222 02:44:42UTCPGM / RUN BY / DATE
Linux2.4.20-8|i386|gcc|Win32-MinGW32|=                      COMMENT
teqc  2009Mar23     Ryan Ruddick        20100621 00:03:35UTCCOMMENT
Solaris x86 5.10|AMD64|cc SC5.8 -xarch=amd64|=+|=+          COMMENT
BIT 2 OF LLI FLAGS DATA COLLECTED UNDER A/S CONDITION       COMMENT
DAV1                                                        MARKER NAME
66010M001                                                   MARKER NUMBER
GEOSCIENCE AUSTRALIAGEOSCIENCE AUSTRALIA                    OBSERVER / AGENCY
356502              LEICA GRX1200GGPRO  7.50 / 3.019        REC # / TYPE / VERS
CR5200428009        ASH701945G_M    AUST                    ANT # / TYPE
   486854.5000  2285099.3660 -5914955.7710                  APPROX POSITION XYZ
        0.0005        0.0000        0.0000                  ANTENNA: DELTA H/E/N
     1     1                                                WAVELENGTH FACT L1/2
     6    L1    L2    C1    P2    S1    S2                  # / TYPES OF OBSERV
    30.0000                                                 INTERVAL
Forced Modulo Decimation to 30 seconds                      COMMENT
Default                                                     COMMENT
Project creator:                                            COMMENT
Geoscience Australia                                        COMMENT
 SNR is mapped to RINEX snr flag value [0-9]                COMMENT
  L1 & L2: min(max(int(snr_dBHz/6), 0), 9)                  COMMENT
teqc windowed: start @ 2010 Jun 20 00:00:00.000             COMMENT
teqc windowed:  end  @ 2010 Jun 20 23:59:30.000             COMMENT
    15                                                      LEAP SECONDS
teqc edited: all GLONASS satellites excluded                COMMENT
teqc edited: all SBAS satellites excluded                   COMMENT
teqc edited: all Galileo satellites excluded                COMMENT
  2010     6    20     0     0    0.0000000     GPS         TIME OF FIRST OBS
                                                            END OF HEADER
 10  6 20  0  0  0.0000000  0 11G14G12G30G04G32G16G02G23G20G29G31
 128819197.946 6 100378581.06645  24513479.780    24513476.860          40.500
        34.500
 119994672.470 7  93502336.22247  22834224.840    22834221.620          47.750
        42.250
 110809624.526 8  86345163.86848  21086368.740    21086366.460          51.500
        49.000
 125252108.415 7  97599051.86146  23834682.640    23834680.540          44.750
        36.250
 129879615.949 6 101204898.64445  24715271.780    24715270.000          40.750
        34.000
 134865189.197 6 105089753.09544  25663993.460    25663989.260          39.000
        28.750
 118373209.935 8  92238843.74147  22525672.800    22525668.080          49.250
        43.250
 125440258.388 7  97745636.17545  23870487.540    23870482.260          45.500
        35.500
 129019617.397 6 100534753.51945  24551616.880    24551613.460          40.500
        34.250
 113299645.950 8  88285423.30347  21560202.880    21560200.440          50.000
        47.750
 108421984.560 8  84484645.93148  20632013.820    20632010.260          51.250
        50.250
 10  6 20  0  0 30.0000000  0 11G14G12G30G04G32G16G02G23G20G29G31
 128937312.193 6 100470618.03845  24535956.140    24535953.460          40.500
        31.250
 120093565.506 7  93579395.72046  22853043.520    22853040.400          47.500
        41.750
 110852363.790 8  86378467.19148  21094501.740    21094499.480          51.500
        49.000
 125307266.602 7  97642032.26246  23845178.840    23845176.780          44.750
        36.000
 129977184.736 6 101280926.61745  24733838.280    24733836.500          41.500
        35.000
 134749478.172 6 104999588.56945  25641974.440    25641970.160          38.750
        30.500
 118371010.288 8  92237129.59947  22525254.320    22525249.640          49.250
        43.500
 125359730.598 7  97682887.23546  23855163.580    23855158.300          45.000
        36.750
 129087647.583 6 100587763.95446  24564562.780    24564559.240          41.000
        36.000
 113226877.545 8  88228720.62348  21546355.420    21546353.080          50.000
        48.000
 108400946.935 8  84468252.97748  20628010.500    20628006.900          51.250
        50.250
 10  6 20  0  1  0.0000000  0 11G14G12G30G04G32G16G02G23G20G29G31
 129055550.857 6 100562751.99445  24558456.240    24558453.800          41.000
        34.250
 120192723.172 7  93656661.43247  22871912.580    22871909.440          47.750
        42.250
 110895538.452 8  86412109.76848  21102717.620    21102715.380          51.500
        49.000
 125362917.572 7  97685396.64646  23855768.840    23855766.820          45.250
        36.500
 130075063.101 6 101357195.69045  24752463.600    24752461.920          41.750
        33.750
 134633783.624 6 104909436.98144  25619958.360    25619954.620          39.750
        28.750
 118369446.071 8  92235910.82547  22524956.720    22524952.120          49.000
        44.000
 125279625.712 7  97620467.81846  23839920.260    23839914.800          44.750
        36.500
 129156090.424 6 100641095.86545  24577586.900    24577583.520          41.250
        32.750
 113154595.869 8  88172397.23748  21532600.640    21532598.360          50.250
        48.000
 108380537.722 8  84452349.66148  20624126.760    20624123.180          51.250
        50.250
 10  6 20  0  1 30.0000000  0 11G14G12G30G04G32G16G02G23G20G29G31
 129173909.787 6 100654979.65245  24580979.140    24580976.800          39.250
        32.750
 120292141.974 8  93734130.63147  22890831.420    22890828.280          48.000
        42.250
 110939146.410 8  86446089.97748  21111015.960    21111013.740          51.500
        48.750
 125419058.340 7  97729142.71246  23866452.220    23866450.120          45.000
        38.000
 130173246.502 6 101433702.34945  24771147.120    24771145.480          41.500
        32.750
 134518105.687 6 104819298.33545  25597945.600    25597941.980          41.250
        32.250
 118368515.489 8  92235185.82747  22524779.520    22524775.040          49.000
        43.500
 125199945.157 7  97558379.09646  23824757.520    23824752.140          44.750
        36.500
 129224942.148 6 100694746.51645  24590689.120    24590685.520          40.250
        34.750
 113082801.753 8  88116453.76848  21518938.660    21518936.380          50.250
        48.000
 108360757.361 8  84436936.43848  20620362.680    20620359.080          51.250
        50.250
 10  6 20  0  2  0.0000000  0 11G14G12G30G04G32G16G02G23G20G29G31
 129292383.883 6 100747297.03845  24603523.860    24603521.880          38.500
        33.500
 120391817.605 8  93811799.96047  22909799.180    22909795.860          48.250
        42.500
 110983183.757 8  86480404.78748  21119395.980    21119393.740          51.500
        48.750
 125475684.364 7  97773266.91146  23877227.960    23877225.540          45.000
        37.500
 130271728.944 6 101510441.96145  24789887.500    24789885.920          40.750
        30.750
 134402442.834 6 104729171.36645  25575935.720    25575932.200          41.250
        30.000
 118368215.873 8  92234952.42947  22524722.360    22524717.940          49.000
        43.250
 125120688.656 7  97496620.76846  23809675.600    23809670.080          45.250
        36.750
 129294197.517 6 100748711.62645  24603868.040    24603864.560          41.000
        34.000
 113011494.574 8  88060889.71048  21505369.380    21505367.060          50.250
        48.000
 108341603.627 8  84422011.51048  20616717.780    20616714.220          51.250
        50.500
 10  6 20  0  2 30.0000000  0 11G14G12G30G04G32G16G02G23G20G29G31
 129410972.876 6 100839704.04745  24626090.580    24626088.320          39.500
        34.250
 120491750.991 8  93889670.12947  22928815.960    22928812.680          48.250
        43.000
 111027652.522 8  86515055.76048  21127858.120    21127855.860          51.500
        49.000
 125532796.520 7  97817769.88845  23888096.060    23888093.560          44.750
        35.750
 130370510.163 6 101587414.36046  24808684.860    24808683.020          40.250
        36.000
 134286799.701 6 104639059.82945  25553929.560    25553926.140          41.000
        34.250
 118368550.143 8  92235212.98047  22524785.880    22524781.380          49.000
        42.750
 125041861.671 7  97435197.13146  23794675.420    23794669.860          45.250
        37.250
 129363856.609 6 100802991.15645  24617123.840    24617120.420          39.500
        31.250
 112940679.225 8  88005708.93948  21491893.680    21491891.340          50.250
        48.000
 108323080.462 8  84407577.87748  20613192.880    20613189.340          51.250
        50.500
 10  6 20  0  3  0.0000000  0 11G14G12G30G04G32G16G02G23G20G29G31
 129529670.496 6 100932195.71345  24648678.280    24648675.760          40.750
        33.750
 120591936.642 7  93967736.85147  22947880.600    22947877.440          47.750
        42.500
 111072548.021 8  86550039.24348  21136401.520    21136399.180          51.500
        48.750
 125590389.746 7  97862647.71646  23899055.540    23899053.240          45.000
        38.000
 130469583.617 6 101664614.47245  24827537.700    24827535.960          40.750
        30.500
 134171174.154 6 104548961.93945  25531926.600    25531923.280          41.000
        32.000
 118369514.802 8  92235964.68247  22524969.400    22524964.760          48.750
        42.750
 124963463.253 7  97374107.46345  23779756.600    23779751.080          45.500
        35.750
 129433914.459 6 100857581.58645  24630455.480    24630451.920          40.750
        34.500
 112870354.149 8  87950910.19348  21478511.320    21478508.920          50.250
        48.500
 108305185.524 8  84393633.87248  20609787.600    20609783.980          51.250
        50.250
 10  6 20  0  3 30.0000000  0 11G14G12G30G04G32G16G02G23G20G29G31
 129648476.190 6 101024771.57345  24671286.440    24671284.000          39.000
        33.250
 120692374.892 7  94046000.40247  22966993.260    22966990.180          47.750
        42.500
 111117871.428 8  86585356.15748  21145026.300    21145023.900          51.500
        48.500
 125648464.068 7  97907900.43646  23910106.680    23910104.440          45.500
        37.500
 130568948.124 6 101742041.44345  24846446.120    24846444.700          40.500
        35.000
 134055570.119 6 104458880.83645  25509927.900    25509924.840          41.250
        33.000
 118371112.288 8  92237209.50947  22525273.260    22525268.680          49.000
        43.000
 124885498.136 7  97313355.43246  23764920.240    23764914.920          45.500
        37.000
 129504370.438 6 100912482.36545  24643863.040    24643859.780          40.000
        34.500
 112800523.474 8  87896496.67048  21465223.080    21465220.640          50.250
        48.250
 108287921.758 8  84380181.60948  20606502.400    20606498.740          51.250
        50.250
 10  6 20  0  4  0.0000000  0 11G14G12G30G04G32G16G02G23G20G29G31
 129767387.617 6 101117429.86645  24693914.500    24693912.100          39.000
        35.750
 120793063.931 8  94124459.39646  22986153.820    22986150.540          48.000
        41.500
 111163622.203 8  86621006.07948  21153732.440    21153730.000          51.500
        48.750
 125707017.920 7  97953526.82946  23921249.200    23921246.940          45.500
        37.500
 130668600.626 6 101819692.72445  24865409.100    24865407.900          40.500
        33.750
 133939989.292 6 104368817.83645  25487933.720    25487930.780          41.000
        30.500
 118373342.704 8  92238947.51647  22525697.660    22525693.060          49.000
        43.000
 124807969.158 7  97252943.22446  23750166.920    23750161.760          46.250
        36.500
 129575222.013 6 100967691.09245  24657345.760    24657342.440          40.500
        34.250
 112731189.692 8  87842470.34048  21452029.340    21452026.860          50.250
        48.000
 108271290.238 8  84367221.84648  20603337.520    20603333.880          51.250
        50.500
 10  6 20  0  4 30.0000000  0 11G14G12G30G04G32G16G02G23G20G29G31
 129886399.338 6 101210166.24144  24716561.460    24716559.160          39.000
        28.750
 120893999.263 8  94203110.27746  23005361.240    23005357.860          48.000
        41.750
 111209796.794 8  86656986.28148  21162519.220    21162516.780          51.500
        48.750
 125766047.263 7  97999523.72546  23932482.220    23932479.840          45.750
        36.750
 130768535.470 6 101897564.09945  24884426.120    24884424.760          40.250
        33.750
 133824430.700 6 104278772.17745  25465943.580    25465940.580          40.500
        34.250
 118376203.766 8  92241176.92547  22526242.160    22526237.440          49.250
        43.500
 124730876.424 7  97192870.92546  23735496.660    23735491.480          45.750
        38.500
 129646464.681 6 101023204.72646  24670902.960    24670899.800          41.250
        36.500
 112662352.196 8  87788830.72648  21438929.980    21438927.480          50.250
        48.250
 108255289.850 8  84354754.01348  20600292.760    20600289.180          51.250
        50.250
 10  6 20  0  5  0.0000000  0 12G14G12G30G04G32G16G02G23G20G29G31G13
 130005512.110 6 101302981.41745  24739227.880    24739225.440          39.250
        32.000
 120995182.874 8  94281954.66646  23024615.880    23024612.500          48.000
        41.250
 111256397.980 8  86693298.90548  21171387.160    21171384.700          51.500
        48.750
 125825553.577 7  98045892.29246  23943805.880    23943803.560          45.500
        38.000
 130868753.163 6 101975655.81445  24903496.820    24903495.320          40.250
        34.000
 133708899.806 6 104188748.13145  25443958.800    25443955.540          40.250
        34.500
 118379698.916 8  92243900.39747  22526907.360    22526902.640          49.250
        43.750
 124654226.240 7  97133143.45646  23720910.740    23720905.460          46.500
        37.500
 129718100.179 6 101079024.59146  24684534.740    24684531.680          41.750
        36.250
 112594016.695 8  87735582.25948  21425926.120    21425923.620          50.250
        48.250
 108239924.952 8  84342781.32648  20597368.900    20597365.340          51.250
        50.250
 135115694.891 6 105284929.03145  25711662.420    25711659.960          40.000
        30.250
 10  6 20  0  5 30.0000000  0 12G14G12G30G04G32G16G02G23G20G29G31G13
 130124719.621 6 101395870.39545  24761912.400    24761909.900          39.750
        32.750
 121096609.105 7  94360988.09446  23043916.720    23043913.320          47.750
        41.750
 111303420.955 8  86729940.19648  21180335.320    21180332.880          51.500
        48.500
 125885531.435 7  98092628.27946  23955219.300    23955216.980          45.500
        36.250
 130969246.781 6 102053962.54144  24922620.200    24922618.540          40.250
        28.500
 133593394.208 6 104098743.76745  25421978.720    25421975.560          40.000
        34.500
 118383824.658 8  92247115.28747  22527692.460    22527687.860          49.250
        43.750
 124578017.229 7  97073759.79146  23706408.740    23706403.360          46.500
        37.000
 129790121.675 6 101135145.19645  24698239.980    24698237.420          41.250
        34.750
 112526181.463 8  87682723.66648  21413017.480    21413014.980          50.250
        48.250
 108225192.794 8  84331301.80648  20594565.460    20594561.880          51.250
        50.250
 135008466.381 6 105201374.37645  25691257.720    25691255.560          41.500
        34.250
 10  6 20  0  6  0.0000000  0 12G14G12G30G04G32G16G02G23G20G29G31G13
 130244021.005 6 101488832.49445  24784614.780    24784612.320          40.000
        31.000
 121198278.145 7  94440210.70746  23063263.620    23063260.320          47.250
        41.500
 111350866.539 8  86766910.79748  21189363.860    21189361.480          51.500
        48.750
 125945980.818 7  98139731.69446  23966722.380    23966720.100          44.500
        37.500
 131070014.897 6 102132483.21345  24941795.900    24941794.220          40.250
        32.250
 133477917.487 6 104008761.88945  25400004.220    25400001.060          41.000
        33.500
 118388582.317 8  92250822.55247  22528597.820    22528593.300          49.250
        43.750
 124502253.791 7  97014723.31946  23691991.400    23691985.980          45.750
        37.750
 129862528.604 6 101191566.12645  24712018.580    24712015.920          41.250
        35.000
 112458850.259 8  87630257.86248  21400204.760    21400202.260          50.500
        48.250
 108211096.043 8  84320317.37248  20591882.920    20591879.320          51.250
        50.500
 134901411.954 7 105117955.36146  25670886.080    25670883.060          42.250
        36.250
 10  6 20  0  6 30.0000000  0 12G14G12G30G04G32G16G02G23G20G29G31G13
 130363414.546 6 101581866.38945  24807334.500    24807332.300          39.750
        35.250
 121300188.769 7  94519621.56646  23082656.440    23082653.300          47.000
        41.500
 111398734.723 8  86804210.70148  21198472.820    21198470.540          51.500
        48.500
 126006900.565 7  98187201.62746  23978314.940    23978312.780          45.000
        38.250
 131171055.274 6 102211215.97645  24961023.240    24961021.440          40.000
        32.250
 133362472.337 6 103918804.56945  25378035.700    25378032.560          41.250
        32.000
 118393973.208 8  92255023.24447  22529623.720    22529619.140          49.500
        43.750
 124426939.542 7  96956036.83846  23677659.620    23677654.180          46.500
        37.500
 129935320.307 6 101248287.03246  24725870.320    24725867.680          41.250
        36.250
 112392026.351 8  87578187.30348  21387488.560    21387486.080          50.500
        48.250
 108197636.307 8  84309829.28348  20589321.600    20589318.000          51.250
        50.500
 134794533.785 6 105034673.67245  25650547.780    25650544.720          41.250
        35.000
 10  6 20  0  7  0.0000000  0 12G14G12G30G04G32G16G02G23G20G29G31G13
 130482894.328 6 101674967.50245  24830070.660    24830068.560          40.000
        34.750
 121402336.122 7  94599216.88846  23102094.440    23102091.260          47.250
        41.500
 111447021.470 8  86841836.74448  21207661.460    21207659.160          51.500
        48.750
 126068285.751 7  98235034.23246  23989996.120    23989994.000          45.000
        38.500
 131272361.551 6 102290155.92646  24980301.080    24980299.640          39.750
        36.000
 133247056.994 6 103828870.50445  25356072.880    25356069.560          41.250
        31.500
 118399993.968 8  92259714.74647  22530769.520    22530764.800          49.250
        43.750
 124352073.860 7  96897699.90846  23663413.200    23663407.840          46.500
        37.500
 130008490.575 6 101305302.92845  24739793.980    24739791.140          40.750
        35.500
 112325708.273 8  87526510.90148  21374868.580    21374866.160          50.500
        48.500
 108184811.412 8  84299835.82948  20586881.080    20586877.500          51.250
        50.500
 134687829.893 6 104951527.83645  25630242.660    25630239.580          41.000
        32.000
 10  6 20  0  7 30.0000000  0 13G14G12G30G04G32G16G02G23G20G29G31G13
                                G10
 130602460.487 6 101768135.88245  24852823.280    24852821.100          40.250
        30.500
 121504720.767 7  94678997.12846  23121577.600    23121574.400          47.500
        41.500
 111495728.457 8  86879790.24948  21216930.080    21216927.800          51.500
        48.500
 126130137.083 7  98283230.07246  24001766.100    24001763.840          44.250
        38.750
 131373933.147 6 102369302.58945  24999629.500    24999627.720          39.750
        32.250
 133131675.901 6 103738963.17745  25334116.660    25334113.400          41.250
        31.750
 118406647.082 8  92264899.00547  22532035.640    22532030.800          49.250
        43.250
 124277661.957 7  96839716.56646  23649253.040    23649247.640          46.250
        36.500
 130082039.058 6 101362613.37545  24753789.940    24753786.960          39.500
        34.750
 112259900.660 8  87475232.25448  21362345.780    21362343.420          50.500
        48.750
 108172625.029 8  84290339.95148  20584562.080    20584558.480          51.250
        50.500
 134581309.118 7 104868524.61245  25609972.400    25609969.400          42.500
        33.750
 136461278.926 6 106333449.03743  25967717.600    25967708.700          37.750
        18.000
 10  6 20  0  8  0.0000000  0 13G14G12G30G04G32G16G02G23G20G29G31G13
                                G10
 130722108.950 6 101861368.44845  24875591.580    24875589.420          40.250
        32.000
 121607339.720 7  94758959.94547  23141105.400    23141102.120          47.250
        42.000
 111544853.144 8  86918069.22548  21226278.180    21226275.900          51.500
        48.500
 126192451.690 7  98331786.90746  24013624.260    24013621.900          45.000
        38.500
 131475765.526 6 102448652.42645  25019007.700    25019005.560          39.750
        32.000
 133016329.341 6 103649082.75145  25312166.900    25312163.920          41.250
        33.000
 118413930.737 8  92270574.59447  22533421.600    22533416.820          49.250
        43.500
 124203704.973 7  96782087.70746  23635179.580    23635174.080          46.000
        37.500
 130155962.446 6 101420215.86745  24767857.140    24767854.360          39.750
        32.500
 112194604.258 8  87424351.94148  21349920.320    21349917.960          50.500
        48.750
 108161076.405 8  84281341.02348  20582364.440    20582360.820          51.250
        50.500
 134474968.780 6 104785662.08545  25589736.460    25589733.600          40.500
        34.250
 136366988.400 6 106259974.78045  25949774.800    25949773.640          41.750
        31.000
 10  6 20  0  8 30.0000000  0 13G14G12G30G04G32G16G02G23G20G29G31G13
                                G10
 130841836.191 6 101954662.40344  24898374.920    24898373.160          40.500
        27.250
 121710190.451 7  94839103.36446  23160677.320    23160674.020          47.500
        41.000
 111594393.590 8  86956672.17748  21235705.420    21235703.120          51.500
        48.500
 126255226.433 7  98380702.27746  24025569.960    24025567.540          45.000
        36.500
 131577854.943 6 102528202.60245  25038434.720    25038432.800          39.750
        34.500
 132901018.277 6 103559230.02145  25290223.880    25290220.920          41.500
        33.750
 118421844.466 8  92276741.16347  22534927.520    22534922.740          49.250
        43.500
 124130204.702 7  96724814.76846  23621192.940    23621187.580          45.750
        38.000
 130230257.633 6 101478108.02645  24781995.260    24781992.160          41.000
        33.750
 112129820.165 8  87373870.84648  21337592.400    21337589.960          50.750
        49.000
 108150165.785 8  84272839.21948  20580288.240    20580284.620          51.250
        50.500
 134368815.203 6 104702944.99146  25569536.060    25569533.220          39.000
        36.000
 136272884.525 6 106186647.08145  25931867.740    25931865.700          37.750
        31.500
 10  6 20  0  9  0.0000000  0 13G14G12G30G04G32G16G02G23G20G29G31G13
                                G10
 130961639.486 6 102048015.55845  24921172.760    24921170.940          40.500
        33.250
 121813270.881 7  94919425.77846  23180292.940    23180289.400          47.250
        40.500
 111644348.977 8  86995598.45648  21245211.620    21245209.300          51.250
        48.500
 126318459.658 7  98429974.91846  24037602.840    24037600.440          44.500
        37.250
 131680198.080 6 102607950.43645  25057910.180    25057907.980          40.500
        33.750
 132785744.000 6 103469405.89945  25268287.980    25268284.880          41.500
        34.500
 118430387.764 8  92283398.30747  22536553.240    22536548.480          49.000
        43.250
 124057163.658 7  96667899.65146  23607293.680    23607288.440          45.500
        36.500
 130304921.287 6 101536286.76845  24796203.340    24796200.460          41.750
        34.000
 112065550.398 8  87323790.50648  21325362.340    21325359.840          50.500
        49.000
 108139893.699 8  84264834.92248  20578333.560    20578329.960          51.250
        50.500
 134262847.907 6 104620373.07445  25549371.080    25549368.420          37.000
        33.000
 136178970.212 5 106113467.16944  25913996.380    25913994.320          35.250
        28.750
 10  6 20  0  9 30.0000000  0 13G14G12G30G04G32G16G02G23G20G29G31G13
                                G10
 131081518.517 6 102141427.77344  24943985.140    24943982.760          40.500
        29.000
 121916581.552 7  94999927.59446  23199952.300    23199948.760          47.250
        40.750
 111694720.639 8  87034849.10048  21254797.040    21254794.760          51.250
        48.250
 126382151.468 7  98479604.90646  24049723.000    24049720.480          44.250
        37.250
 131782794.069 6 102687895.32145  25077433.580    25077431.640          41.250
        33.750
 132670511.015 6 103379613.95244  25246359.820    25246356.680          41.500
        29.750
 118439562.922 8  92290547.80147  22538299.040    22538294.460          49.000
        43.250
 123984586.737 7  96611346.22046  23593482.780    23593477.420          46.000
        37.250
 130379955.629 6 101594755.14846  24810482.080    24810479.280          41.250
        36.500
 112001799.075 8  87274114.16848  21313230.840    21313228.340          50.500
        49.000
 108130263.626 8  84257330.96348  20576501.060    20576497.480          51.250
        50.500
 134157073.039 5 104537951.14345  25529242.820    25529240.020          34.750
        34.250
 136085250.230 6 106040438.61644  25896161.680    25896159.340          41.500
        29.750
 10  6 20  0 10  0.0000000  0 13G14G12G30G04G32G16G02G23G20G29G31G13
                                G10
 131201467.570 6 102234894.58945  24966810.740    24966808.180          39.250
        33.250
 122020117.427 7  95080604.90846  23219654.540    23219651.040          47.500
        41.000
 111745504.471 8  87074420.91948  21264460.920    21264458.560          51.500
        48.250
 126446296.825 7  98529588.30346  24061929.460    24061927.000          44.500
        37.000
 131885636.556 6 102768032.30345  25097003.880    25097001.820          41.000
        32.000
 132555317.329 6 103289852.68645  25224439.160    25224436.220          41.000
        34.500
 118449366.590 8  92298187.02147  22540164.520    22540160.060          49.250
        43.500
 123912473.162 7  96555153.83446  23579760.120    23579754.720          46.250
        37.250
 130455352.700 6 101653505.74843  24824829.880    24824827.020          37.250
        23.250
 111938564.784 8  87224840.69148  21301197.720    21301195.240          50.500
        49.000
 108121272.922 8  84250325.22448  20574790.220    20574786.600          51.250
        50.500
 134051490.165 5 104455678.88745  25509150.900    25509148.160          32.750
        30.250
 135991724.462 6 105967561.42645  25878364.180    25878362.520          40.500
        31.750
 10  6 20  0 10 30.0000000  0 13G14G12G30G04G32G16G02G23G20G29G31G13
                                G10
 131321485.160 6 102328414.75446  24989649.300    24989647.000          37.250
        37.250
 122123878.060 7  95161457.35546  23239399.580    23239396.120          47.250
        41.750
 111796700.558 8  87114313.96648  21274203.200    21274200.780          51.250
        48.000
 126510895.036 7  98579924.58846  24074222.040    24074219.640          43.000
        38.000
 131988723.646 6 102848359.86745  25116620.640    25116618.720          40.500
        30.250
 132440165.968 6 103200124.38945  25202526.660    25202523.500          40.500
        33.250
 118459799.504 8  92306316.57447  22542149.900    22542145.300          49.250
        43.500
 123840826.505 7  96499325.29046  23566126.240    23566120.660          46.000
        36.250
 130531112.134 6 101712538.73145  24839246.640    24839243.560          40.000
        35.000
 111875850.888 8  87175972.69648  21289263.640    21289261.160          50.500
        49.000
 108112923.380 8  84243819.10648  20573201.360    20573197.720          51.250
        50.500
 133946103.022 5 104373559.10545  25489096.320    25489093.560          34.000
        34.750
 135898396.837 6 105894838.64745  25860604.480    25860603.240          40.500
        33.000
 10  6 20  0 11  0.0000000  0 13G14G12G30G04G32G16G02G23G20G29G31G13
                                G10
 131441569.258 6 102421986.78745  25012500.560    25012498.540          37.500
        32.000
 122227862.248 7  95242483.98346  23259187.100    23259183.760          47.250
        41.500
 111848308.782 8  87154528.18148  21284023.900    21284021.480          51.250
        48.000
 126575944.908 7  98630612.78346  24086600.560    24086598.160          42.750
        38.000
 132092053.059 6 102928876.28544  25136283.500    25136282.180          40.500
        29.750
 132325059.815 6 103110431.34745  25180622.520    25180619.180          41.500
        35.250
 118470862.260 8  92314936.88747  22544255.120    22544250.400          49.250
        43.500
 123769650.413 7  96443863.38646  23552581.880    23552576.140          46.250
        36.750
 130607234.437 6 101771855.56645  24853732.300    24853729.140          41.000
        33.500
 111813660.284 8  87127512.48248  21277429.160    21277426.680          50.500
        48.750
 108105216.532 8  84237813.76548  20571734.820    20571731.180          51.250
        50.500
 133840915.762 6 104291594.96845  25469079.940    25469076.880          38.000
        32.500
 135805270.840 6 105822272.91645  25842883.260    25842881.700          40.000
        33.500
 10  6 20  0 11 30.0000000  0 13G14G12G30G04G32G16G02G23G20G29G31G13
                                G10
 131561715.730 6 102515607.38245  25035363.800    25035361.800          38.000
        34.750
 122332066.554 7  95323682.11646  23279016.520    23279013.120          47.250
        40.500
 111900326.324 8  87195061.32648  21293922.500    21293920.100          51.250
        48.000
 126641442.706 7  98681650.00446  24099064.240    24099062.080          42.000
        36.500
 132195619.947 6 103009577.74844  25155991.580    25155990.680          40.000
        29.000
 132209998.396 6 103020773.08446  25158727.000    25158723.600          40.500
        36.000
 118482553.069 8  92324046.59647  22546479.880    22546475.140          49.250
        43.500
 123698945.400 7  96388768.60046  23539127.120    23539121.560          45.750
        36.250
 130683712.865 6 101831449.55445  24868285.560    24868282.740          40.250
        35.750
 111751992.732 8  87079459.82448  21265694.180    21265691.700          50.500
        49.000
 108098151.641 8  84232308.68048  20570390.420    20570386.820          51.250
        50.750
 133735929.034 6 104209787.05744  25449101.860    25449098.420          38.500
        25.500
 135712347.656 7 105749865.28345  25825200.480    25825198.540          42.000
        31.250
 10  6 20  0 12  0.0000000  0 13G14G12G30G04G32G16G02G23G20G29G31G13
                                G10
 131681923.111 6 102609275.50745  25058238.480    25058236.440          38.250
        33.000
 122436490.299 7  95405051.27046  23298887.760    23298884.260          47.000
        41.000
 111952753.311 8  87235913.51248  21303899.060    21303896.600          51.250
        48.000
 126707387.697 7  98733035.68646  24111612.980    24111611.100          42.750
        37.000
 132299422.255 6 103090462.66944  25175744.500    25175743.020          38.500
        28.750
 132094984.832 6 102931152.06445  25136840.700    25136837.660          41.000
        31.500
 118494872.517 8  92333646.19747  22548824.180    22548819.580          49.250
        43.500
 123628715.196 7  96334043.77646  23525762.640    23525757.320          45.750
        36.000
 130760546.040 6 101891319.81945  24882906.160    24882903.260          40.500
        33.500
 111690851.453 8  87031817.26948  21254059.340    21254056.900          50.500
        48.750
 108091730.193 8  84227304.95248  20569168.440    20569164.860          51.250
        50.500
 133631147.006 6 104128138.68044  25429162.540    25429159.300          38.500
        28.500
 135619631.152 6 105677618.65545  25807557.020    25807554.840          40.500
        34.500
 10  6 20  0 12 30.0000000  0 13G14G12G30G04G32G16G02G23G20G29G31G13
                                G10
 131802188.100 6 102702988.52344  25081124.080    25081121.800          38.500
        29.000
 122541131.143 7  95486589.59246  23318800.220    23318796.780          46.250
        41.250
 112005588.139 8  87277083.50648  21313953.180    21313950.760          51.250
        48.000
 126773777.313 7  98784767.85745  24124246.480    24124244.560          44.250
        35.000
 132403456.226 6 103171528.09745  25195541.520    25195539.620          37.750
        33.000
 131980020.030 6 102841569.05845  25114963.700    25114960.620          40.000
        32.500
 118507819.723 8  92343734.95847  22551287.980    22551283.320          49.250
        43.750
 123558961.492 7  96279690.25246  23512488.840    23512483.780          45.750
        38.000
 130837731.194 6 101951464.29945  24897593.720    24897591.000          41.500
        32.750
 111630237.751 8  86984585.81748  21242524.940    21242522.480          50.500
        49.000
 108085952.389 8  84222802.78848  20568068.980    20568065.360          51.500
        50.500
 133526571.837 6 104046651.57644  25409262.580    25409259.240          39.750
        29.250
 135527124.030 6 105605535.19445  25789953.520    25789951.240          41.000
        32.000
 10  6 20  0 13  0.0000000  0 13G14G12G30G04G32G16G02G23G20G29G31G13
                                G10
 131922513.961 6 102796754.71244  25104019.620    25104017.440          38.750
        27.500
 122645985.052 7  95568293.91746  23338753.120    23338749.880          46.250
        41.000
 112058827.687 8  87318568.86748  21324084.280    21324081.920          51.250
        48.250
 126840607.300 7  98836843.20246  24136963.900    24136961.740          43.750
        36.250
 132507716.566 6 103252769.98644  25215381.620    25215379.340          36.500
        26.250
 131865103.776 6 102752023.97045  25093095.720    25093092.620          39.750
        33.500
 118521392.030 8  92354310.81447  22553870.720    22553865.940          49.500
        43.000
 123489684.680 7  96225708.29246  23499305.980    23499300.780          45.750
        36.250
 130915263.795 6 102011879.37945  24912347.440    24912344.760          40.500
        30.750
 111570151.252 8  86937765.18748  21231090.840    21231088.360          50.500
        49.000
 108080816.388 8  84218800.70148  20567091.620    20567087.960          51.500
        50.750
 133422204.021 6 103965325.94644  25389402.100    25389399.060          39.500
        24.500
 135434825.996 6 105533614.66245  25772389.740    25772387.720          41.250
        33.500
 10  6 20  0 13 30.0000000  0 13G14G12G30G04G32G16G02G23G20G29G31G13
                                G10
 132042884.916 6 102890550.22645  25126925.460    25126923.360          38.750
        30.750
 122751053.085 7  95650165.09546  23358746.800    23358743.640          46.500
        39.500
 112112473.677 8  87360370.93548  21334292.720    21334290.420          51.250
        48.000
 126907878.469 7  98889262.28745  24149765.340    24149762.940          44.000
        35.500
 132612202.967 6 103334187.94745  25235264.800    25235262.620          38.250
        31.750
 131750240.501 6 102662520.14645  25071238.080    25071234.780          40.750
        35.000
 118535591.963 8  92365375.73047  22556572.880    22556567.940          49.000
        43.250
 123420889.976 7  96172102.03346  23486214.660    23486209.580          46.000
        36.750
 130993144.183 6 102072565.49045  24927167.540    24927164.920          39.250
        31.750
 111510596.561 8  86891358.93448  21219757.960    21219755.480          50.750
        49.000
 108076325.879 8  84215301.61748  20566237.120    20566233.440          51.250
        50.500
 133318049.607 6 103884166.64245  25369582.140    25369578.760          36.500
        32.500
 135342743.373 6 105461861.98345  25754866.920    25754864.820          41.750
        34.500
 10  6 20  0 14  0.0000000  0 13G14G12G30G04G32G16G02G23G20G29G31G13
                                G10
 132163306.358 6 102984385.13845  25149840.900    25149839.420          38.250
        31.000
 122856333.099 7  95732201.47246  23378780.840    23378777.780          46.750
        39.750
 112166524.901 8  87402488.76648  21344578.380    21344576.040          51.250
        48.000
 126975588.740 7  98942023.53645  24162650.140    24162647.880          43.250
        34.250
 132716912.239 6 103415779.55145  25255190.260    25255188.160          38.750
        33.750
 131635431.723 6 102573058.67945  25049390.560    25049387.660          39.750
        35.500
 118550419.080 8  92376929.35647  22559394.320    22559389.320          49.250
        43.250
 123352579.793 7  96118873.30546  23473215.680    23473210.640          46.250
        38.000
 131071369.908 6 102133520.71745  24942053.260    24942050.340          40.750
        34.000
 111451575.544 8  86845368.53648  21208526.640    21208524.220          50.500
        49.250
 108072481.363 8  84212305.88648  20565505.520    20565501.820          51.250
        50.500
 133214111.127 5 103803175.67046  25349803.340    25349800.400          34.500
        36.750
 135250879.133 7 105390279.51245  25737385.840    25737383.400          42.500
        31.500
 10  6 20  0 14 30.0000000  0 12G14G12G30G04G32G16G02G23G20G29G31G10
 132283772.775 6 103078255.02545  25172764.780    25172763.380          38.000
        32.750
 122961820.703 7  95814399.60646  23398854.460    23398851.480          46.750
        39.500
 112220977.403 8  87444919.27948  21354940.380    21354938.040          51.250
        48.000
 127043733.152 7  98995123.07045  24175617.400    24175615.220          43.500
        35.750
 132821838.518 6 103497540.38846  25275157.020    25275155.060          39.250
        36.750
 131520676.560 6 102483639.09545  25027553.480    25027550.520          40.500
        34.000
 118565869.993 8  92388969.04547  22562334.460    22562329.500          49.000
        43.250
 123284753.657 7  96066021.75046  23460308.800    23460303.660          46.500
        37.750
 131149935.342 6 102194740.54645  24957003.760    24957001.000          40.750
        32.000
 111393087.097 8  86799793.12848  21197396.640    21197394.240          50.750
        49.250
 108069280.445 8  84209811.66248  20564896.400    20564892.680          51.500
        50.500
 135159233.327 7 105318867.19445  25719946.380    25719944.000          42.500
        33.000
 10  6 20  0 15  0.0000000  0 13G14G12G30G04G32G16G02G23G20G29G31G13
                                G10
 132404285.200 6 103172160.88445  25195697.600    25195695.940          38.000
        31.500
 123067517.622 7  95896760.84646  23418967.940    23418964.880          46.500
        40.000
 112275833.882 8  87487664.58648  21365379.220    21365376.900          51.250
        48.000
 127112313.283 7  99048562.15445  24188667.820    24188665.660          43.500
        35.750
 132926982.293 6 103579470.62845  25295165.060    25295163.600          40.000
        32.750
 131405980.327 6 102394265.42145  25005727.500    25005724.580          40.750
        33.750
 118581947.911 8  92401497.28847  22565393.920    22565389.020          48.750
        43.250
 123217417.672 7  96013552.13946  23447495.300    23447490.060          46.500
        38.000
 131228841.833 6 102256226.02345  24972019.020    24972016.040          38.750
        30.500
 111335136.594 8  86754636.91748  21186369.020    21186366.640          50.750
        49.000
 108066727.527 8  84207822.37248  20564410.600    20564406.860          51.250
        50.500
 133006891.763 5 103641723.77043  25310370.000    25310367.740          35.750
        21.500
 135067811.948 6 105247629.78845  25702549.500    25702547.140          39.500
        34.750
 10  6 20  0 15 30.0000000  0 13G14G12G30G04G32G16G02G23G20G29G31G13
                                G10
 132524835.772 6 103266096.46644  25218637.820    25218635.840          38.250
        29.500
 123173416.934 7  95979279.80746  23439120.000    23439116.800          46.750
        41.000
 112331087.958 8  87530719.71447  21375893.720    21375891.400          51.250
        47.750
 127181322.022 7  99102335.18745  24201799.820    24201797.720          44.250
        34.000
 133032335.291 6 103661563.79445  25315213.220    25315211.660          41.000
        31.000
 131291339.360 6 102304934.75545  24983911.980    24983909.400          40.000
        34.500
 118598647.268 8  92414509.76647  22568571.600    22568566.960          49.000
        43.000
 123150569.065 7  95961462.32146  23434774.420    23434769.240          46.500
        38.750
 131308081.659 6 102317971.23545  24987098.040    24987095.040          40.250
        33.000
 111277720.552 8  86709897.15648  21175443.120    21175440.700          50.750
        49.250
 108064817.711 8  84206334.19348  20564047.140    20564043.460          51.250
        50.500
 132903612.125 6 103561246.20644  25290716.460    25290714.480          38.250
        29.000
 134976612.605 6 105176565.42645  25685194.720    25685192.580          40.000
        33.250
 10  6 20  0 16  0.0000000  0 13G14G12G30G04G32G16G02G23G20G29G31G13
                                G10
 132645425.191 6 103360062.25345  25241585.180    25241583.140          38.500
        31.500
 123279520.076 7  96061957.60046  23459310.880    23459307.520          46.500
        40.000
 112386741.692 8  87574086.27847  21386484.280    21386481.880          51.000
        47.500
 127250760.498 7  99156443.09646  24215013.660    24215011.460          43.500
        37.250
 133137897.755 6 103743820.37245  25335301.180    25335299.560          41.000
        32.000
 131176758.549 6 102215650.99646  24962108.160    24962105.420          39.750
        36.500
 118615970.571 8  92428008.45247  22571868.120    22571863.520          49.000
        43.250
 123084213.506 7  95909756.69746  23422147.440    23422142.200          46.000
        38.750
 131387655.745 6 102379977.00245  25002240.360    25002237.480          39.750
        33.500
 111220844.039 8  86665577.81048  21164619.880    21164617.420          50.750
        49.250
 108063554.826 8  84205350.11948  20563806.780    20563803.140          51.250
        50.500
 132800558.841 6 103480944.92345  25271106.160    25271104.220          37.250
        33.750
 134885641.717 6 105105679.03245  25667883.400    25667881.400          41.500
        31.500
 10  6 20  0 16 30.0000000  0 13G14G12G30G04G32G16G02G23G20G29G31G13
                                G10
 132766050.647 6 103454056.13645  25264539.540    25264537.360          38.500
        32.500
 123385824.750 7  96144792.42246  23479539.980    23479536.600          46.250
        39.750
 112442793.748 8  87617763.21147  21397150.640    21397148.240          51.250
        47.750
 127320626.158 7  99210883.87445  24228308.680    24228306.240          43.000
        35.750
 133243665.962 6 103826237.20543  25355428.060    25355426.940          37.500
        23.750
 131062239.418 6 102126415.29345  24940315.960    24940312.900          40.000
        31.750
 118633917.066 8  92441992.76747  22575283.180    22575278.560          48.750
        43.000
 123018352.672 7  95858436.55646  23409614.440    23409609.300          46.250
        39.250
 131467560.099 6 102442239.71545  25017445.800    25017443.000          39.000
        34.250
 111164508.412 8  86621679.92448  21153899.540    21153897.100          50.750
        49.250
 108062938.805 8  84204870.09248  20563689.540    20563685.920          51.250
        50.500
 132697734.195 6 103400821.85945  25251539.060    25251537.300          37.000
        33.500
 134794901.650 6 105034972.51145  25650616.140    25650614.140          40.750
        34.250
 10  6 20  0 17  0.0000000  0 13G14G12G30G04G32G16G02G23G20G29G31G13
                                G10
 132886709.750 6 103548076.24146  25287500.100    25287497.900          38.500
        36.000
 123492329.463 7  96227783.11146  23499807.100    23499803.840          45.750
        40.750
 112499243.331 8  87661749.90347  21407892.680    21407890.240          51.250
        47.750
 127390917.110 7  99265656.05346  24241684.440    24241682.160          42.500
        36.500
 133349637.268 6 103908812.19245  25375593.620    25375592.360          36.750
        34.500
 130947784.301 6 102037229.49445  24918535.880    24918532.720          40.000
        33.750
 118652486.244 8  92456462.26647  22578816.700    22578812.140          48.750
        43.250
 122952989.119 7  95807503.83646  23397176.200    23397171.100          46.500
        38.750
 131547793.628 6 102504759.13145  25032713.980    25032710.860          40.000
        30.500
 111108715.550 8  86578204.97148  21143282.480    21143280.080          50.750
        49.250
 108062970.214 8  84204894.56048  20563695.540    20563691.960          51.250
        50.750
 132595141.441 6 103320879.47243  25232016.360    25232014.100          38.500
        22.500
 134704395.270 7 104964448.08645  25633393.340    25633391.080          42.000
        30.250
 10  6 20  0 17 30.0000000  0 13G14G12G30G04G32G16G02G23G20G29G31G13
                                G10
 133007398.472 6 103642119.35545  25310466.400    25310464.140          38.250
        34.750
 123599031.224 7  96310927.34346  23520111.700    23520108.620          45.750
        41.250
 112556088.237 8  87706044.63747  21418709.820    21418707.500          51.000
        47.500
 127461630.244 7  99320757.19945  24255140.580    24255138.460          43.000
        33.250
 133455807.555 6 103991542.44445  25395797.180    25395795.120          37.000
        34.250
 130833393.428 6 101948093.68945  24896767.980    24896765.120          40.250
        33.750
 118671676.598 8  92471415.80747  22582468.460    22582463.980          48.750
        43.250
 122888124.327 7  95756959.76946  23384832.960    23384827.660          46.000
        39.250
 131628353.043 6 102567532.73444  25048044.060    25048041.260          38.750
        29.250
 111053466.146 8  86535153.49248  21132768.920    21132766.440          50.750
        49.250
 108063648.613 8  84205423.18148  20563824.640    20563821.080          51.250
        50.750
 132492782.305 6 103241119.07345  25212538.120    25212535.620          39.500
        30.750
 134614124.675 6 104894107.34245  25616215.480    25616213.080          41.750
        31.500
 10  6 20  0 18  0.0000000  0 13G14G12G30G04G32G16G02G23G20G29G31G13
                                G10
 133128115.528 6 103736184.58245  25333437.900    25333435.560          37.250
        33.000
 123705929.311 7  96394224.53746  23540453.640    23540450.680          45.500
        41.000
 112613328.094 8  87750647.11747  21429602.180    21429599.840          51.000
        47.500
 127532764.062 7  99376186.15846  24268676.980    24268674.820          43.250
        36.000
 133562174.492 6 104074425.80344  25416038.200    25416036.440          37.750
        28.500
 130719069.408 6 101859009.98845  24875012.980    24875009.860          40.000
        34.500
 118691488.166 8  92486853.41747  22586238.440    22586233.960          48.750
        43.000
 122823761.241 7  95706806.70246  23372585.000    23372579.920          45.500
        40.000
 131709235.365 6 102630557.68045  25063435.560    25063432.600          39.500
        33.250
 110998762.336 8  86492527.12848  21122359.180    21122356.620          50.750
        49.500
 108064974.931 8  84206456.67648  20564077.000    20564073.480          51.250
        50.500
 132390660.299 6 103161543.48444  25193105.020    25193102.180          40.000
        26.500
 134524093.261 6 104823953.01645  25599083.100    25599080.620          40.500
        35.250
 10  6 20  0 18 30.0000000  0 13G14G12G30G04G32G16G02G23G20G29G31G13
                                G10
 133248857.627 6 103830269.32245  25356414.340    25356411.980          37.500
        33.250
 123813021.300 7  96477672.83046  23560832.560    23560829.640          45.500
        41.250
 112670961.137 8  87795555.97347  21440569.360    21440567.060          51.000
        47.500
 127604316.370 7  99431941.20346  24282293.060    24282290.880          44.250
        37.000
 133668734.656 6 104157459.67944  25436315.780    25436313.280          38.500
        26.000
 130604813.636 6 101769979.51145  24853270.800    24853268.040          40.000
        32.250
 118711919.917 8  92502774.29347  22590126.520    22590121.940          48.750
        43.250
 122759902.053 7  95657046.34946  23360432.960    23360427.940          47.000
        38.250
 131790438.078 6 102693832.29044  25078887.980    25078885.220          38.500
        29.000
 110944605.814 8  86450327.23848  21112053.560    21112050.980          51.000
        49.500
 108066949.293 8  84207995.14348  20564452.720    20564449.180          51.250
        50.750
 132288778.049 6 103082154.70445  25173717.520    25173714.240          40.750
        31.750
 134434303.652 6 104753987.10745  25581996.620    25581994.200          41.500
        32.750
 10  6 20  0 19  0.0000000  0 13G14G12G30G04G32G16G02G23G20G29G31G13
                                G10
 133369622.496 6 103924371.82545  25379395.280    25379392.440          37.500
        34.750
 123920305.091 7  96561270.56246  23581248.020    23581245.060          45.500
        41.500
 112728986.314 8  87840770.40547  21451611.180    21451608.880          51.000
        47.500
 127676284.775 7  99488020.47546  24295988.260    24295986.080          43.500
        36.500
 133775485.079 5 104240633.85843  25456629.600    25456627.460          33.750
        18.750
 130490627.859 6 101681003.52945  24831541.980    24831539.240          41.000
        30.500
 118732970.919 8  92519177.68647  22594132.520    22594127.800          48.750
        43.500
 122696548.672 7  95607680.12646  23348377.240    23348372.060          46.500
        38.500
 131871958.796 6 102757354.82245  25094401.180    25094398.180          39.500
        33.500
 110890997.986 8  86408554.91748  21101852.340    21101849.720          50.750
        49.500
 108069571.928 8  84210038.75648  20564951.780    20564948.240          51.250
        50.500
 132187138.435 6 103002954.97644  25154376.120    25154372.640          39.500
        24.750
 134344758.126 6 104684211.36045  25564956.600    25564954.280          41.250
        33.750
 10  6 20  0 19 30.0000000  0 13G14G12G30G04G32G16G02G23G20G29G31G13
                                G10
 133490403.934 6 104018487.24645  25402379.280    25402376.520          37.000
        31.250
 124027775.677 7  96645013.85946  23601699.080    23601696.020          45.500
        41.500
 112787399.191 8  87886286.92947  21462726.800    21462724.480          51.250
        47.500
 127748663.500 7  99544419.46246  24309761.540    24309759.120          44.000
        36.250
 133882419.120 5 104323958.99944  25476978.440    25476976.420          30.250
        27.000
 130376510.633 6 101592081.15745  24809826.260    24809823.560          41.750
        34.750
 118754637.428 8  92536060.69647  22598255.480    22598250.780          48.500
        43.250
 122633699.854 7  95558707.06546  23336417.420    23336412.500          47.000
        38.750
 131953791.326 6 102821120.27945  25109973.520    25109970.440          39.000
        33.500
 110837936.963 8  86367208.67148  21091755.100    21091752.540          50.750
        49.500
 108072839.557 8  84212584.95748  20565573.620    20565570.020          51.250
        50.500
 132085740.931 6 102923943.93845  25135080.920    25135077.920          39.750
        31.250
 134255456.216 6 104614625.49745  25547962.980    25547960.860          41.750
        32.750
 10  6 20  0 20  0.0000000  0 13G14G12G30G04G32G16G02G23G20G29G31G13
                                G10
 133611205.352 6 104112618.23645  25425367.020    25425364.940          36.500
        32.000
 124135437.378 7  96728906.08846  23622186.500    23622183.340          45.750
        40.750
 112846204.757 8  87932109.44547  21473917.180    21473914.880          51.000
        47.500
 127821456.501 7  99601141.29346  24323613.460    24323611.260          43.000
        37.000
 133989546.050 6 104407440.07445  25497363.080    25497362.240          37.000
        35.250
 130262469.230 6 101503217.83645  24788124.960    24788122.140          40.500
        30.000
 118776924.265 8  92553427.05847  22602496.380    22602491.800          48.500
        43.250
 122571363.916 7  95510133.63646  23324555.300    23324550.340          46.750
        38.750
 132035939.133 6 102885131.45645  25125605.860    25125602.960          38.750
        34.000
 110785430.503 8  86326294.57848  21081763.420    21081760.920          51.000
        49.500
 108076758.901 8  84215638.98648  20566319.520    20566315.860          51.250
        50.500
 131984594.176 6 102845128.33645  25115833.240    25115830.480          39.500
        30.500
 134166407.073 7 104545236.54245  25531017.460    25531015.320          43.000
        32.250
 10  6 20  0 20 30.0000000  0 12G14G12G30G04G16G02G23G20G29G31G13G10
 133732020.136 6 104206759.60745  25448357.340    25448354.920          36.000
        32.750
 124243284.093 7  96812942.48746  23642709.040    23642705.960          46.000
        40.000
 112905397.552 8  87978233.71047  21485181.220    21485178.920          51.000
        47.500
 127894657.600 7  99658181.09845  24337543.220    24337541.060          42.750
        34.500
 130148501.205 6 101414411.63045  24766437.480    24766434.560          41.000
        34.500
 118799826.673 8  92571273.08347  22606854.480    22606849.880          48.750
        43.250
 122509539.125 7  95461958.47746  23312790.440    23312785.320          47.000
        38.750
 132118395.584 6 102949383.23445  25141296.960    25141294.120          39.000
        31.500
 110733475.883 8  86285810.46648  21071876.740    21071874.320          50.750
        49.500
 108081325.567 8  84219197.40448  20567188.540    20567184.900          51.250
        50.500
 131883697.003 6 102766507.21144  25096633.040    25096630.500          41.000
        29.750
 134077609.362 6 104476043.50545  25514119.880    25514117.560          41.750
        32.500
 10  6 20  0 21  0.0000000  0 11G12G30G04G16G02G23G20G29G31G13G10
 124351314.200 7  96897121.80046  23663266.500    23663263.300          46.000
        38.750
 112964976.399 8  88024658.79947  21496518.720    21496516.340          51.000
        47.500
 127968264.535 7  99715537.15345  24351550.060    24351547.940          42.750
        31.500
 130034608.501 6 101325664.09545  24744764.320    24744761.220          40.250
        34.000
 118823344.266 8  92589598.47147  22611329.780    22611325.200          48.750
        42.750
 122448227.710 7  95414183.37046  23301123.300    23301118.100          47.000
        39.000
 132201158.031 6 103013873.34445  25157046.180    25157043.720          38.500
        33.500
 110682074.907 8  86245757.77448  21062095.440    21062093.000          50.750
        49.750
 108086540.115 8  84223260.66648  20568180.820    20568177.180          51.250
        50.500
 131783052.848 6 102688083.15344  25077481.300    25077478.440          41.000
        28.750
 133989065.882 7 104407048.60445  25497270.540    25497268.400          42.000
        34.500
 10  6 20  0 21 30.0000000  0 11G12G30G04G16G02G23G20G29G31G13G10
 124459527.961 7  96981444.20746  23683858.920    23683855.500          45.750
        38.250
 113024942.281 8  88071385.46947  21507929.820    21507927.420          51.000
        47.250
 128042277.277 7  99773209.43445  24365634.060    24365631.980          42.750
        35.500
 129920794.667 6 101236977.72445  24723106.340    24723103.060          41.250
        35.250
 118847478.071 8  92608404.02847  22615922.360    22615917.760          48.750
        43.000
 122387434.078 7  95366811.72746  23289554.660    23289549.420          47.250
        38.250
 132284225.938 6 103078601.55845  25172853.600    25172851.060          40.000
        33.750
 110631231.128 8  86206139.24548  21052420.200    21052417.720          51.000
        49.500
 108092404.971 8  84227830.66348  20569296.840    20569293.220          51.250
        50.500
 131682666.139 6 102609859.78745  25058378.280    25058375.300          40.250
        33.250
 133900781.559 7 104338255.61145  25480470.620    25480468.440          42.250
        34.000
 10  6 20  0 22  0.0000000  0 11G12G30G04G16G02G23G20G29G31G13G10
 124567920.081 7  97065905.61546  23704485.300    23704481.740          46.250
        38.750
 113085290.494 8  88118410.05647  21519413.700    21519411.280          51.000
        47.250
 128116690.066 7  99831193.43845  24379794.440    24379792.300          44.250
        34.250
 129807058.854 6 101148352.31745  24701463.180    24701460.020          40.000
        32.500
 118872223.978 8  92627686.53247  22620631.520    22620626.760          49.250
        42.750
 122327156.763 7  95319842.41846  23278084.300    23278079.100          47.000
        39.000
 132367593.515 6 103143563.35845  25188717.880    25188714.880          39.250
        31.000
 110580942.375 8  86166953.19748  21042850.600    21042848.080          50.750
        49.750
 108098916.448 8  84232904.51348  20570535.920    20570532.400          51.250
        50.500
 131582535.837 6 102531836.14044  25039323.920    25039321.300          40.500
        29.250
 133812755.540 7 104269663.89745  25463719.900    25463717.460          42.250
        31.750
 10  6 20  0 22 30.0000000  0 11G12G30G04G16G02G23G20G29G31G13G10
 124676492.619 7  97150507.59546  23725146.080    23725142.560          46.250
        39.000
 113146023.984 8  88165734.85647  21530970.880    21530968.480          51.000
        47.250
 128191504.800 7  99889490.67545  24394031.200    24394029.020          43.500
        35.500
 129693406.126 6 101059791.80045  24679835.720    24679832.740          40.500
        32.500
 118897585.068 8  92647448.41047  22625457.640    22625452.800          48.750
        43.000
 122267402.060 7  95273280.30346  23266713.300    23266708.000          47.500
        38.000
 132451262.088 6 103208759.86344  25204639.400    25204636.280          38.500
        26.750
 110531214.647 8  86128204.32348  21033387.740    21033385.240          51.000
        49.500
 108106078.880 8  84238485.59848  20571898.940    20571895.440          51.250
        50.500
 131482669.434 7 102454018.21344  25020319.980    25020317.040          42.250
        28.750
 133724995.103 6 104201279.19245  25447019.700    25447017.220          41.500
        33.000
 10  6 20  0 23  0.0000000  0 11G12G30G04G16G02G23G20G29G31G13G10
 124785241.200 7  97235246.74946  23745840.280    23745836.880          45.000
        39.750
 113207138.715 8  88213356.72447  21542600.540    21542598.300          51.000
        47.500
 128266716.613 7  99948097.27346  24408343.740    24408341.460          43.750
        37.250
 129579836.105 6 100971295.74045  24658224.040    24658221.000          41.000
        33.750
 118923557.613 8  92667686.75947  22630400.040    22630395.240          49.000
        42.750
 122208168.992 7  95227124.67846  23255441.600    23255436.220          47.250
        39.000
 132535226.117 6 103274186.60745  25220617.080    25220613.820          38.500
        30.250
 110482046.459 8  86089891.45148  21024031.340    21024028.860          51.000
        49.750
 108113889.939 8  84244572.15848  20573385.360    20573381.820          51.250
        50.500
 131383066.848 6 102376405.80844  25001366.260    25001363.400          40.750
        24.250
 133637499.992 6 104133101.19145  25430370.000    25430367.620          41.250
        34.000
 10  6 20  0 23 30.0000000  0 11G12G30G04G16G02G23G20G29G31G13G10
 124894165.915 7  97320123.11546  23766567.820    23766564.580          44.250
        39.000
 113268635.397 8  88261276.20647  21554302.980    21554300.740          51.000
        47.250
 128342324.796 7 100007012.72146  24422731.460    24422729.280          42.750
        37.750
 129466351.769 6 100882866.41745  24636628.800    24636625.620          41.750
        31.500
 118950142.670 8  92688402.39847  22635459.020    22635454.180          48.750
        43.000
 122149462.004 7  95181379.00146  23244269.960    23244264.660          47.500
        39.000
 132619485.104 6 103339843.28344  25236650.860    25236648.120          37.250
        29.500
 110433440.989 8  86052017.06548  21014782.020    21014779.580          51.000
        49.750
 108122351.308 8  84251165.44348  20574995.540    20574991.940          51.250
        50.500
 131283733.206 7 102299002.96045  24982463.840    24982460.680          42.250
        34.250
 133550274.955 6 104065133.64945  25413771.660    25413769.300          41.750
        33.250
 10  6 20  0 24  0.0000000  0 11G12G30G04G16G02G23G20G29G31G13G10
 125003262.290 7  97405133.26646  23787328.040    23787324.960          44.250
        40.250
 113330510.042 8  88309490.20847  21566077.400    21566075.060          51.000
        46.750
 128418324.551 6 100066233.26645  24437193.540    24437191.560          41.000
        35.750
 129352952.941 6 100794503.83145  24615049.760    24615046.700          41.250
        35.750
 118977336.446 8  92709592.36147  22640633.820    22640629.060          48.750
        43.250
 122091280.518 7  95136042.77746  23233198.420    23233193.160          47.250
        39.250
 132704033.022 6 103405724.85443  25252739.420    25252736.360          36.750
        23.000
 110385397.190 8  86014580.35948  21005639.600    21005637.120          51.000
        49.750
 108131460.478 8  84258263.51648  20576728.980    20576725.340          51.250
        50.500
 131184668.052 7 102221809.33444  24963612.460    24963609.300          42.750
        24.500
 133463320.012 6 103997376.53645  25397224.660    25397222.300          40.250
        31.750
 10  6 20  0 24 30.0000000  0 11G12G30G04G16G02G23G20G29G31G13G10
 125112530.253 7  97490277.08446  23808120.980    23808118.040          44.000
        41.000
 113392762.971 8  88357998.96947  21577923.720    21577921.380          51.000
        47.000
 128494715.257 6 100125758.43646  24451729.980    24451728.260          41.000
        36.250
 129239642.589 6 100706210.19545  24593487.460    24593484.160          41.250
        33.500
 119005139.564 8  92731257.13547  22645924.540    22645919.800          48.500
        43.250
 122033628.008 7  95091118.70846  23222227.540    23222222.320          47.500
        38.500
 132788869.130 6 103471830.90445  25268883.020    25268879.660          37.500
        32.250
 110337917.910 8  85977583.53848  20996604.620    20996602.080          51.000
        49.750
 108141218.867 8  84265867.48748  20578585.940    20578582.320          51.250
        50.500
 131085876.297 6 102144828.75745  24944813.040    24944809.800          41.750
        31.750
 133376639.816 6 103929833.55845  25380729.680    25380727.500          39.500
        31.750
 10  6 20  0 25  0.0000000  0 11G12G30G04G16G02G23G20G29G31G13G10
 125221966.979 7  97575552.40246  23828946.160    23828943.140          44.000
        39.500
 113455392.426 8  88406801.13447  21589841.680    21589839.380          51.000
        46.750
 128571494.155 6 100185586.14145  24466340.380    24466338.900          41.500
        34.250
 129126421.586 6 100617986.12545  24571942.160    24571938.720          41.500
        30.750
 119033550.876 8  92753395.83847  22651330.960    22651326.280          48.500
        43.500
 121976506.169 7  95046608.18946  23211357.680    23211352.380          47.000
        39.000
 132873990.074 6 103538158.72844  25285080.960    25285077.980          36.500
        27.750
 110291004.238 8  85941027.42348  20987677.240    20987674.640          51.000
        49.750
 108151626.146 8  84273977.08748  20580566.380    20580562.740          51.250
        50.500
 130987360.086 6 102068062.84245  24926065.960    24926062.780          41.750
        30.500
 133290236.604 6 103862506.44845  25364287.600    25364285.400          40.000
        33.750
 10  6 20  0 25 30.0000000  0 11G12G30G04G16G02G23G20G29G31G13G10
 125331571.291 7  97660958.30546  23849803.220    23849800.200          45.250
        39.000
 113518397.574 8  88455896.05047  21601831.200    21601828.840          51.000
        46.750
 128648659.186 7 100245714.72345  24481024.500    24481022.560          43.000
        33.000
 129013292.399 6 100529833.62345  24550414.160    24550410.980          41.500
        32.000
 119062569.505 8  92776007.78447  22656852.920    22656848.400          48.500
        43.250
 121919916.847 7  95002512.61746  23200589.000    23200583.840          47.250
        38.500
 132959392.385 6 103604705.01345  25301332.640    25301330.380          37.000
        31.250
 110244657.804 8  85904913.33448  20978857.780    20978855.180          51.000
        49.750
 108162682.476 8  84282592.42948  20582670.260    20582666.680          51.250
        50.500
 130889122.396 6 101991513.96345  24907371.920    24907368.760          39.750
        32.000
 133204113.241 6 103795397.32645  25347898.920    25347896.860          38.500
        33.000
 10  6 20  0 26  0.0000000  0 11G12G30G04G16G02G23G20G29G31G13G10
 125441340.476 7  97746492.70146  23870691.680    23870688.600          45.000
        39.000
 113581776.452 8  88505282.19347  21613891.780    21613889.420          50.750
        46.750
 128726207.271 7 100306141.82145  24495781.640    24495779.500          44.000
        31.500
 128900255.895 6 100441753.36745  24528903.820    24528900.720          41.000
        34.250
 119092193.541 8  92799091.48447  22662490.060    22662485.700          48.500
        43.250
 121863861.741 7  94958833.28346  23189922.000    23189916.880          47.000
        39.500
 133045075.625 6 103671471.17045  25317638.180    25317635.960          37.500
        35.750
 110198879.112 8  85869241.61548  20970146.340    20970143.740          51.000
        49.750
 108174387.095 8  84291712.92048  20584897.520    20584893.980          51.250
        50.500
 130791165.676 6 101915184.09945  24888731.300    24888728.000          40.500
        32.000
 133118271.866 6 103728507.96645  25331563.940    25331561.680          39.750
        32.750
 10  6 20  0 26 30.0000000  0 11G12G30G04G16G02G23G20G29G31G13G10
 125551273.088 7  97832154.44446  23891611.240    23891608.120          45.500
        39.000
 113645527.944 8  88554958.68847  21626023.280    21626020.960          50.750
        46.750
 128804136.165 7 100366865.66645  24510611.140    24510608.700          44.500
        32.000
 128787313.974 7 100353746.76946  24507411.600    24507408.500          42.000
        36.250
 119122422.063 8  92822646.20847  22668242.440    22668237.940          48.750
        43.750
 121808343.158 7  94915572.03346  23179357.140    23179352.100          47.000
        39.500
 133131035.961 6 103738453.25445  25333996.220    25333994.000          38.000
        33.500
 110153669.661 8  85834013.47248  20961543.240    20961540.640          50.750
        49.750
 108186740.144 8  84301338.66848  20587248.220    20587244.640          51.250
        50.500
 130693492.749 6 101839075.34545  24870144.660    24870141.580          40.500
        34.500
 133032715.165 6 103661840.38545  25315283.000    25315280.880          39.250
        31.750
 10  6 20  0 27  0.0000000  0 11G12G30G04G16G02G23G20G29G31G13G10
 125661366.200 7  97917941.25746  23912561.420    23912558.240          46.500
        38.250
 113709649.734 8  88604923.72247  21638225.260    21638222.980          50.750
        47.000
 128882442.489 7 100427883.62444  24525512.520    24525509.700          43.750
        29.250
 128674467.146 6 100265814.22345  24485937.600    24485934.340          41.250
        33.500
 119153253.099 8  92846670.41047  22674109.440    22674104.880          48.750
        44.000
 121753362.118 7  94872729.68346  23168894.660    23168889.540          47.250
        39.250
 133217270.126 6 103805649.16845  25350405.960    25350403.960          37.500
        31.500
 110109029.974 8  85799229.31048  20953048.540    20953046.020          51.000
        50.000
 108199740.728 8  84311468.99348  20589722.120    20589718.540          51.250
        50.500
 130596105.309 6 101763189.00844  24851612.500    24851609.360          41.000
        28.500
 132947445.130 6 103595396.22944  25299056.640    25299054.120          40.000
        25.750
 10  6 20  0 27 30.0000000  0 11G12G30G04G16G02G23G20G29G31G13G10
 125771620.094 7  98003853.38746  23933542.120    23933538.840          46.500
        38.000
 113774142.858 8  88655178.10247  21650497.880    21650495.600          50.750
        46.500
 128961126.332 7 100489195.72645  24540485.660    24540482.980          43.500
        33.500
 128561719.603 6 100177959.06045  24464482.300    24464479.220          41.500
        35.250
 119184687.573 8  92871164.81547  22680091.180    22680086.620          48.750
        43.250
 121698922.515 7  94830309.22146  23158535.200    23158530.160          47.250
        39.500
 133303776.473 6 103873057.03345  25366867.320    25366864.980          37.250
        30.750
 110064962.928 8  85764891.35448  20944662.880    20944660.360          51.000
        50.000
 108213390.470 8  84322105.16648  20592319.600    20592315.980          51.250
        50.500
 130499008.495 6 101687529.17145  24833135.600    24833132.600          39.750
        33.500
 132862466.551 6 103529179.17745  25282885.780    25282883.400          39.750
        32.500
 10  6 20  0 28  0.0000000  0 11G12G30G04G16G02G23G20G29G31G13G10
 125882031.322 7  98089888.12046  23954552.680    23954549.360          45.500
        38.750
 113839004.116 8  88705719.34447  21662840.540    21662838.260          50.750
        46.500
 129040183.388 7 100550798.62645  24555529.680    24555527.220          42.750
        32.750
 128449071.323 7 100090181.19845  24443045.960    24443042.800          42.000
        35.750
 119216722.621 8  92896127.21147  22686187.180    22686182.640          48.750
        43.750
 121645024.543 7  94788310.77346  23148278.780    23148273.780          47.500
        39.000
 133390550.783 6 103940673.47845  25383379.720    25383377.700          37.000
        35.250
 110021468.558 8  85730999.64548  20936386.180    20936383.720          51.000
        50.000
 108227687.538 8  84333245.72648  20595040.220    20595036.620          51.250
        50.500
 130402203.568 6 101612096.77145  24814714.240    24814711.120          41.000
        32.750
 132777780.188 6 103463189.80445  25266770.460    25266768.080          40.500
        32.750
 10  6 20  0 28 30.0000000  0 11G12G30G04G16G02G23G20G29G31G13G10
 125992599.288 7  98176044.96146  23975593.060    23975589.880          45.500
        39.250
 113904233.558 8  88756547.48247  21675253.320    21675251.020          50.750
        46.750
 129119612.758 7 100612691.60545  24570644.460    24570642.120          42.500
        34.750
 128336525.342 6 100002483.05245  24421629.180    24421625.860          41.250
        34.750
 119249358.522 8  92921557.78547  22692397.600    22692393.080          49.000
        44.000
 121591671.474 7  94746736.95346  23138126.060    23138120.900          47.250
        38.750
 133477591.840 6 104008497.76445  25399942.960    25399940.680          36.000
        30.000
 109978549.356 8  85697556.11248  20928218.920    20928216.460          51.000
        49.750
 108242633.232 8  84344891.71348  20597884.280    20597880.700          51.250
        50.500
 130305694.277 6 101536894.75145  24796349.120    24796346.140          40.750
        34.500
 132693390.317 6 103397431.43445  25250711.760    25250709.080          40.250
        32.000
 10  6 20  0 29  0.0000000  0 11G12G30G04G16G02G23G20G29G31G13G10
 126103321.703 7  98262322.14046  23996662.760    23996659.720          44.750
        37.750
 113969829.254 8  88807661.02447  21687735.820    21687733.520          50.750
        46.750
 129199411.512 7 100674872.47245  24585829.640    24585827.440          42.500
        34.000
 128224082.914 6  99914865.62745  24400232.000    24400228.940          41.250
        34.000
 119282593.481 8  92947455.14647  22698722.120    22698717.460          49.250
        44.000
 121538864.503 7  94705588.58046  23128077.200    23128072.080          47.250
        38.750
 133564895.602 5 104076526.35045  25416556.240    25416553.640          35.500
        34.500
 109936205.983 8  85664561.27548  20920161.280    20920158.780          51.000
        49.750
 108258226.690 8  84357042.45848  20600851.640    20600848.040          51.250
        50.500
 130209483.009 6 101461924.95645  24778040.600    24778037.740          40.250
        35.000
 132609299.523 6 103331906.12845  25234709.860    25234706.780          40.250
        33.250
 10  6 20  0 29 30.0000000  0 11G12G30G04G16G02G23G20G29G31G13G10
 126214196.291 7  98348717.91546  24017761.420    24017758.240          44.500
        38.250
 114035789.406 8  88859058.55747  21700287.580    21700285.320          50.750
        46.500
 129279576.736 7 100737338.83845  24601084.600    24601082.400          44.000
        34.250
 128111744.870 6  99827329.46645  24378854.760    24378851.700          41.250
        35.500
 119316425.715 8  92973817.93047  22705160.300    22705155.540          49.250
        44.000
 121486605.361 7  94664867.05846  23118132.640    23118127.520          47.250
        39.750
 133652459.722 6 104144757.83545  25433219.340    25433216.700          37.500
        31.000
 109894439.000 8  85632015.58348  20912213.300    20912210.800          51.000
        50.000
 108274467.340 8  84369697.51248  20603942.140    20603938.540          51.250
        50.250
 130113572.106 7 101387189.17945  24759789.520    24759786.700          42.000
        32.000
 132525509.664 6 103266615.35545  25218765.280    25218762.600          40.500
        30.000
 10  6 20  0 30  0.0000000  0 11G12G30G04G16G02G23G20G29G31G13G10
 126325222.757 7  98435232.02046  24038889.080    24038885.880          45.000
        37.500
 114102114.323 8  88910740.31747  21712908.800    21712906.480          50.750
        46.250
 129360107.517 7 100800090.11845  24616409.080    24616407.020          43.500
        34.750
 127999515.164 6  99739877.76746  24357498.120    24357495.180          41.000
        36.000
 119350855.483 8  93000646.31647  22711712.000    22711707.380          49.000
        44.000
 121434897.097 7  94624574.81446  23108292.920    23108287.820          47.250
        40.000
 133740283.067 6 104213191.40645  25449931.580    25449929.140          36.500
        33.500
 109853251.194 8  85599921.19448  20904375.540    20904373.040          51.000
        50.000
 108291356.446 8  84382857.87348  20607156.020    20607152.420          51.250
        50.500
 130017966.318 6 101312691.19245  24741596.440    24741593.280          41.500
        30.750
 132442024.860 6 103201562.24544  25202878.560    25202876.320          40.750
        28.750
 10  6 20  0 30 30.0000000  0 11G12G30G04G16G02G23G20G29G31G13G10
 126436394.611 7  98521859.41846  24060044.480    24060041.180          45.250
        37.000
 114168798.171 8  88962701.75147  21725598.300    21725595.980          50.750
        46.500
 129440996.906 7 100863120.83645  24631801.820    24631799.800          43.500
        32.500
 127887390.803 6  99652508.09245  24336161.580    24336158.720          40.750
        33.000
 119385876.955 8  93027935.76547  22718376.240    22718371.660          48.750
        44.250
 121383737.267 7  94584709.96046  23098557.660    23098552.540          47.500
        39.750
 133828358.815 6 104281821.74445  25466692.000    25466689.260          36.250
        34.000
 109812639.300 8  85568275.57348  20896647.320    20896644.840          51.000
        50.000
 108308889.097 8  84396519.69148  20610492.340    20610488.740          51.250
        50.500
 129922663.137 6 101238428.94945  24723460.840    24723457.700          41.000
        34.250
 132358843.534 6 103136745.65445  25187049.400    25187047.440          39.750
        32.500
 10  6 20  0 31  0.0000000  0 11G12G30G04G16G02G23G20G29G31G13G10
 126547713.938 7  98608601.72046  24081227.860    24081224.480          44.000
        37.500
 114235843.167 8  89014944.61147  21738356.520    21738354.260          50.500
        46.500
 129522246.376 7 100926432.10345  24647263.080    24647260.940          42.750
        34.500
 127775377.281 6  99565224.81646  24314846.100    24314843.160          40.750
        36.250
 119421492.682 8  93055688.27747  22725153.680    22725149.100          49.250
        43.250
 121333131.730 8  94545277.03546  23088927.800    23088922.540          48.000
        38.000
 133916689.201 6 104350651.36645  25483500.780    25483498.200          37.750
        31.750
 109772608.045 8  85537082.38748  20889029.560    20889027.100          51.000
        50.000
 108327068.890 8  84410685.76748  20613951.820    20613948.260          51.250
        50.500
 129827669.553 6 101164407.95845  24705384.140    24705381.260          40.750
        33.250
 132275972.019 6 103072170.48445  25171279.500    25171277.400          40.750
        34.000
 10  6 20  0 31 30.0000000  0 11G12G30G04G16G02G23G20G29G31G13G10
 126659178.125 7  98695456.93946  24102438.700    24102435.520          44.250
        36.750
 114303247.205 8  89067467.22847  21751183.080    21751180.860          50.750
        46.500
 129603852.713 7 100990021.46245  24662792.260    24662790.000          42.250
        33.750
 127663475.628 6  99478028.72945  24293551.920    24293549.000          40.500
        34.750
 119457700.294 8  93083902.00347  22732043.880    22732039.140          49.250
        44.000
 121283081.309 7  94506276.74146  23079403.560    23079398.320          47.750
        38.750
 134005268.643 6 104419674.73045  25500356.700    25500354.180          38.250
        34.750
 109733157.760 8  85506341.92048  20881522.380    20881519.920          51.000
        50.000
 108345894.534 8  84425355.10648  20617534.260    20617530.680          51.500
        50.500
 129732987.308 6 101090629.65645  24687366.580    24687363.780          41.250
        31.250
 132193412.367 7 103007838.28944  25155569.060    25155566.660          42.500
        28.250
 10  6 20  0 32  0.0000000  0 11G12G30G04G16G02G23G20G29G31G13G10
 126770786.153 7  98782424.21446  24123676.980    24123673.700          44.000
        37.500
 114371010.394 8  89120269.71347  21764077.980    21764075.760          50.500
        46.250
 129685814.418 6 101053887.72245  24678389.060    24678386.780          41.000
        35.000
 127551689.013 6  99390922.43245  24272279.640    24272276.560          40.250
        32.750
 119494499.565 8  93112576.76047  22739046.620    22739041.720          49.250
        43.500
 121233588.785 7  94467711.22946  23069985.340    23069980.300          47.250
        39.000
 134094094.934 6 104488890.14245  25517259.560    25517256.920          38.500
        32.250
 109694291.113 8  85476056.22548  20874126.300    20874123.800          51.000
        50.000
 108365366.466 8  84440528.03948  20621239.640    20621236.080          51.250
        50.500
 129638620.566 6 101017097.13845  24669409.060    24669406.240          41.750
        33.750
 132111167.977 6 102943751.75845  25139918.520    25139915.880          41.750
        32.500
 10  6 20  0 32 30.0000000  0 11G12G30G04G16G02G23G20G29G31G13G10
 126882536.374 7  98869502.24346  24144942.400    24144939.160          44.000
        37.250
 114439131.017 8  89173350.72047  21777040.860    21777038.660          50.500
        46.000
 129768129.228 6 101118029.14145  24694052.980    24694050.760          39.500
        30.000
 127440018.338 6  99303906.32545  24251029.280    24251026.360          40.750
        35.250
 119531889.545 8  93141711.81747  22746161.680    22746156.760          49.000
        43.500
 121184655.761 7  94429581.66746  23060673.640    23060668.680          47.250
        39.000
 134183165.735 6 104558295.94945  25534208.900    25534205.800          37.500
        30.750
 109656008.572 8  85446225.67748  20866841.400    20866838.860          51.000
        50.000
 108385484.573 8  84456204.49248  20625068.000    20625064.420          51.250
        50.500
 129544571.932 6 100943812.45545  24651512.240    24651508.960          41.750
        33.750
 132029241.367 7 102879912.83744  25124328.440    25124325.700          43.000
        29.250
 10  6 20  0 33  0.0000000  0 11G12G30G04G16G02G23G20G29G31G13G10
 126994424.206 7  98956687.55946  24166234.000    24166230.780          44.250
        39.000
 114507605.361 8  89226707.35047  21790071.080    21790068.900          50.500
        46.250
 129850791.987 6 101182441.64745  24709782.820    24709781.180          40.000
        34.250
 127328463.178 6  99216980.25945  24229801.100    24229798.420          40.500
        35.750
 119569866.117 8  93171303.95347  22753388.280    22753383.560          48.750
        43.000
 121136281.204 7  94391887.28346  23051468.200    23051463.220          47.500
        39.500
 134272476.154 6 104627888.45645  25551204.020    25551200.940          38.500
        30.000
 109618308.640 8  85416849.10548  20859667.360    20859664.800          51.000
        50.000
 108406245.731 8  84472382.03848  20629018.720    20629015.100          51.500
        50.250
 129450841.524 6 100870775.76845  24633675.920    24633672.840          40.750
        35.250
 131947633.036 7 102816321.91345  25108798.820    25108796.400          42.500
        32.000
 10  6 20  0 33 30.0000000  0 11G12G30G04G16G02G23G20G29G31G13G10
 127106451.467 7  99043981.50446  24187552.120    24187548.880          44.500
        37.750
 114576434.638 8  89280340.55347  21803168.920    21803166.660          50.500
        46.000
 129933803.160 6 101247125.66445  24725579.280    24725577.700          39.750
        35.750
 127217027.971 6  99130147.64045  24208595.520    24208592.860          41.250
        34.000
 119608430.776 8  93201354.34947  22760726.920    22760722.240          49.000
        43.000
 121088470.400 7  94354632.15246  23042370.040    23042365.100          47.500
        40.500
 134362026.582 6 104697667.90245  25568244.880    25568242.080          38.500
        32.250
 109581195.343 8  85387929.62048  20852604.960    20852602.420          51.000
        50.250
 108427652.536 8  84489062.66948  20633092.300    20633088.640          51.500
        50.250
 129357435.253 6 100797991.67445  24615901.280    24615898.280          41.750
        34.250
 131866348.655 7 102752983.45945  25093330.780    25093328.420          42.750
        31.500
 10  6 20  0 34  0.0000000  0 11G12G30G04G16G02G23G20G29G31G13G10
 127218612.214 7  99131379.49946  24208895.680    24208892.400          45.000
        37.500
 114645614.306 8  89334246.78347  21816333.320    21816331.080          50.500
        45.750
 130017157.311 6 101312076.91545  24741441.060    24741439.300          39.750
        35.500
 127105711.942 6  99043407.91845  24187412.820    24187410.220          41.000
        35.000
 119647578.741 8  93231859.26347  22768176.520    22768171.800          49.000
        43.000
 121041221.420 7  94317814.77146  23033378.800    23033373.780          47.500
        40.250
 134451811.136 6 104767629.82545  25585330.480    25585327.840          37.000
        31.250
 109544666.570 8  85359465.60648  20845653.820    20845651.280          51.000
        50.250
 108449701.593 8  84506243.75048  20637288.080    20637284.420          51.250
        50.250
 129264352.497 7 100725459.66545  24598188.300    24598184.940          42.000
        32.250
 131785387.728 7 102689896.98644  25077924.520    25077921.960          43.250
        28.250
 10  6 20  0 34 30.0000000  0 11G12G30G04G16G02G23G20G29G31G13G10
 127330908.507 7  99218883.07946  24230265.000    24230261.620          44.750
        38.750
 114715146.584 8  89388427.77747  21829564.880    21829562.640          50.250
        46.000
 130100855.062 6 101377295.91845  24757368.400    24757366.540          41.750
        32.500
 126994519.965 6  98956764.88846  24166253.680    24166251.060          41.750
        37.250
 119687312.361 8  93262820.53347  22775737.580    22775732.740          48.750
        43.000
 120994539.340 7  94281439.11646  23024495.520    23024490.500          47.750
        39.750
 134541830.608 6 104837774.89144  25602460.420    25602458.220          37.000
        26.000
 109508726.775 8  85331460.55348  20838814.720    20838812.220          51.000
        50.250
 108472395.634 8  84523927.42948  20641606.620    20641602.980          51.250
        50.250
 129171599.626 6 100653184.70045  24580538.000    24580534.660          41.000
        33.000
 131704755.915 7 102627067.00745  25062580.820    25062578.240          43.750
        31.500
 10  6 20  0 35  0.0000000  0 11G12G30G04G16G02G23G20G29G31G13G10
 127443336.047 7  99306488.96346  24251659.260    24251655.900          45.250
        36.750
 114785027.646 8  89442880.53847  21842862.800    21842860.600          50.250
        46.000
 130184891.503 7 101442778.85346  24773360.240    24773358.160          42.250
        36.000
 126883450.934 7  98870217.61946  24145118.000    24145115.340          42.250
        37.000
 119727627.020 8  93294234.54947  22783409.220    22783404.360          48.750
        42.500
 120948423.350 7  94245504.55246  23015719.940    23015714.940          47.750
        39.750
 134632079.560 6 104908098.75345  25619634.380    25619632.160          37.500
        33.500
 109473374.499 8  85303913.33348  20832087.420    20832084.940          51.000
        50.500
 108495731.213 8  84542111.00148  20646047.240    20646043.600          51.250
        50.250
 129079176.632 6 100581166.76845  24562950.420    24562947.140          41.500
        33.750
 131624453.463 7 102564493.67045  25047299.640    25047297.340          43.000
        33.500
 10  6 20  0 35 30.0000000  0 11G12G30G04G16G02G23G20G29G31G13G10
 127555894.847 7  99394197.09246  24273078.400    24273075.040          43.500
        36.250
 114855257.874 8  89497605.38747  21856227.200    21856225.000          50.500
        46.000
 130269266.185 6 101508525.33545  24789416.200    24789414.000          41.500
        33.500
 126772508.745 7  98783769.19146  24124006.400    24124003.420          42.000
        36.000
 119768523.195 8  93326101.69747  22791191.500    22791186.700          48.750
        42.500
 120902877.125 7  94210013.94246  23007052.800    23007047.680          47.500
        40.500
 134722556.880 5 104978600.43445  25636851.600    25636849.420          35.000
        34.500
 109438612.324 8  85276825.91848  20825472.420    20825469.920          51.250
        50.250
 108519709.845 8  84560795.65848  20650610.220    20650606.600          51.250
        50.250
 128987088.191 7 100509409.56345  24545426.620    24545423.440          42.500
        34.750
 131544485.029 7 102502180.58045  25032082.220    25032079.740          42.750
        32.500
 10  6 20  0 36  0.0000000  0 11G12G30G04G16G02G23G20G29G31G13G10
 127668581.132 7  99482004.53345  24294521.780    24294518.520          44.250
        35.750
 114925834.069 8  89552599.81147  21869657.420    21869655.160          50.250
        45.500
 130353974.595 6 101574531.88645  24805535.660    24805533.660          41.250
        34.000
 126661693.445 6  98697419.64146  24102918.940    24102915.800          41.750
        37.750
 119809997.835 8  93358419.59447  22799083.840    22799079.000          48.750
        42.000
 120857900.296 7  94174967.05446  22998493.980    22998489.000          47.750
        40.000
 134813258.382 5 105049276.73943  25654111.600    25654109.340          32.250
        20.000
 109404439.269 8  85250197.57048  20818969.520    20818967.020          51.250
        50.500
 108544329.416 8  84579979.74548  20655295.160    20655291.500          51.250
        50.250
 128895335.301 7 100437913.77945  24527966.640    24527963.400          42.000
        34.000
 131464851.317 7 102440128.35645  25016928.520    25016926.100          42.750
        34.000
 10  6 20  0 36 30.0000000  0 11G12G30G04G16G02G23G20G29G31G13G10
 127781394.039 7  99569910.71346  24315989.480    24315986.140          44.500
        36.500
 114996755.721 8  89607863.43547  21883153.340    21883151.140          50.250
        45.750
 130439015.333 6 101640797.39545  24821718.300    24821716.500          40.500
        34.500
 126551007.778 7  98611171.14145  24081856.040    24081853.260          42.250
        33.500
 119852050.476 8  93391187.86746  22807086.180    22807081.280          48.750
        41.750
 120813495.236 7  94140365.73546  22990044.000    22990039.020          47.750
        39.750
 134904182.062 6 105120126.39945  25671413.760    25671411.340          36.000
        30.750
 109370857.430 8  85224029.93048  20812579.100    20812576.620          51.250
        50.250
 108569589.896 8  84599663.24048  20660102.080    20660098.380          51.250
        50.250
 128803921.544 7 100366682.29745  24510571.220    24510568.020          42.250
        32.000
 131385556.032 7 102378339.83845  25001839.140    25001836.740          43.750
        35.500
 10  6 20  0 37  0.0000000  0 11G12G30G04G16G02G23G20G29G31G13G10
 127894332.132 7  99657914.41446  24337480.960    24337477.620          43.750
        38.000
 115068021.598 8  89663395.29647  21896714.820    21896712.580          50.250
        45.500
 130524386.052 6 101707320.02645  24837963.920    24837961.760          41.000
        33.000
 126440453.404 7  98525024.89246  24060818.200    24060815.360          42.750
        36.000
 119894679.258 8  93424405.09246  22815198.160    22815193.180          48.500
        41.750
 120769664.207 8  94106211.69946  22981703.320    22981698.160          48.000
        40.000
 134995325.524 6 105191147.31645  25688757.980    25688755.280          38.500
        33.500
 109337867.589 8  85198323.56848  20806301.300    20806298.820          51.000
        50.500
 108595490.857 8  84619845.80748  20665030.920    20665027.160          51.250
        50.250
 128712850.048 7 100295717.53045  24493240.860    24493237.700          43.000
        33.000
 131306601.557 7 102316816.87346  24986814.680    24986812.240          43.250
        36.000
 10  6 20  0 37 30.0000000  0 11G12G30G04G16G02G23G20G29G31G13G10
 128007393.986 7  99746014.52346  24358995.920    24358992.640          43.500
        37.250
 115139631.112 8  89719194.91547  21910341.680    21910339.400          50.250
        45.250
 130610085.131 6 101774098.53645  24854272.020    24854269.720          41.500
        32.750
 126330033.245 7  98438983.25345  24039805.800    24039802.920          43.000
        35.500
 119937883.698 8  93458070.88347  22823419.780    22823414.780          48.500
        42.000
 120726409.221 8  94072506.54846  22973472.200    22973467.060          48.000
        39.750
 135086687.085 6 105262337.94545  25706143.420    25706140.740          36.250
        35.000
 109305471.877 8  85173080.17348  20800136.600    20800134.140          51.250
        50.250
 108622033.003 8  84640528.00748  20670081.700    20670077.960          51.250
        50.250
 128622124.189 7 100225022.03245  24475976.460    24475973.100          42.500
        32.000
 131227991.616 7 102255562.39045  24971855.700    24971853.300          43.500
        35.000
 10  6 20  0 38  0.0000000  0 11G12G30G04G16G02G23G20G29G31G13G10
 128120576.501 7  99834208.63646  24380533.740    24380530.640          42.000
        37.750
 115211580.916 8  89775259.69147  21924033.260    21924030.960          50.250
        45.500
 130696108.364 7 101841129.62045  24870641.680    24870639.260          42.000
        34.000
 126219747.280 7  98353046.13345  24018819.220    24018816.120          43.000
        35.250
 119981660.500 8  93492182.67746  22831750.140    22831745.340          48.500
        41.500
 120683730.330 8  94039250.29446  22965350.680    22965345.520          48.000
        39.750
 135178262.116 5 105333695.30645  25723569.760    25723566.700          30.000
        33.250
 109273668.973 8  85148298.70148  20794084.720    20794082.220          51.250
        50.500
 108649213.597 8  84661707.69348  20675253.980    20675250.280          51.250
        50.500
 128531745.180 7 100154596.82145  24458777.900    24458774.340          42.000
        33.250
 131149727.035 7 102194576.99446  24956962.480    24956959.960          42.250
        36.000
 10  6 20  0 38 30.0000000  0 11G12G30G04G16G02G23G20G29G31G13G10
 128233879.204 7  99922496.43846  24402094.520    24402091.460          42.500
        38.250
 115283870.908 8  89831589.55547  21937789.620    21937787.240          50.250
        45.500
 130782454.443 7 101908412.24945  24887072.720    24887070.520          42.500
        33.500
 126109598.354 7  98267215.83645  23997858.580    23997855.440          43.250
        35.750
 120026009.179 8  93526740.07946  22840189.320    22840184.500          48.500
        41.250
 120641629.979 8  94006444.83946  22957339.200    22957334.120          48.000
        40.500
 135270049.382 6 105405217.69145  25741036.300    25741033.580          39.000
        30.000
 109242461.159 8  85123980.93648  20788146.060    20788143.560          51.250
        50.500
 108677033.229 8  84683385.29748  20680547.820    20680544.200          51.250
        50.250
 128441716.588 7 100084444.65845  24441646.020    24441642.580          42.500
        33.750
 131071811.667 7 102133863.75545  24942135.580    24942133.140          42.750
        34.250
 10  6 20  0 39  0.0000000  0 11G12G30G04G16G02G23G20G29G31G13G10
 128347299.163 7 100010875.63046  24423677.660    24423674.620          42.500
        38.000
 115356499.001 8  89888182.87647  21951610.340    21951607.920          50.250
        45.000
 130869119.831 6 101975943.70845  24903564.520    24903562.400          41.750
        32.250
 125999587.545 7  98181493.16445  23976924.240    23976920.960          42.750
        35.500
 120070926.978 8  93561740.93346  22848736.920    22848731.980          48.500
        41.000
 120600109.005 7  93974090.82246  22949438.080    22949432.740          47.500
        40.000
 135362045.294 6 105476914.94344  25758542.680    25758540.680          41.000
        29.500
 109211848.297 8  85100126.75848  20782320.620    20782318.080          51.250
        50.250
 108705490.342 8  84705559.65748  20685963.020    20685959.420          51.250
        50.250
 128352040.724 7 100014567.38845  24424581.280    24424577.740          42.750
        31.000
 130994246.902 6 102073423.68946  24927375.300    24927373.120          41.750
        36.250
 10  6 20  0 39 30.0000000  0 11G12G30G04G16G02G23G20G29G31G13G10
 128460833.516 7 100099343.94546  24445282.580    24445279.380          42.750
        38.000
 115429462.601 8  89945037.63047  21965494.840    21965492.440          50.250
        45.500
 130956101.028 6 102043721.30745  24920116.460    24920114.240          41.500
        33.250
 125889715.263 7  98095878.43046  23956016.120    23956012.940          43.750
        37.000
 120116411.641 8  93597183.49846  22857392.400    22857387.420          48.500
        41.750
 120559167.710 8  93942188.50346  22941647.200    22941641.880          48.000
        40.000
 135454245.966 5 105548759.61245  25776087.860    25776085.480          35.250
        33.000
 109181830.163 8  85076736.01048  20776608.340    20776605.780          51.250
        50.250
 108734583.193 8  84728229.41948  20691499.220    20691495.600          51.250
        50.250
 128262718.797 7  99944965.90845  24407583.820    24407580.580          42.750
        34.250
 130917034.677 6 102013258.32645  24912682.340    24912679.980          41.000
        34.000
 10  6 20  0 40  0.0000000  0 11G12G30G04G16G02G23G20G29G31G13G10
 128574487.910 7 100187905.76545  24466910.180    24466907.060          42.000
        35.500
 115502767.739 8  90002158.51747  21979444.280    21979441.960          50.250
        45.000
 131043402.927 6 102111748.73445  24936729.380    24936727.460          41.000
        32.500
 125779991.013 7  98010379.01346  23935136.300    23935133.080          43.000
        37.250
 120162468.766 8  93633072.14446  22866156.820    22866151.940          48.500
        41.250
 120518815.023 7  93910744.83946  22933968.300    22933963.000          47.750
        40.500
 135546656.369 6 105620768.04645  25793673.060    25793670.700          40.250
        33.750
 109152414.876 8  85053815.00748  20771010.800    20771008.240          51.250
        50.500
 108764318.144 8  84751399.52548  20697157.600    20697153.980          51.250
        50.250
 128173761.178 7  99875648.28745  24390655.640    24390652.600          43.500
        35.250
 130840184.917 6 101953375.40545  24898058.280    24898056.040          40.000
        34.750
 10  6 20  0 40 30.0000000  0 10G12G30G04G16G02G23G29G31G13G10
 128688242.538 7 100276545.70946  24488556.900    24488553.920          42.750
        36.500
 115576394.494 8  90059530.00747  21993454.960    21993452.700          50.000
        45.000
 131131004.736 6 102180009.88645  24953399.520    24953397.680          40.500
        32.000
 125670398.079 7  97924981.91146  23914281.280    23914278.160          43.750
        36.000
 120209078.251 8  93669391.19346  22875026.280    22875021.540          48.500
        41.750
 120479033.837 8  93879746.49646  22926398.180    22926392.920          48.000
        40.000
 109123584.868 8  85031350.07348  20765524.640    20765522.120          51.250
        50.500
 108794676.153 8  84775055.11048  20702934.560    20702930.900          51.250
        50.250
 128085152.021 7  99806602.17645  24373793.820    24373790.920          43.500
        32.000
 130763681.714 6 101893762.55245  24883500.080    24883498.040          40.500
        35.000
 10  6 20  0 41  0.0000000  0 10G12G30G04G16G02G23G29G31G13G10
 128802122.882 7 100365283.60946  24510227.700    24510224.600          43.250
        38.500
 115650369.271 8  90117172.68747  22007531.860    22007529.680          50.000
        45.000
 131218931.777 7 102248524.42245  24970131.600    24970129.660          42.000
        32.000
 125560966.498 7  97839710.56546  23893457.180    23893453.980          43.500
        36.250
 120256266.380 8  93706161.18447  22884005.920    22884001.180          48.500
        42.000
 120439853.582 8  93849216.38946  22918942.500    22918937.240          48.000
        39.750
 109095368.759 8  85009363.49248  20760155.280    20760152.780          51.250
        50.500
 108825684.383 8  84799217.35948  20708835.220    20708831.600          51.250
        50.250
 127996922.314 7  99737851.75745  24357004.300    24357001.360          44.250
        33.750
 130687555.481 6 101834443.42446  24869013.700    24869011.740          41.000
        36.750
 10  6 20  0 41 30.0000000  0 10G12G30G04G16G02G23G29G31G13G10
 128916103.987 7 100454100.02546  24531917.720    24531914.420          42.500
        37.750
 115724667.012 8  90175067.02447  22021670.220    22021668.020          50.000
        45.000
 131307158.034 6 102317272.16145  24986920.620    24986918.780          41.000
        33.750
 125451674.362 7  97754547.92746  23872659.520    23872656.480          44.250
        36.250
 120304007.968 8  93743362.44247  22893090.880    22893086.120          48.250
        42.250
 120401252.562 8  93819137.67546  22911597.040    22911591.800          48.000
        40.250
 109067743.364 8  84987837.21648  20754898.320    20754895.840          51.250
        50.500
 108857318.283 8  84823867.13548  20714854.940    20714851.340          51.250
        50.250
 127909051.098 7  99669380.63645  24340283.160    24340280.100          43.250
        34.750
 130611785.156 6 101775401.64146  24854595.200    24854592.900          40.500
        37.750
 10  6 20  0 42  0.0000000  0 10G12G30G04G16G02G23G29G31G13G10
 129030191.054 7 100542999.00446  24553627.840    24553624.560          43.000
        36.250
 115799293.823 8  90233217.77847  22035871.220    22035869.080          50.000
        44.750
 131395687.998 6 102386256.50245  25003767.180    25003765.460          40.500
        32.000
 125342530.617 7  97669500.83146  23851890.300    23851887.080          43.750
        36.500
 120352308.147 8  93780998.92946  22902282.160    22902277.460          48.250
        41.750
 120363239.054 8  93789516.76246  22904363.340    22904358.040          48.000
        40.500
 109040716.766 8  84966777.53048  20749755.320    20749752.860          51.250
        50.750
 108889584.568 8  84849009.70548  20720994.980    20720991.440          51.250
        50.250
 127821547.918 7  99601196.33445  24323631.680    24323628.720          42.750
        30.250
 130536380.673 6 101716644.89046  24840246.120    24840243.840          40.250
        36.750
 10  6 20  0 42 30.0000000  0 10G12G30G04G16G02G23G29G31G13G10
 129144384.286 7 100631980.70646  24575358.220    24575354.800          42.500
        36.000
 115874249.907 8  90291625.11847  22050134.960    22050132.700          50.000
        44.750
 131484520.870 7 102455476.93445  25020671.360    25020669.300          42.000
        34.000
 125233538.467 7  97584571.86546  23831149.920    23831146.600          44.250
        37.000
 120401166.765 7  93819070.53447  22911579.640    22911574.940          47.750
        42.250
 120325816.102 7  93760356.05546  22897241.940    22897236.760          47.750
        40.750
 109014291.584 8  84946186.47448  20744726.720    20744724.320          51.250
        50.500
 108922483.876 8  84874645.53148  20727255.500    20727251.960          51.250
        50.000
 127734417.580 7  99533302.52345  24307051.420    24307048.320          43.500
        34.000
 130461346.394 6 101658176.63146  24825967.500    24825965.680          40.750
        36.500
 10  6 20  0 43  0.0000000  0 10G12G30G04G16G02G23G29G31G13G10
 129258682.122 7 100721043.91045  24597108.360    24597105.080          43.750
        35.750
 115949533.802 8  90350287.86347  22064461.020    22064458.740          50.000
        44.750
 131573654.551 7 102524931.71544  25037633.000    25037631.000          42.000
        25.250
 125124700.739 7  97499763.26846  23810438.740    23810435.520          44.250
        36.500
 120450582.741 7  93857576.46746  22920983.080    22920978.560          47.750
        41.750
 120288985.237 8  93731656.70546  22890233.160    22890228.020          48.250
        40.250
 108988468.786 8  84926064.81448  20739812.820    20739810.380          51.250
        50.500
 108956015.760 8  84900774.25848  20733636.420    20733632.820          51.250
        50.000
 127647663.022 6  99465701.57745  24290542.620    24290539.400          41.750
        32.750
 130386684.831 6 101599998.82746  24811759.900    24811757.880          40.000
        37.250
 10  6 20  0 43 30.0000000  0 10G12G30G04G16G02G23G29G31G13G10
 129373079.359 7 100810184.64945  24618877.460    24618874.260          43.500
        35.750
 116025140.622 8  90409202.24647  22078848.560    22078846.300          50.000
        45.000
 131663082.808 7 102594616.02645  25054650.900    25054648.680          42.000
        30.500
 125016015.082 7  97415073.18246  23789756.580    23789753.200          44.000
        36.250
 120500550.493 7  93896512.37946  22930491.580    22930487.000          47.750
        41.500
 120252744.156 8  93703416.92646  22883336.700    22883331.520          48.000
        39.750
 108963245.247 8  84906410.11248  20735012.980    20735010.500          51.250
        50.750
 108990175.456 8  84927392.23048  20740136.800    20740133.200          51.250
        50.250
 127561283.077 7  99398392.53545  24274105.020    24274102.060          43.000
        34.500
 130312395.104 6 101542110.72846  24797622.980    24797621.060          40.250
        36.500
 10  6 20  0 44  0.0000000  0 10G12G30G04G16G02G23G29G31G13G10
 129487579.204 7 100899405.27246  24640665.940    24640662.860          43.500
        36.500
 116101073.891 8  90468370.99147  22093298.240    22093295.960          50.000
        44.500
 131752808.403 7 102664532.13644  25071725.320    25071723.180          42.500
        28.000
 124907488.136 7  97330506.73346  23769104.580    23769101.340          44.000
        36.500
 120551073.263 7  93935880.77047  22940105.760    22940101.100          47.750
        42.500
 120217099.358 8  93675641.77146  22876553.660    22876548.520          48.250
        40.000
 108938626.759 8  84887226.87848  20730328.260    20730325.760          51.250
        50.500
 109024967.304 8  84954502.77548  20746757.460    20746753.880          51.250
        50.250
 127475285.640 7  99331381.55445  24257740.340    24257737.140          43.000
        34.000
 130238484.914 6 101484518.40345  24783558.180    24783556.580          40.750
        35.250
 10  6 20  0 44 30.0000000  0 10G12G30G04G16G02G23G29G31G13G10
 129602176.643 7 100988701.98046  24662473.080    24662469.960          43.250
        36.750
 116177329.450 8  90527790.88147  22107809.220    22107806.820          49.750
        44.000
 131842825.623 7 102734675.45344  25088855.060    25088852.280          42.500
        28.750
 124799119.793 7  97246063.87246  23748482.860    23748479.380          44.500
        37.000
 120602146.419 8  93975678.03247  22949824.720    22949820.100          48.000
        42.500
 120182049.246 8  93648330.01046  22869883.800    22869878.660          48.000
        40.250
 108914610.737 8  84868513.07948  20725758.100    20725755.680          51.000
        50.500
 109060387.129 8  84982102.63648  20753497.580    20753494.040          51.250
        50.000
 127389670.411 7  99264668.36945  24241448.260    24241444.940          43.000
        31.750
 130164953.817 7 101427221.48146  24769565.800    24769564.040          42.250
        37.250
 10  6 20  0 45  0.0000000  0 10G12G30G04G16G02G23G29G31G13G10
 129716870.159 7 101078073.56445  24684298.560    24684295.300          43.500
        35.500
 116253905.612 8  90587460.62247  22122381.140    22122378.800          49.750
        44.500
 131933131.721 7 102805043.79444  25106039.520    25106037.760          42.000
        29.500
 124690911.185 7  97161745.50946  23727891.500    23727888.000          44.000
        37.000
 120653767.994 7  94015902.61747  22959648.000    22959643.440          47.750
        42.250
 120147594.974 7  93621482.53546  22863327.340    22863322.220          47.750
        40.250
 108891197.749 8  84850269.18248  20721302.740    20721300.360          51.250
        50.750
 109096434.031 8  85010191.12148  20760357.040    20760353.520          51.250
        50.250
 127304440.181 7  99198255.21145  24225229.500    24225226.360          43.000
        34.250
 130091803.949 7 101370221.56445  24755646.000    24755644.060          42.500
        35.500
 10  6 20  0 45 30.0000000  0 10G12G30G04G16G02G23G29G31G13G10
 129831656.895 7 101167517.76345  24706141.840    24706138.480          43.750
        35.000
 116330800.005 8  90647378.33547  22137013.680    22137011.380          49.750
        44.000
 132023723.572 7 102875634.97744  25123278.540    25123276.240          42.000
        27.250
 124582863.497 7  97077552.55846  23707330.640    23707327.360          43.750
        36.250
 120705935.112 7  94056552.30847  22969575.060    22969570.520          47.750
        42.500
 120113736.683 8  93595099.47646  22856884.300    22856879.140          48.000
        40.500
 108868387.253 8  84832494.75748  20716962.080    20716959.660          51.250
        50.500
 109133106.301 8  85038766.91248  20767335.540    20767332.060          51.250
        50.000
 127219596.366 7  99132143.16545  24209084.120    24209080.980          43.250
        33.000
 130019036.856 7 101313519.95345  24741798.960    24741796.840          43.500
        35.750
 10  6 20  0 46  0.0000000  0 10G12G30G04G16G02G23G29G31G13G10
 129946538.965 7 101257036.21845  24728003.300    24727999.940          44.250
        33.750
 116408014.603 8  90707545.53647  22151707.100    22151704.880          49.500
        44.250
 132114602.085 6 102946449.30944  25140572.180    25140570.380          41.500
        28.500
 124474981.570 7  96993488.74446  23686801.260    23686797.880          44.000
        37.250
 120758649.537 7  94097628.47947  22979606.260    22979601.740          47.750
        42.500
 120080479.285 7  93569184.65746  22850555.580    22850550.400          47.750
        40.000
 108846183.688 8  84815193.26348  20712736.900    20712734.420          51.250
        50.750
 109170406.422 8  85067831.93148  20774433.560    20774430.000          51.250
        50.000
 127135145.569 7  99066337.36145  24193013.680    24193010.360          42.750
        35.500
 129946658.732 7 101257121.39245  24728025.960    24728023.560          44.000
        31.750
 10  6 20  0 46 30.0000000  0 10G12G30G04G16G02G23G29G31G13G10
 130061511.158 7 101346624.94246  24749881.800    24749878.660          44.500
        36.750
 116485544.769 8  90767958.64847  22166460.540    22166458.380          49.500
        44.000
 132205761.287 6 103017482.51945  25157919.380    25157917.260          40.500
        30.500
 124367264.521 7  96909553.40546  23666303.400    23666300.060          44.500
        39.000
 120811905.982 8  94139126.98946  22989740.720    22989736.120          48.250
        41.750
 120047820.776 8  93543736.52446  22844340.860    22844335.660          48.250
        40.000
 108824584.212 8  84798362.50348  20708626.640    20708624.160          51.250
        50.500
 109208329.814 8  85097382.62848  20781650.180    20781646.600          51.250
        50.000
 127051086.859 7  99000837.07646  24177017.760    24177014.640          42.250
        36.000
 129874668.674 7 101201025.23745  24714326.720    24714324.120          44.750
        34.000
 10  6 20  0 47  0.0000000  0 11G05G12G30G04G16G02G23G29G31G13G10
 135460754.246 6 105553815.60444  25777323.500    25777321.500          40.750
        29.500
 130176573.552 7 101436283.88146  24771777.420    24771774.400          43.000
        37.250
 116563391.220 8  90828618.24047  22181274.260    22181272.020          49.500
        44.250
 132297200.699 6 103088733.94844  25175319.920    25175317.360          40.000
        26.500
 124259716.360 7  96825749.71146  23645837.640    23645834.300          44.250
        37.500
 120865704.838 8  94181048.18047  22999978.400    22999973.660          48.000
        42.250
 120015764.217 8  93518757.42946  22838240.680    22838235.620          48.250
        40.250
 108803591.068 8  84782004.19748  20704631.760    20704629.280          51.250
        50.500
 109246877.528 8  85127419.81848  20788985.600    20788981.980          51.250
        50.000
 126967424.997 7  98935646.03945  24161097.500    24161094.380          43.250
        33.500
 129803071.599 7 101145235.30845  24700702.300    24700699.500          45.000
        33.000
 10  6 20  0 47 30.0000000  0 11G05G12G30G04G16G02G23G29G31G13G10
 135360766.171 6 105475902.70045  25758296.380    25758294.020          41.000
        34.000
 130291720.920 6 101526009.11246  24793689.100    24793686.280          41.500
        36.750
 116641548.198 8  90889519.81147  22196147.000    22196144.720          49.500
        44.000
 132388914.103 6 103160198.90744  25192772.340    25192769.260          38.250
        26.750
 124152334.321 7  96742075.39846  23625403.460    23625400.080          44.500
        37.500
 120920040.181 7  94223387.41246  23010318.000    23010313.280          47.750
        41.250
 119984306.839 8  93494245.22646  22832254.480    22832249.500          48.250
        41.000
 108783201.073 8  84766115.89148  20700751.640    20700749.220          51.000
        50.750
 109286044.710 8  85157939.69648  20796438.900    20796435.240          51.250
        50.000
 126884158.808 7  98870763.30245  24145252.600    24145249.260          43.000
        34.000
 129731865.892 7 101089750.34045  24687152.360    24687149.620          45.000
        33.750
 10  6 20  0 48  0.0000000  0 11G05G12G30G04G16G02G23G29G31G13G10
 135260947.886 6 105398122.24945  25739301.520    25739299.400          41.250
        32.250
 130406958.175 6 101615804.35845  24815617.860    24815615.040          41.000
        33.750
 116720021.309 8  90950667.69747  22211079.900    22211077.660          49.500
        43.750
 132480905.454 6 103231880.40945  25210277.360    25210274.740          36.750
        31.750
 124045127.680 7  96658537.77446  23605002.660    23604999.320          45.000
        38.500
 120974916.709 8  94266148.37346  23020760.580    23020755.900          48.000
        41.000
 119953456.748 8  93470206.23546  22826383.900    22826378.980          48.250
        40.750
 108763421.461 8  84750703.17448  20696987.700    20696985.300          51.250
        50.500
 109325837.068 8  85188946.72748  20804011.100    20804007.480          51.250
        50.000
 126801297.719 7  98806196.20346  24129484.740    24129481.500          43.000
        36.500
 129661060.555 7 101034577.34445  24673678.540    24673675.900          44.750
        32.750
 10  6 20  0 48 30.0000000  0 11G05G12G30G04G16G02G23G29G31G13G10
 135161297.038 6 105320472.32145  25720338.500    25720336.440          40.750
        30.500
 130522278.580 6 101705664.36745  24837562.520    24837559.860          41.500
        35.000
 116798803.984 8  91012056.78447  22226071.720    22226069.540          49.250
        43.750
 132573167.473 6 103303772.91644  25227833.920    25227831.640          37.500
        29.500
 123938093.099 7  96575134.21246  23584634.720    23584631.400          45.250
        38.250
 121030327.477 8  94309325.64046  23031304.960    23031300.260          48.000
        41.250
 119923209.799 8  93446637.18246  22820628.100    22820622.980          48.500
        40.000
 108744247.868 8  84735762.71048  20693339.160    20693336.720          51.250
        50.500
 109366248.433 8  85220436.10448  20811701.100    20811697.540          51.250
        50.000
 126718839.210 7  98741942.82646  24113793.300    24113790.060          42.250
        37.000
 129590653.385 7 100979714.62445  24660280.480    24660277.880          45.250
        32.250
 10  6 20  0 49  0.0000000  0 11G05G12G30G04G16G02G23G29G31G13G10
 135061817.887 6 105242956.17145  25701408.340    25701406.060          41.250
        32.750
 130637681.805 6 101795588.87446  24859523.180    24859520.400          41.500
        36.500
 116877896.151 8  91073687.05547  22241122.460    22241120.280          49.500
        43.250
 132665698.855 6 103375875.29044  25245442.020    25245440.160          37.750
        24.750
 123831233.700 7  96491867.16746  23564300.080    23564296.760          45.250
        37.750
 121086272.153 8  94352918.92746  23041950.920    23041946.120          48.000
        41.500
 119893568.861 8  93423540.36946  22814987.600    22814982.480          48.500
        40.500
 108725681.846 8  84721295.67148  20689806.200    20689803.760          51.250
        50.750
 109407278.896 8  85252407.90348  20819508.900    20819505.360          51.250
        50.000
 126636787.596 7  98678006.49545  24098179.280    24098176.100          43.000
        35.250
 129520647.794 7 100925164.78545  24646958.860    24646956.300          45.250
        34.500
 10  6 20  0 49 30.0000000  0 11G05G12G30G04G16G02G23G29G31G13G10
 134962511.774 7 105165574.83145  25682511.020    25682508.820          43.250
        34.000
 130753164.664 7 101885575.46846  24881498.920    24881496.120          42.500
        37.000
 116957295.086 8  91135556.37347  22256231.600    22256229.380          49.500
        43.250
 132758495.774 6 103448184.52644  25263100.900    25263099.200          37.750
        26.500
 123724550.211 7  96408737.20846  23543998.800    23543995.500          45.250
        38.750
 121142747.144 8  94396925.43046  23052697.720    23052692.900          48.250
        40.750
 119864533.211 8  93400915.17346  22809462.320    22809457.160          48.250
        40.500
 108707722.234 8  84707301.17948  20686388.600    20686386.160          51.250
        50.500
 109448926.156 8  85284860.30948  20827434.120    20827430.560          51.000
        50.000
 126555143.712 7  98614387.84646  24082643.020    24082639.820          43.500
        36.000
 129451044.991 7 100870928.81645  24633713.820    24633711.560          45.000
        33.250
 10  6 20  0 50  0.0000000  0 11G05G12G30G04G16G02G23G29G31G13G10
 134863382.295 7 105088331.17246  25663647.240    25663644.820          42.000
        36.000
 130868726.457 6 101975623.57846  24903489.680    24903486.940          41.500
        38.250
 117036999.922 8  91197664.05047  22271398.920    22271396.660          49.250
        43.500
 132851556.453 6 103520699.34944  25280810.040    25280807.580          39.000
        25.000
 123618045.235 7  96325746.33646  23523731.580    23523728.280          45.250
        39.500
 121199751.192 8  94441344.17946  23063545.260    23063540.280          48.250
        41.000
 119836105.043 8  93378763.35446  22804052.620    22804047.520          48.500
        40.750
 108690370.549 8  84693780.40148  20683086.660    20683084.220          51.250
        50.750
 109491189.700 8  85317792.92748  20835476.560    20835473.040          51.000
        50.000
 126473911.369 7  98551089.88346  24067185.140    24067181.900          43.750
        36.000
 129381848.022 7 100817009.09545  24620545.980    24620543.760          45.250
        32.750
 10  6 20  0 50 30.0000000  0 11G05G12G30G04G16G02G23G29G31G13G10
 134764433.388 7 105011228.07646  25644817.900    25644815.360          43.500
        36.750
 130984367.178 7 102065733.11446  24925495.480    24925492.580          42.500
        37.250
 117117010.615 8  91260010.05647  22286624.500    22286622.220          49.250
        43.500
 132944879.740 6 103593418.88044  25298568.940    25298566.440          38.250
        27.750
 123511722.150 7  96242897.22546  23503498.900    23503495.540          44.750
        38.500
 121257284.035 8  94486174.97846  23074493.340    23074488.340          48.250
        40.500
 119808286.562 8  93357086.63646  22798758.920    22798753.880          48.500
        40.500
 108673628.599 8  84680734.72648  20679900.760    20679898.320          51.250
        50.500
 109534069.770 8  85351205.97648  20843636.360    20843632.900          51.000
        49.750
 126393094.472 7  98488115.68245  24051806.180    24051803.080          44.000
        35.750
 129313061.137 7 100763408.92145  24607456.300    24607454.060          45.250
        33.500
 10  6 20  0 51  0.0000000  0 11G05G12G30G04G16G02G23G29G31G13G10
 134665667.895 7 104934268.01346  25626023.360    25626021.020          43.000
        36.000
 131100083.816 6 102155901.83046  24947515.640    24947512.860          40.250
        36.000
 117197324.880 8  91322592.60347  22301907.780    22301905.520          49.250
        43.000
 133038462.444 6 103666340.53544  25316377.180    25316374.700          38.250
        26.750
 123405581.910 7  96160190.56646  23483301.000    23483297.760          45.250
        39.000
 121315342.536 8  94531415.37146  23085541.500    23085536.460          48.000
        40.750
 119781077.917 8  93335885.11046  22793581.260    22793576.180          48.500
        40.500
 108657495.640 8  84668163.58448  20676830.780    20676828.340          51.250
        50.750
 109577564.269 8  85385097.79048  20851913.080    20851909.620          51.000
        49.750
 126312694.450 7  98425466.28345  24036506.580    24036503.440          43.500
        35.500
 129244685.960 7 100710129.52445  24594445.000    24594442.660          45.250
        32.500
 10  6 20  0 51 30.0000000  0 11G05G12G30G04G16G02G23G29G31G13G10
 134567087.607 7 104857452.27246  25607264.020    25607261.780          44.250
        36.500
 131215873.672 6 102246127.61245  24969549.760    24969547.060          41.750
        34.500
 117277940.595 8  91385410.02547  22317248.320    22317246.160          49.000
        43.750
 133132300.851 6 103739461.36943  25334233.740    25334231.640          36.250
        19.000
 123299625.628 7  96077627.22946  23463138.100    23463134.940          45.500
        38.500
 121373923.887 8  94577063.19346  23096689.080    23096684.260          48.000
        41.500
 119754479.639 8  93315159.16346  22788519.820    22788514.600          48.500
        41.000
 108641971.236 8  84656066.65348  20673876.580    20673874.140          51.250
        50.750
 109621671.124 8  85419466.76448  20860306.320    20860302.840          51.000
        49.500
 126232713.604 7  98363143.52645  24021286.720    24021283.700          44.000
        34.500
 129176723.477 7 100657171.72645  24581512.200    24581509.820          44.500
        33.250
 10  6 20  0 52  0.0000000  0 11G05G12G30G04G16G02G23G29G31G13G10
 134468695.802 7 104780783.40946  25588540.440    25588538.580          43.250
        38.500
 131331736.071 6 102336409.93445  24991597.700    24991594.900          41.750
        35.000
 117358856.709 8  91448461.53447  22332646.200    22332643.980          49.500
        43.250
 133226393.362 5 103812780.05944  25352139.020    25352136.320          35.250
        27.000
 123193855.793 7  95995209.17846  23443010.840    23443007.740          45.250
        38.250
 121433026.793 8  94623117.40346  23107935.940    23107931.220          48.000
        41.750
 119728493.057 8  93294909.88946  22783574.840    22783569.560          48.500
        41.000
 108627056.113 8  84644444.48148  20671038.260    20671035.920          51.250
        50.500
 109666389.907 8  85454312.57148  20868816.020    20868812.560          51.000
        49.750
 126153154.979 7  98301149.77145  24006147.300    24006144.120          43.750
        34.500
 129109177.009 7 100604538.10945  24568658.460    24568656.020          44.250
        34.250
 10  6 20  0 52 30.0000000  0 11G05G12G30G04G16G02G23G29G31G13G10
 134370494.783 7 104704263.21246  25569853.240    25569851.360          43.750
        38.000
 131447668.441 7 102426746.70646  25013659.040    25013656.000          44.250
        36.000
 117440071.038 8  91511745.43147  22348100.860    22348098.580          49.250
        43.000
 133320736.643 5 103886294.28043  25370092.080    25370090.080          33.750
        19.250
 123088273.417 7  95912937.17646  23422919.120    23422915.960          45.250
        38.750
 121492648.678 8  94669576.03046  23119281.640    23119276.900          48.250
        41.500
 119703118.633 8  93275137.62346  22778746.280    22778740.900          48.500
        41.000
 108612750.049 8  84633296.89748  20668315.880    20668313.560          51.250
        50.750
 109711718.480 8  85489633.54048  20877441.800    20877438.260          51.000
        49.750
 126074020.501 7  98239486.56245  23991088.420    23991085.400          44.250
        33.500
 129042048.266 7 100552230.00245  24555884.260    24555881.940          44.000
        34.000
 10  6 20  0 53  0.0000000  0 10G05G12G30G16G02G23G29G31G13G10
 134272487.772 7 104627894.18346  25551203.060    25551201.200          42.500
        36.500
 131563669.779 7 102517137.24245  25035733.560    25035730.380          45.000
        32.750
 117521582.652 8  91575260.95647  22363611.980    22363609.780          49.000
        42.750
 122982881.279 7  95830813.45146  23402863.540    23402860.660          45.250
        38.250
 121552787.662 8  94716437.58747  23130725.760    23130721.020          48.000
        42.000
 119678357.426 8  93255843.18246  22774034.280    22774028.960          48.250
        41.000
 108599054.197 8  84622624.81048  20665709.680    20665707.300          51.250
        50.750
 109757656.147 8  85525429.11148  20886183.500    20886179.860          51.250
        49.500
 125995313.054 7  98178156.10345  23976110.840    23976107.900          43.750
        33.750
 128975340.552 7 100500249.96045  24543190.240    24543187.760          44.000
        33.750
 10  6 20  0 53 30.0000000  0 10G05G12G30G16G02G23G29G31G13G10
 134174677.587 7 104551678.52946  25532590.300    25532588.480          43.750
        39.000
 131679737.965 7 102607579.90545  25057820.740    25057817.540          44.250
        31.500
 117603389.613 8  91639006.62947  22379179.320    22379177.100          49.000
        42.750
 122877681.113 7  95748839.31646  23382844.680    23382841.660          45.250
        39.750
 121613441.226 7  94763700.09946  23142267.740    23142263.000          47.750
        41.750
 119654210.278 8  93237027.22446  22769439.180    22769433.880          48.250
        40.750
 108585967.850 8  84612427.64348  20663219.500    20663217.040          51.250
        50.750
 109804200.921 8  85561697.77048  20895040.720    20895037.060          51.000
        49.500
 125917035.252 7  98117160.38845  23961215.160    23961212.000          44.000
        35.250
 128909055.395 7 100448599.18445  24530576.600    24530574.020          43.500
        35.500
 10  6 20  0 54  0.0000000  0 10G05G12G30G16G02G23G29G31G13G10
 134077068.503 7 104475619.59346  25514015.920    25514013.960          42.500
        38.000
 131795872.683 7 102698074.32645  25079920.560    25079917.320          44.500
        31.750
 117685491.757 8  91702982.32447  22394802.860    22394800.520          49.250
        42.500
 122772675.927 7  95667017.09346  23362862.940    23362859.700          45.000
        39.750
 121674608.809 7  94811363.17746  23153907.600    23153902.820          47.750
        41.250
 119630679.240 8  93218691.35746  22764961.400    22764956.060          48.500
        41.250
 108573492.771 8  84602706.80648  20660845.580    20660843.120          51.250
        50.750
 109851353.364 8  85598439.92548  20904013.560    20904009.880          51.000
        49.500
 125839190.604 7  98056502.23545  23946401.760    23946398.560          44.000
        35.250
 128843196.479 7 100397280.56546  24518044.060    24518041.480          43.000
        36.000
 10  6 20  0 54 30.0000000  0 11G05G12G30G04G16G02G23G29G31G13G10
 133979663.136 7 104399719.36946  25495480.260    25495478.260          43.750
        38.250
 131912072.616 7 102788619.66544  25102032.820    25102029.440          44.500
        29.000
 117767887.507 8  91767186.78047  22410482.360    22410479.880          49.250
        42.750
 133700569.482 6 104182254.69745  25442372.480    25442370.320          36.000
        35.500
 122667866.355 7  95585347.30946  23342918.320    23342915.120          44.750
        38.500
 121736288.119 7  94859424.98746  23165644.740    23165639.980          47.500
        41.250
 119607765.144 8  93200836.20546  22760601.040    22760595.640          48.500
        41.250
 108561629.051 8  84593462.36348  20658588.000    20658585.540          51.250
        50.750
 109899111.484 8  85635654.03248  20913101.640    20913097.960          51.000
        49.750
 125761781.564 7  97996183.50345  23931671.320    23931668.020          43.750
        33.500
 128777765.901 6 100346295.70546  24505592.940    24505590.520          41.750
        36.000
 10  6 20  0 55  0.0000000  0 11G05G12G30G04G16G02G23G29G31G13G10
 133882461.150 7 104323977.64346  25476983.480    25476981.240          43.750
        38.000
 132028332.498 7 102879211.72644  25124156.460    25124153.160          43.750
        28.500
 117850572.151 8  91831616.35047  22426216.760    22426214.360          49.250
        42.750
 133796130.226 6 104256717.62645  25460557.560    25460555.300          39.000
        34.750
 122563252.527 7  95503830.03646  23323010.900    23323007.820          45.250
        38.750
 121798473.650 7  94907881.24346  23177478.140    23177473.460          47.500
        41.500
 119585465.322 8  93183459.72346  22756357.460    22756352.160          48.500
        41.000
 108550373.558 8  84584691.86048  20656446.180    20656443.680          51.250
        50.750
 109947470.627 8  85673336.49048  20922304.080    20922300.440          51.000
        49.500
 125684807.783 7  97936203.93745  23917023.620    23917020.520          44.000
        34.500
 128712763.043 6 100295644.15246  24493223.140    24493220.800          41.750
        36.500
 10  6 20  0 55 30.0000000  0 11G05G12G30G04G16G02G23G29G31G13G10
 133785468.724 7 104248399.16445  25458526.480    25458524.160          43.750
        35.750
 132144653.231 7 102969851.19945  25146291.660    25146288.420          43.750
        31.750
 117933547.340 8  91896272.29547  22442006.340    22442004.180          49.000
        43.000
 133891928.020 6 104331365.21745  25478787.740    25478784.680          41.250
        32.500
 122458839.284 7  95422469.11146  23303141.720    23303138.700          45.000
        39.500
 121861166.591 7  94956732.87346  23189408.200    23189403.520          47.500
        40.750
 119563783.995 8  93166565.17746  22752231.620    22752226.300          48.250
        41.500
 108539729.521 8  84576397.81548  20654420.700    20654418.160          51.250
        50.750
 109996432.712 8  85711488.77848  20931621.280    20931617.600          51.000
        49.500
 125608274.429 7  97876567.58445  23902459.880    23902456.800          44.750
        34.250
 128648193.161 7 100245329.96745  24480935.960    24480933.540          43.000
        35.000
 10  6 20  0 56  0.0000000  0 12G05G12G30G04G21G16G02G23G29G31G13G10
 133688685.645 7 104172983.84146  25440109.260    25440106.900          42.750
        37.750
 132261030.555 7 103060534.79944  25168437.560    25168434.380          42.750
        24.500
 118016808.677 8  91961151.20147  22457850.500    22457848.300          49.250
        43.000
 133987957.403 6 104406193.26146  25497061.640    25497058.320          41.500
        36.500
 133855010.032 6 104302580.64344  25471761.300    25471757.340          39.750
        25.000
 122354625.204 7  95341263.32446  23283310.460    23283307.360          45.000
        40.000
 121924361.679 7  95005975.80546  23201433.860    23201429.140          47.250
        41.250
 119542718.954 8  93150150.83746  22748223.040    22748217.780          48.250
        40.750
 108529694.229 8  84568578.11748  20652511.000    20652508.480          51.250
        50.750
 110045993.235 8  85750107.37048  20941052.340    20941048.660          51.000
        49.500
 125532181.227 7  97817274.18045  23887979.820    23887976.800          44.250
        35.250
 128584055.705 7 100195352.73346  24468731.160    24468728.660          43.500
        37.000
 10  6 20  0 56 30.0000000  0 12G05G12G30G04G21G16G02G23G29G31G13G10
 133592120.769 6 104097738.54546  25421733.620    25421731.180          41.000
        38.000
 132377468.867 6 103151265.81843  25190595.060    25190592.080          41.750
        23.250
 118100359.991 8  92026256.06447  22473749.880    22473747.580          49.000
        43.000
 134084221.363 6 104481204.11645  25515380.020    25515376.920          39.250
        32.250
 133731126.602 7 104206048.32545  25448186.880    25448182.620          42.250
        30.750
 122250618.268 7  95260219.01946  23263518.500    23263515.500          45.000
        40.250
 121988062.525 7  95055612.83046  23213555.740    23213550.920          47.250
        40.750
 119522276.703 8  93134221.82346  22744333.000    22744327.780          48.500
        41.000
 108520273.480 8  84561237.28248  20650718.260    20650715.760          51.250
        50.750
 110096156.784 8  85789195.84648  20950598.120    20950594.480          51.000
        49.500
 125456536.504 7  97758330.22246  23873585.040    23873581.880          44.250
        36.250
 128520358.685 7 100145718.70146  24456609.940    24456607.760          43.000
        37.000
 10  6 20  0 57  0.0000000  0 12G05G12G30G04G21G16G02G23G29G31G13G10
 133495772.757 6 104022662.23146  25403399.000    25403396.660          39.500
        37.000
 132493962.291 7 103242039.99342  25212763.140    25212758.880          43.250
        15.250
 118184196.052 8  92091582.82847  22489703.380    22489701.120          49.000
        42.750
 134180713.284 7 104556392.65245  25533741.560    25533738.960          42.750
        32.750
 133607243.907 7 104109530.29345  25424612.860    25424610.800          42.750
        32.500
 122146816.282 7  95179334.34346  23243765.680    23243762.540          45.000
        40.500
 122052263.252 7  95105639.38146  23225772.760    23225767.800          47.500
        40.750
 119502453.566 8  93118775.22946  22740560.780    22740555.520          48.250
        41.250
 108511463.126 8  84554372.06948  20649041.680    20649039.180          51.250
        50.750
 110146917.450 8  85828749.61948  20960257.500    20960253.920          51.000
        49.500
 125381338.597 7  97699734.45845  23859275.360    23859272.240          44.000
        34.500
 128457100.305 7 100096426.46346  24444572.340    24444570.300          43.500
        37.000
 10  6 20  0 57 30.0000000  0 12G05G12G30G04G21G16G02G23G29G31G13G10
 133399641.689 6 103947754.92445  25385105.600    25385103.320          37.000
        35.000
 132610505.961 6 103332845.23744  25234940.660    25234937.200          41.750
        24.500
 118268312.081 8  92157127.76547  22505710.140    22505708.000          49.000
        42.500
 134277427.708 6 104631754.50045  25552145.400    25552143.240          40.500
        34.500
 133483361.601 6 104012998.55544  25401038.340    25401035.640          41.500
        29.250
 122043217.738 7  95098608.19446  23224051.600    23224048.460          45.250
        39.500
 122116957.738 7  95156050.68146  23238083.700    23238078.820          47.500
        40.750
 119483247.378 8  93103809.37946  22736905.980    22736900.720          48.500
        41.500
 108503260.226 8  84547980.19748  20647480.740    20647478.240          51.250
        50.750
 110198270.482 8  85868764.97548  20970029.640    20970026.080          51.000
        49.500
 125306586.984 7  97641486.48345  23845050.500    23845047.420          43.500
        34.000
 128394279.503 7 100047475.19946  24432618.040    24432615.820          43.250
        36.750
 10  6 20  0 58  0.0000000  0 12G05G12G30G04G21G16G02G23G29G31G13G10
 133303736.504 6 103873023.63345  25366855.320    25366853.460          37.250
        35.000
 132727104.478 6 103423701.14044  25257128.660    25257125.180          41.000
        27.250
 118352712.916 8  92222894.64347  22521771.120    22521769.000          49.000
        42.750
 134374368.372 7 104707292.69645  25570592.480    25570590.640          42.250
        32.000
 133359488.207 6 103916473.86344  25377465.920    25377463.140          41.000
        27.000
 121939830.638 7  95018046.85246  23204377.540    23204374.440          45.500
        40.000
 122182150.119 7  95206849.94746  23250489.380    23250484.620          47.250
        40.500
 119464665.003 8  93089329.58746  22733369.960    22733364.580          48.500
        41.000
 108495671.072 8  84542066.56048  20646036.560    20646034.080          51.250
        50.750
 110250220.964 8  85909245.87248  20979915.480    20979911.900          51.000
        49.500
 125232290.281 7  97583592.92746  23830912.400    23830909.260          43.500
        37.250
 128331904.784 7  99998871.52646  24420748.440    24420746.120          43.250
        36.500
 10  6 20  0 58 30.0000000  0 12G05G12G30G04G21G16G02G23G29G31G13G10
 133208038.492 6 103798464.97445  25348646.940    25348645.400          36.750
        33.500
 132843747.389 6 103514591.57944  25279325.120    25279321.840          38.250
        27.750
 118437388.162 8  92288875.36547  22537884.200    22537882.060          49.000
        42.000
 134471524.054 6 104782998.36946  25589080.560    25589078.740          41.500
        36.500
 133235617.644 7 103819951.34445  25353894.220    25353891.300          43.000
        33.500
 121836648.894 7  94937645.54346  23184742.700    23184739.640          45.250
        39.250
 122247829.877 7  95258028.98246  23262987.700    23262983.060          47.250
        40.250
 119446698.281 8  93075329.55646  22729950.940    22729945.620          48.250
        40.750
 108488687.038 8  84536624.44548  20644707.540    20644705.060          51.250
        50.750
 110302758.667 8  85950184.34248  20989913.040    20989909.520          51.000
        49.500
 125158442.145 7  97526048.92745  23816859.580    23816856.400          44.250
        34.000
 128269969.947 7  99950610.63346  24408962.560    24408960.400          43.500
        36.750
 10  6 20  0 59  0.0000000  0 11G05G30G04G21G16G02G23G29G31G13G10
 133112570.781 6 103724075.39345  25330480.140    25330478.700          36.250
        34.750
 118522331.696 8  92355065.15246  22554048.480    22554046.140          49.000
        41.750
 134568887.365 7 104858865.85745  25607608.280    25607606.320          42.000
        35.250
 133111747.585 7 103723429.18145  25330322.700    25330319.960          43.500
        34.000
 121733669.067 7  94857401.53446  23165146.200    23165143.040          45.000
        40.250
 122313989.749 7  95309582.13946  23275577.440    23275572.680          47.000
        39.250
 119429343.274 8  93061806.18046  22726648.320    22726643.180          48.250
        40.750
 108482303.349 8  84531650.13948  20643492.800    20643490.300          51.250
        50.750
 110355877.004 8  85991575.24648  21000021.140    21000017.620          51.000
        49.500
 125085040.430 7  97468852.80045  23802891.660    23802888.620          44.000
        35.250
 128208472.120 7  99902690.23946  24397259.900    24397257.780          43.500
        36.500
 10  6 20  0 59 30.0000000  0 11G05G30G04G21G16G02G23G29G31G13G10
 133017360.437 6 103649883.57646  25312362.380    25312360.380          38.500
        36.500
 118607576.913 8  92421490.02346  22570270.200    22570267.720          49.000
        41.250
 134666491.214 6 104934920.79945  25626181.760    25626179.380          41.000
        33.750
 132987916.119 7 103626937.16345  25306758.500    25306755.400          43.750
        34.500
 121630928.029 7  94777343.55346  23145595.180    23145592.120          45.250
        39.750
 122380662.628 7  95361535.04646  23288264.860    23288259.960          47.500
        39.750
 119412635.553 8  93048787.19046  22723468.960    22723463.900          48.250
        41.500
 108476554.653 8  84527170.62748  20642398.900    20642396.380          51.250
        51.000
 110409609.345 8  86033444.59848  21010246.100    21010242.540          51.000
        49.500
 125012122.548 7  97412033.69845  23789015.760    23789012.740          44.250
        34.750
 128147448.512 7  99855139.37845  24385647.520    24385645.380          43.750
        35.750
 10  6 20  1  0  0.0000000  0 12G05G12G30G04G21G16G02G23G29G31G13G10
 132922399.479 6 103575888.31146  25294291.740    25294289.940          38.750
        36.500
 133194003.733 5 103787521.64445  25345975.680    25345971.780          35.750
        34.500
 118693111.515 8  92488140.38447  22586546.820    22586544.360          48.500
        42.000
 134764322.612 6 105011153.03645  25644798.460    25644796.140          39.500
        33.000
 132864115.171 7 103530468.89245  25283199.960    25283197.040          43.000
        32.750
 121528417.421 7  94697465.17446  23126087.980    23126084.960          45.000
        40.250
 122447835.650 7  95413877.65846  23301047.540    23301042.580          47.250
        39.750
 119396564.967 8  93036264.65446  22720410.800    22720405.760          48.500
        41.250
 108471430.673 8  84523177.91548  20641423.860    20641421.280          51.500
        50.750
 110463943.816 8  86075783.15948  21020585.600    21020582.060          51.000
        49.500
 124939680.363 7  97355585.23445  23775230.580    23775227.380          44.500
        35.250
 128086890.912 7  99807951.63246  24374123.760    24374121.520          43.750
        38.000
 10  6 20  1  0 30.0000000  0 11G05G30G04G21G16G02G23G29G31G13G10
 132827653.993 6 103502060.65745  25276262.460    25276260.300          39.750
        33.750
 118778898.723 8  92554987.56247  22602871.580    22602869.160          48.750
        42.000
 134862343.635 6 105087533.00745  25663451.260    25663448.980          41.750
        34.000
 132740312.035 7 103433998.88745  25259641.040    25259637.880          43.750
        32.000
 121426104.172 7  94617740.55446  23106618.440    23106615.340          45.500
        41.000
 122515471.388 7  95466580.82646  23313918.220    23313913.340          47.250
        40.500
 119381097.025 8  93024211.70046  22717467.380    22717462.280          48.250
        41.250
 108466896.305 8  84519644.66048  20640561.000    20640558.440          51.500
        50.750
 110518843.676 8  86118562.26948  21031032.720    21031029.220          51.000
        49.500
 124867680.985 7  97299481.83746  23761529.560    23761526.500          44.500
        37.250
 128026766.428 7  99761101.39246  24362682.500    24362680.200          44.500
        37.750
 10  6 20  1  1  0.0000000  0 11G05G30G04G21G16G02G23G29G31G13G10
 132733150.985 6 103428421.96445  25258279.160    25258276.840          40.250
        33.750
 118864960.639 8  92622048.79547  22619248.580    22619246.280          48.500
        42.000
 134960575.293 7 105164077.10945  25682144.100    25682142.100          42.000
        34.250
 132616532.777 7 103337547.48945  25236086.760    25236083.420          44.000
        33.250
 121324012.930 7  94538188.94346  23087191.180    23087188.000          45.500
        40.500
 122583590.497 7  95519660.65446  23326880.860    23326876.100          47.000
        41.250
 119366255.438 8  93012646.83646  22714643.140    22714637.960          48.000
        41.250
 108462974.302 8  84516588.55748  20639814.660    20639812.100          51.500
        50.750
 110574330.337 8  86161798.63248  21041591.480    21041587.960          51.000
        49.500
 124796150.136 7  97243743.49946  23747917.700    23747914.600          44.500
        36.000
 127967100.663 7  99714608.56446  24351328.540    24351326.200          44.500
        36.500
 10  6 20  1  1 30.0000000  0 11G05G30G04G21G16G02G23G29G31G13G10
 132638880.964 6 103354962.11745  25240340.040    25240337.340          38.500
        35.750
 118951281.885 8  92689312.08347  22635674.960    22635672.740          48.750
        42.000
 135059001.705 6 105240773.04045  25700873.940    25700872.280          39.750
        33.000
 132492766.358 7 103241106.07245  25212534.740    25212531.080          42.000
        33.750
 121222132.690 7  94458801.76646  23067804.020    23067800.860          45.500
        40.250
 122652177.386 7  95573104.97346  23339932.580    23339927.880          47.500
        40.500
 119352027.156 8  93001559.87746  22711935.580    22711930.460          48.500
        40.750
 108459651.348 8  84513999.24348  20639182.320    20639179.780          51.500
        51.000
 110630388.617 8  86205480.39748  21052258.940    21052255.460          51.000
        49.250
 124725076.793 7  97188361.67946  23734392.840    23734389.780          44.500
        36.000
 127907881.899 7  99668464.07146  24340059.640    24340057.460          44.250
        37.500
 10  6 20  1  2  0.0000000  0 10G05G30G21G16G02G23G29G31G13G10
 132544880.348 6 103281714.81845  25222452.240    25222449.200          39.000
        31.000
 119037896.475 8  92756803.96147  22652157.140    22652154.960          48.500
        42.250
 132369051.365 6 103144704.75844  25188992.480    25188988.840          41.500
        29.750
 121120500.724 7  94379608.05346  23048464.180    23048461.020          45.750
        40.000
 122721265.169 7  95626939.61346  23353079.600    23353074.760          47.500
        40.250
 119338447.898 8  92990978.62946  22709351.560    22709346.460          48.250
        41.500
 108456962.391 8  84511903.95048  20638670.620    20638668.060          51.500
        50.750
 110687052.345 8  86249633.94348  21063041.660    21063038.160          51.000
        49.250
 124654498.939 7  97133365.97746  23720962.380    23720959.340          44.500
        37.000
 127849147.579 7  99622697.08746  24328882.880    24328880.720          43.750
        36.750
 10  6 20  1  2 30.0000000  0 11G05G12G30G21G16G02G23G29G31G13G10
 132451119.033 6 103208654.13745  25204610.000    25204607.000          40.750
        32.500
 133778590.531 6 104243045.45145  25457219.040    25457217.240          38.250
        35.500
 119124769.022 8  92824496.83046  22668688.460    22668686.200          48.750
        41.500
 132245356.188 7 103048318.86745  25165454.080    25165450.560          42.000
        33.000
 121019084.331 7  94300582.27146  23029165.280    23029162.020          45.500
        40.000
 122790817.298 7  95681136.08546  23366314.920    23366309.960          46.750
        40.500
 119325484.385 8  92980877.18446  22706884.720    22706879.600          48.500
        41.500
 108454873.452 8  84510276.20748  20638273.140    20638270.540          51.500
        51.000
 110744285.854 8  86294231.47848  21073932.840    21073929.280          51.000
        49.250
 124584384.727 7  97078731.55546  23707620.180    23707616.980          44.750
        36.000
 127790866.143 7  99577282.96246  24317792.280    24317790.160          44.000
        37.500
 10  6 20  1  3  0.0000000  0 11G05G12G30G21G16G02G23G29G31G13G10
 132357610.837 6 103135790.66545  25186815.880    25186813.240          40.250
        35.000
 133895625.497 6 104334241.47045  25479490.100    25479487.560          38.000
        32.250
 119211908.638 8  92892397.84846  22685270.620    22685268.280          48.250
        41.500
 132121694.646 6 102951959.16845  25141922.160    25141918.780          40.250
        35.500
 120917897.306 7  94221735.26846  23009910.000    23009906.820          45.500
        40.250
 122860842.873 7  95735701.45846  23379640.240    23379635.480          46.500
        41.000
 119313148.218 8  92971264.58646  22704537.300    22704532.020          48.250
        41.250
 108453395.376 8  84509124.46348  20637991.880    20637989.260          51.500
        50.750
 110802098.180 8  86339280.03648  21084934.220    21084930.660          51.000
        49.250
 124514747.267 7  97024468.61646  23694368.560    23694365.500          44.750
        36.000
 127733050.422 7  99532231.76746  24306790.300    24306787.920          43.750
        37.250
 10  6 20  1  3 30.0000000  0 11G05G12G30G21G16G02G23G29G31G13G10
 132264357.828 6 103063125.98145  25169070.380    25169067.760          41.750
        32.500
 134012695.094 6 104425464.45145  25501767.760    25501765.560          39.000
        34.750
 119299313.183 8  92960505.28446  22701903.180    22701900.800          48.500
        41.750
 131998068.846 6 102855627.38745  25118396.880    25118393.760          38.750
        34.500
 120816940.437 7  94143067.57746  22990698.600    22990695.380          45.750
        40.750
 122931338.612 7  95790633.19746  23393055.080    23393050.460          46.750
        41.250
 119301438.866 8  92962140.42146  22702309.180    22702303.760          48.750
        40.750
 108452527.165 8  84508447.94448  20637826.680    20637824.040          51.500
        51.000
 110860487.255 8  86384778.00648  21096045.300    21096041.760          51.000
        49.250
 124445589.219 7  96970579.24246  23681208.140    23681205.020          44.750
        36.750
 127675701.988 7  99487544.67846  24295877.200    24295875.060          43.750
        37.750
 10  6 20  1  4  0.0000000  0 11G05G12G30G21G16G02G23G29G31G13G10
 132171361.079 6 102990661.01845  25151373.560    25151371.120          40.500
        32.000
 134129796.092 6 104516712.11545  25524051.360    25524048.900          40.000
        34.250
 119386979.233 8  93028816.50046  22718585.520    22718583.140          48.500
        41.500
 131874479.753 6 102759324.13845  25094878.800    25094875.560          38.500
        35.000
 120716213.751 7  94064579.27146  22971531.000    22971527.720          45.750
        40.750
 123002299.997 7  95845927.80046  23406558.560    23406553.920          47.000
        41.000
 119290354.557 8  92953503.29046  22700199.840    22700194.420          48.500
        40.750
 108452266.812 8  84508245.06948  20637777.180    20637774.520          51.500
        51.000
 110919448.827 8  86430722.07648  21107265.320    21107261.820          51.000
        49.250
 124376909.626 7  96917062.66946  23668138.860    23668135.700          44.500
        36.250
 127618820.728 7  99443221.60446  24285053.060    24285050.840          44.000
        37.500
 10  6 20  1  4 30.0000000  0 11G05G12G30G21G16G02G23G29G31G13G10
 132078627.505 6 102918401.10845  25133726.820    25133724.580          41.250
        33.000
 134246930.391 6 104607985.65845  25546341.160    25546338.680          37.750
        32.750
 119474909.169 8  93097333.33347  22735318.000    22735315.760          48.250
        42.000
 131750934.042 5 102663054.77744  25071369.160    25071365.520          35.750
        29.500
 120615723.056 7  93986274.82546  22952408.280    22952404.960          46.250
        40.750
 123073728.717 7  95901586.54146  23420150.980    23420146.400          46.750
        40.500
 119279899.777 8  92945356.70446  22698210.220    22698204.980          48.250
        41.000
 108452617.825 8  84508518.59248  20637843.920    20637841.320          51.500
        51.000
 110978985.291 8  86477114.12248  21118594.720    21118591.240          51.000
        49.250
 124308714.839 7  96863923.88146  23655161.820    23655158.740          45.500
        36.750
 127562412.602 7  99399267.23446  24274318.820    24274316.680          44.000
        38.250
 10  6 20  1  5  0.0000000  0 10G05G12G30G16G02G23G29G31G13G10
 131986157.838 6 102846346.87245  25116130.600    25116128.220          41.250
        34.500
 134364094.187 6 104699282.12045  25568636.600    25568633.960          38.250
        35.000
 119563099.016 8  93166052.71546  22752099.900    22752097.680          48.250
        41.250
 120515467.870 7  93908153.89746  22933330.400    22933327.060          46.250
        40.750
 123145620.300 7  95957605.95146  23433831.480    23433826.920          46.500
        40.500
 119270072.576 8  92937699.14346  22696340.100    22696334.900          48.250
        41.250
 108453577.523 8  84509266.39448  20638026.500    20638023.920          51.500
        50.750
 111039092.968 8  86523951.28048  21130032.900    21130029.340          51.000
        49.250
 124241005.491 7  96811163.33346  23642277.240    23642274.120          45.000
        37.000
 127506477.647 7  99355681.55546  24263674.760    24263672.580          44.750
        37.000
 10  6 20  1  5 30.0000000  0 10G05G12G30G16G02G23G29G31G13G10
 131893955.637 6 102774500.97845  25098585.160    25098582.620          41.000
        35.250
 134481287.355 6 104790601.47545  25590937.800    25590934.780          38.500
        31.250
 119651548.134 8  93234974.13246  22768931.200    22768928.780          48.250
        40.250
 120415450.664 7  93830218.40646  22914297.780    22914294.400          46.500
        40.250
 123217972.803 7  96013984.50446  23447599.720    23447595.080          46.500
        40.500
 119260873.978 8  92930531.40146  22694589.660    22694584.540          48.250
        41.250
 108455146.832 8  84510489.22048  20638325.140    20638322.540          51.500
        51.000
 111099770.377 8  86571232.36448  21141579.480    21141575.820          51.000
        49.250
 124173784.501 7  96758783.36246  23629485.380    23629482.400          44.500
        36.750
 127451018.520 7  99312466.65746  24253121.240    24253119.120          44.500
        36.500
 10  6 20  1  6  0.0000000  0 10G05G12G30G16G02G23G29G31G13G10
 131802023.760 6 102702865.79245  25081091.160    25081088.720          41.500
        35.750
 134598507.601 5 104881941.95845  25613243.700    25613241.320          33.750
        31.750
 119740254.502 8  93304095.99846  22785811.400    22785809.060          48.000
        40.750
 120315674.067 7  93752470.41746  22895310.940    22895307.580          46.250
        40.500
 123290783.766 7  96070720.30546  23461455.180    23461450.540          47.000
        41.000
 119252304.201 8  92923853.65446  22692958.900    22692953.800          48.250
        41.250
 108457325.194 8  84512186.63748  20638739.740    20638737.120          51.500
        51.000
 111161015.687 8  86618955.97448  21153234.080    21153230.440          51.000
        49.000
 124107054.006 7  96706785.58446  23616786.960    23616783.920          45.000
        36.000
 127396037.233 7  99269624.08346  24242658.720    24242656.520          44.250
        37.500
 10  6 20  1  6 30.0000000  0 11G05G12G30G21G16G02G23G29G31G13G10
 131710375.213 7 102631451.41245  25063650.900    25063648.520          42.250
        33.750
 134715764.027 6 104973310.58643  25635557.000    25635554.260          37.250
        22.500
 119829227.339 8  93373425.48146  22802742.320    22802739.980          48.250
        41.000
 131257225.341 5 102278349.22345  24977419.040    24977416.540          34.750
        30.000
 120216149.789 7  93674919.03546  22876372.100    22876368.820          46.250
        41.000
 123364061.024 7  96127819.45946  23475399.460    23475394.760          46.750
        41.000
 119244373.559 8  92917673.94346  22691449.820    22691444.700          48.750
        41.000
 108460122.236 8  84514366.14848  20639271.980    20639269.380          51.250
        51.000
 111222837.435 8  86667128.76348  21164998.340    21164994.720          51.000
        49.000
 124040826.699 7  96655179.88246  23604184.320    23604181.300          44.500
        36.750
 127341546.301 7  99227163.62846  24232289.460    24232287.260          44.250
        38.250
 10  6 20  1  7  0.0000000  0 11G05G12G30G21G16G02G23G29G31G13G10
 131618983.620 7 102560237.21445  25046259.600    25046257.260          43.500
        33.500
 134833025.679 5 105064683.31843  25657870.980    25657868.780          30.500
        21.750
 119918435.098 8  93442938.02746  22819718.060    22819715.720          48.000
        41.500
 131133921.173 5 102182265.07244  24953956.060    24953953.600          35.500
        26.750
 120116850.455 7  93597542.94246  22857476.080    22857472.720          46.250
        41.250
 123437772.689 7  96185257.09946  23489426.380    23489421.700          46.750
        40.500
 119237052.942 8  92911969.56246  22690056.860    22690051.600          48.500
        41.250
 108463508.492 8  84517004.78548  20639916.300    20639913.760          51.250
        50.750
 111285204.248 8  86715726.26948  21176866.380    21176862.760          51.000
        49.000
 123975075.238 7  96603944.98546  23591672.260    23591669.260          44.500
        36.750
 127287517.624 7  99185063.36146  24222008.200    24222005.880          44.750
        37.750
 10  6 20  1  7 30.0000000  0 11G05G12G30G21G16G02G23G29G31G13G10
 131527883.812 7 102489250.36445  25028923.840    25028921.580          44.000
        35.500
 134950323.465 5 105156084.04144  25680191.980    25680188.800          32.500
        28.000
 120007908.517 8  93512657.56446  22836744.280    22836742.020          48.000
        41.500
 131010688.647 6 102086239.65644  24930506.440    24930503.540          39.000
        27.500
 120017810.186 7  93520368.70546  22838629.380    22838625.980          46.500
        41.000
 123511948.445 7  96243056.39646  23503541.720    23503536.840          46.750
        40.250
 119230374.470 8  92906765.56846  22688786.000    22688780.780          48.500
        41.500
 108467515.695 8  84520127.26948  20640678.800    20640676.320          51.250
        51.000
 111348146.167 8  86764771.91348  21188843.820    21188840.240          51.000
        48.750
 123909833.720 7  96553107.43346  23579257.220    23579254.100          44.500
        38.250
 127233985.458 7  99143349.96346  24211821.480    24211818.960          44.750
        37.000
 10  6 20  1  8  0.0000000  0 10G05G30G21G16G02G23G29G31G13G10
 131437067.569 7 102418484.47245  25011642.140    25011639.600          45.000
        34.250
 120097634.721 8  93582574.09946  22853818.660    22853816.420          48.500
        41.250
 130887519.381 6 101990263.64942  24907068.180    24907064.140          39.500
        12.750
 119919019.219 7  93443388.74146  22819830.120    22819826.640          46.500
        41.250
 123586574.570 7  96301206.63146  23517742.560    23517737.680          47.000
        40.000
 119224327.403 8  92902053.57246  22687635.220    22687630.080          48.250
        41.500
 108472131.855 8  84523724.27648  20641557.200    20641554.760          51.250
        51.000
 111411650.171 8  86814255.52948  21200928.260    21200924.640          50.750
        48.750
 123845093.294 7  96502660.38046  23566937.480    23566934.560          44.750
        36.750
 127180940.964 7  99102016.59146  24201727.380    24201724.900          44.750
        38.750
 10  6 20  1  8 30.0000000  0 10G05G30G21G16G02G23G29G31G13G10
 131346524.482 7 102347931.40545  24994412.420    24994409.540          44.500
        35.750
 120187599.008 8  93652676.14246  22870938.340    22870936.060          48.250
        41.250
 130764403.217 6 101894328.81643  24883639.920    24883636.160          41.250
        23.750
 119820466.848 7  93366594.69246  22801076.200    22801072.760          46.750
        41.250
 123661635.397 7  96359695.58446  23532026.180    23532021.240          47.000
        41.250
 119218898.434 8  92897823.19946  22686602.060    22686597.020          48.500
        40.750
 108477343.455 8  84527785.25948  20642548.940    20642546.440          51.250
        50.750
 111475700.908 8  86864165.18248  21213116.720    21213113.060          50.750
        48.750
 123780843.144 7  96452595.33046  23554711.080    23554708.060          44.750
        36.500
 127128372.332 7  99061054.03146  24191724.020    24191721.600          44.500
        38.000
 10  6 20  1  9  0.0000000  0 10G05G30G21G16G02G23G29G31G13G10
 131256278.379 7 102277609.76846  24977239.200    24977236.320          45.000
        37.250
 120277820.720 8  93722978.77546  22888107.000    22888104.660          48.000
        40.750
 130641363.753 6 101798453.79944  24860226.520    24860223.360          41.000
        25.000
 119722176.000 7  93290004.40946  22782372.140    22782368.660          47.000
        41.250
 123737149.642 7  96418537.86146  23546396.060    23546391.140          47.000
        41.000
 119214108.461 8  92894090.74646  22685690.600    22685685.520          48.750
        41.250
 108483171.329 8  84532326.44948  20643658.000    20643655.460          51.500
        51.000
 111540317.817 8  86914516.01848  21225412.860    21225409.220          50.750
        48.500
 123717106.125 7  96402930.11246  23542582.260    23542579.440          45.250
        36.750
 127076302.448 7  99020480.09546  24181815.460    24181813.080          44.750
        38.000
 10  6 20  1  9 30.0000000  0 10G05G30G21G16G02G23G29G31G13G10
 131166321.793 7 102207513.76046  24960121.040    24960118.360          44.250
        36.750
 120368287.698 7  93793472.50846  22905322.220    22905319.900          47.750
        40.500
 130518393.551 6 101702632.79441  24836826.060    24836821.880          41.000
        11.250
 119624137.801 7  93213611.01746  22763716.080    22763712.620          46.750
        41.250
 123813103.999 7  96477723.06546  23560849.680    23560844.980          46.750
        40.500
 119209947.511 8  92890848.45146  22684898.820    22684893.600          48.500
        41.250
 108489604.178 8  84537339.05348  20644882.140    20644879.620          51.250
        50.750
 111605488.352 8  86965298.25848  21237814.380    21237810.760          50.750
        48.750
 123653874.083 7  96353658.38346  23530549.700    23530546.900          45.250
        36.500
 127024723.048 7  98980288.35746  24172000.080    24171997.740          44.500
        38.250
 10  6 20  1 10  0.0000000  0 10G05G30G21G16G02G23G29G31G13G10
 131076660.801 7 102137648.07546  24943059.060    24943056.360          43.250
        38.500
 120459001.597 7  93864158.64546  22922584.500    22922582.120          47.750
        40.250
 130395498.721 6 101606870.54244  24813439.800    24813436.120          41.000
        27.250
 119526357.377 7  93137418.49146  22745108.980    22745105.660          47.250
        41.750
 123889499.306 7  96537251.87046  23575387.180    23575382.560          46.250
        41.000
 119206418.805 8  92888098.79446  22684227.400    22684222.040          48.500
        41.000
 108496644.959 8  84542825.35948  20646222.000    20646219.500          51.250
        51.000
 111671213.612 8  87016512.74348  21250321.440    21250317.920          50.750
        48.750
 123591152.602 7  96304784.49246  23518614.220    23518611.120          45.250
        37.000
 126973639.234 7  98940482.77846  24162279.080    24162276.780          45.250
        38.250
 10  6 20  1 10 30.0000000  0 10G05G30G21G16G02G23G29G31G13G10
 130987295.087 7 102068012.50046  24926053.160    24926050.740          43.000
        38.750
 120549957.708 8  93935033.52446  22939892.820    22939890.440          48.000
        40.500
 130272679.080 6 101511166.96544  24790067.880    24790063.740          39.750
        27.500
 119428833.959 7  93061426.21746  22726550.920    22726547.520          47.250
        41.500
 123966330.129 7  96597120.05446  23590007.660    23590002.940          46.500
        40.000
 119203519.084 8  92885839.28946  22683675.520    22683670.240          48.250
        41.250
 108504290.011 8  84548782.54348  20647676.820    20647674.320          51.500
        50.750
 111737488.427 8  87068155.45048  21262933.080    21262929.600          50.500
        48.500
 123528940.896 7  96256307.85246  23506775.720    23506772.880          45.000
        37.000
 126923049.607 7  98901062.28746  24152652.280    24152650.060          45.250
        37.750
 10  6 20  1 11  0.0000000  0 10G05G30G21G16G02G23G29G31G13G10
 130898228.458 7 101998609.95546  24909104.180    24909101.960          42.000
        39.500
 120641155.365 7  94006096.63746  22957247.200    22957244.840          47.750
        40.250
 130149938.384 6 101415524.86244  24766711.100    24766707.260          40.250
        25.750
 119331569.718 7  92985635.89846  22708042.120    22708038.720          47.250
        40.750
 124043594.592 7  96657326.14146  23604710.500    23604705.840          46.000
        40.250
 119201248.917 8  92884070.31346  22683243.500    22683238.280          48.500
        40.750
 108512539.447 8  84555210.66848  20649246.660    20649244.140          51.500
        51.000
 111804311.757 8  87120225.54948  21275649.120    21275645.700          50.750
        48.500
 123467241.241 7  96208230.18445  23495034.740    23495031.740          45.250
        35.500
 126872956.872 7  98862028.98946  24143119.940    24143117.800          45.000
        37.500
 10  6 20  1 11 30.0000000  0 10G05G30G21G16G02G23G29G31G13G10
 130809465.512 7 101929444.06146  24892213.080    24892210.940          43.750
        38.500
 120732594.813 7  94077348.14746  22974647.540    22974645.180          47.500
        40.000
 130027281.486 6 101319948.14645  24743369.960    24743366.140          39.250
        30.750
 119234568.971 7  92910050.92446  22689583.440    22689580.100          47.250
        41.000
 124121292.370 7  96717869.86046  23619495.720    23619491.200          45.500
        40.250
 119199610.801 8  92882793.85046  22682931.800    22682926.520          48.500
        41.250
 108521395.001 8  84562111.10148  20650931.820    20650929.280          51.250
        51.000
 111871683.530 8  87172722.99548  21288469.640    21288466.180          50.750
        48.500
 123406057.974 7  96160554.91046  23483391.960    23483388.820          45.750
        36.750
 126823365.113 7  98823386.07046  24133683.000    24133680.680          45.500
        37.500
 10  6 20  1 12  0.0000000  0 10G05G30G21G16G02G23G29G31G13G10
 130721006.761 7 101860515.20846  24875379.920    24875377.620          43.250
        39.250
 120824271.892 7  94148784.83046  22992093.060    22992090.760          47.250
        40.000
 129904708.551 6 101224436.71745  24720045.300    24720041.280          39.000
        33.500
 119137830.965 7  92834670.65447  22671174.760    22671171.460          47.250
        42.000
 124199417.892 7  96778746.89046  23634362.520    23634357.800          45.750
        40.000
 119198601.848 8  92882007.66246  22682739.800    22682734.580          48.500
        41.500
 108530853.435 8  84569481.31048  20652731.660    20652729.120          51.500
        50.750
 111939599.138 8  87225644.25748  21301393.540    21301390.140          50.750
        48.500
 123345390.708 7  96113281.72946  23471847.360    23471844.240          45.500
        38.500
 126774273.397 7  98785132.78046  24124341.220    24124338.780          45.500
        38.000
 10  6 20  1 12 30.0000000  0 10G05G30G21G16G02G23G29G31G13G10
 130632856.495 7 101791826.69546  24858605.540    24858603.120          42.000
        38.250
 120916186.199 7  94220406.35746  23009583.740    23009581.540          47.500
        40.250
 129782223.769 6 101128994.11045  24696737.180    24696733.280          37.750
        34.500
 119041359.045 7  92759497.73546  22652816.780    22652813.480          47.250
        41.500
 124277970.212 7  96839956.47446  23649310.600    23649305.820          45.750
        39.500
 119198223.335 8  92881712.72446  22682667.800    22682662.540          48.250
        40.750
 108540915.459 8  84577321.83248  20654646.400    20654643.880          51.250
        51.000
 112008057.919 8  87278988.75848  21314420.840    21314417.340          50.750
        48.500
 123285242.925 7  96066413.32546  23460401.560    23460398.680          45.500
        37.000
 126725684.834 7  98747271.55946  24115095.180    24115092.580          45.500
        37.500
 10  6 20  1 13  0.0000000  0 10G05G30G21G16G02G23G29G31G13G10
 130545017.959 6 101723381.09946  24841890.360    24841888.000          41.750
        38.250
 121008337.252 7  94292212.37646  23027119.520    23027117.300          47.750
        40.250
 129659831.003 6 101033623.20745  24673446.560    24673443.180          38.000
        30.750
 118945156.130 7  92684534.42747  22634509.940    22634506.620          47.250
        42.000
 124356947.506 7  96901497.21746  23664339.480    23664334.640          45.750
        39.250
 119198475.829 8  92881909.47646  22682715.860    22682710.580          48.250
        41.250
 108551581.042 8  84585632.67648  20656676.020    20656673.500          51.500
        51.000
 112077058.188 8  87332755.20348  21327551.220    21327547.620          50.750
        48.500
 123225617.135 7  96019951.66446  23449055.040    23449052.240          45.750
        37.250
 126677601.678 7  98709804.17446  24105945.220    24105942.720          45.500
        37.250
 10  6 20  1 13 30.0000000  0 10G05G30G21G16G02G23G29G31G13G10
 130457492.934 6 101655179.80146  24825234.900    24825232.420          40.500
        38.000
 121100722.184 7  94364200.59746  23044699.820    23044697.760          47.750
        40.750
 129537532.131 6 100938325.43845  24650173.940    24650170.760          38.500
        33.250
 118849222.535 7  92609780.97046  22616254.320    22616250.940          47.250
        41.250
 124436346.087 7  96963366.24746  23679448.560    23679443.660          45.750
        38.250
 119199358.047 8  92882596.91346  22682883.680    22682878.380          48.250
        41.500
 108562848.686 8  84594412.65148  20658820.200    20658817.660          51.500
        50.750
 112146596.845 8  87386941.14748  21340783.980    21340780.380          50.750
        48.250
 123166514.663 7  95973897.79646  23437808.340    23437805.360          46.000
        37.250
 126630024.546 7  98672731.10046  24096891.540    24096889.060          45.500
        37.500
 10  6 20  1 14  0.0000000  0 10G05G30G21G16G02G23G29G31G13G10
 130370285.429 6 101587225.91346  24808639.840    24808637.440          40.500
        39.250
 121193340.014 7  94436370.27546  23062324.460    23062322.380          47.750
        40.750
 129415331.048 6 100843103.82744  24626919.720    24626916.480          40.250
        27.000
 118753561.833 7  92535240.16946  22598050.740    22598047.360          47.500
        41.750
 124516164.174 7  97025562.15746  23694637.380    23694632.580          45.750
        39.250
 119200871.009 8  92883775.81946  22683171.600    22683166.420          48.250
        41.250
 108574718.955 8  84603662.20348  20661079.040    20661076.480          51.500
        50.750
 112216673.027 8  87441545.95448  21354119.100    21354115.480          50.750
        48.000
 123107938.299 7  95928253.88446  23426661.600    23426658.600          46.500
        37.000
 126582956.642 7  98636054.81246  24087934.800    24087932.300          45.000
        37.250
 10  6 20  1 14 30.0000000  0 10G05G30G21G16G02G23G29G31G13G10
 130283397.080 6 101519520.74546  24792105.600    24792103.240          39.500
        38.750
 121286188.417 7  94508719.65146  23079993.060    23079990.840          47.750
        40.500
 129293229.492 6 100747959.78645  24603684.560    24603681.960          41.500
        30.750
 118658174.181 7  92460912.10547  22579899.120    22579895.700          47.500
        42.000
 124596398.208 7  97088082.20046  23709905.460    23709900.680          46.000
        37.750
 119203013.200 8  92885445.06146  22683579.280    22683574.040          48.500
        41.500
 108587189.406 8  84613379.44248  20663452.120    20663449.500          51.500
        50.750
 112287283.170 8  87496566.84248  21367555.820    21367552.120          50.750
        48.250
 123049888.683 7  95883020.39546  23415615.220    23415612.120          45.500
        38.500
 126536398.254 7  98599775.55746  24079074.860    24079072.400          44.250
        37.250
 10  6 20  1 15  0.0000000  0 10G05G30G21G16G02G23G29G31G13G10
 130196832.833 6 101452068.10246  24775632.660    24775630.600          38.250
        41.000
 121379267.954 7  94581249.19646  23097705.500    23097703.200          47.250
        39.750
 129171232.758 7 100652897.40744  24580469.520    24580466.600          43.000
        27.250
 118563064.235 7  92386800.44047  22561800.280    22561796.920          47.750
        42.000
 124677048.144 7  97150926.32246  23725252.620    23725247.880          45.250
        38.250
 119205787.100 8  92887606.53346  22684107.180    22684101.980          48.500
        41.250
 108600261.788 8  84623565.70348  20665939.720    20665937.120          51.500
        50.750
 112358427.816 8  87552004.23148  21381094.220    21381090.500          50.500
        48.000
 122992370.631 7  95838201.14446  23404669.860    23404666.700          45.500
        37.750
 126490353.408 7  98563896.46646  24070312.620    24070310.220          44.500
        36.000
 10  6 20  1 15 30.0000000  0 10G05G30G21G16G02G23G29G31G13G10
 130110591.868 6 101384867.40546  24759221.540    24759219.360          41.000
        39.250
 121472572.911 7  94653954.37146  23115460.780    23115458.500          47.250
        39.250
 129049339.817 7 100557915.91245  24557273.920    24557271.100          43.250
        32.750
 118468229.419 7  92312903.15247  22543753.820    22543750.440          47.500
        42.250
 124758107.392 7  97214089.37046  23740677.720    23740673.040          46.000
        37.500
 119209188.138 8  92890256.67646  22684754.420    22684749.140          48.500
        41.000
 108613931.685 8  84634217.52048  20668541.020    20668538.440          51.500
        50.750
 112430100.754 8  87607853.26748  21394733.100    21394729.480          50.500
        48.000
 122935382.107 7  95793794.49146  23393825.320    23393822.200          46.000
        36.750
 126444820.157 7  98528416.01946  24061647.940    24061645.680          44.500
        36.500
 10  6 20  1 16  0.0000000  0 10G05G30G21G16G02G23G29G31G13G10
 130024680.370 7 101317923.38546  24742873.420    24742870.940          42.000
        37.000
 121566105.254 7  94726836.73946  23133259.380    23133257.120          47.250
        39.750
 128927557.258 7 100463020.35245  24534099.500    24534096.200          44.000
        30.500
 118373676.007 7  92239225.14847  22525760.920    22525757.640          47.500
        42.250
 124839576.703 7  97277571.96146  23756180.880    23756176.120          45.750
        37.750
 119213219.903 8  92893398.31246  22685521.580    22685516.300          48.500
        41.000
 108628202.029 8  84645337.24148  20671256.600    20671254.040          51.250
        50.750
 112502302.991 8  87664114.69648  21408472.680    21408469.120          50.500
        48.000
 122878928.262 7  95749804.46046  23383082.440    23383079.380          46.000
        38.000
 126399803.566 7  98493338.15646  24053081.620    24053079.220          44.750
        36.750
 10  6 20  1 16 30.0000000  0 10G05G30G21G16G02G23G29G31G13G10
 129939100.659 6 101251237.92246  24726588.300    24726585.620          40.000
        39.250
 121659862.877 7  94799894.61746  23151100.840    23151098.580          47.500
        39.000
 128805887.351 7 100368212.64544  24510946.540    24510943.180          45.250
        28.750
 118279405.103 7  92165767.27647  22507821.720    22507818.480          47.750
        42.750
 124921452.744 7  97341371.49246  23771761.300    23771756.580          45.250
        38.750
 119217881.385 8  92897030.62946  22686408.640    22686403.300          48.250
        41.750
 108643071.656 8  84656924.02948  20674086.200    20674083.620          51.250
        50.750
 112575032.083 8  87720786.76047  21422312.480    21422308.900          50.250
        47.750
 122823010.720 7  95706232.34946  23372441.780    23372438.600          45.750
        37.750
 126355304.453 7  98458663.52546  24044613.760    24044611.340          45.000
        37.000
 10  6 20  1 17  0.0000000  0 10G05G30G21G16G02G23G29G31G13G10
 129853854.015 7 101184812.03546  24710366.380    24710363.680          42.000
        37.500
 121753842.578 7  94873125.53446  23168984.660    23168982.220          47.250
        39.250
 128684331.764 7 100273493.96744  24487815.340    24487811.600          44.750
        27.250
 118185416.784 7  92092529.61747  22489936.320    22489933.160          47.750
        42.500
 125003731.804 7  97405485.04346  23787418.400    23787413.660          45.500
        37.750
 119223170.741 8  92901152.19146  22687415.120    22687409.880          48.500
        41.000
 108658538.071 8  84668975.87148  20677029.300    20677026.720          51.250
        50.750
 112648284.272 8  87777866.38247  21436251.860    21436248.300          50.500
        47.750
 122767629.961 7  95663078.52946  23361903.200    23361900.080          46.250
        37.250
 126311323.343 7  98424392.52846  24036244.440    24036242.040          45.000
        36.750
 10  6 20  1 17 30.0000000  0 10G05G30G21G16G02G23G29G31G13G10
 129768944.526 7 101118648.82446  24694208.560    24694206.000          42.000
        38.750
 121848044.026 7  94946529.14346  23186910.640    23186908.200          46.750
        39.250
 128562894.668 7 100178867.68144  24464706.680    24464703.560          44.500
        29.000
 118091715.142 7  92019515.35347  22472105.480    22472102.300          47.750
        42.000
 125086412.236 7  97469911.35946  23803151.960    23803147.260          45.750
        38.750
 119229088.844 8  92905763.67346  22688541.320    22688536.040          48.500
        41.500
 108674601.396 8  84681492.75848  20680085.980    20680083.400          51.500
        50.750
 112722058.619 8  87835352.86147  21450290.640    21450287.060          50.500
        47.750
 122712789.044 7  95620345.32946  23351467.320    23351464.200          45.750
        38.250
 126267863.083 7  98390527.38046  24027974.360    24027971.880          45.500
        36.250
 10  6 20  1 18  0.0000000  0 10G05G30G21G16G02G23G29G31G13G10
 129684376.231 6 101052751.49046  24678115.540    24678113.340          41.750
        38.000
 121942466.713 7  95020105.09646  23204878.660    23204876.420          46.250
        40.250
 128441579.410 7 100084336.30545  24441621.220    24441617.700          44.000
        30.750
 117998302.302 7  91946726.14147  22454329.560    22454326.440          47.750
        42.750
 125169492.502 7  97534649.21946  23818961.680    23818956.900          46.000
        39.500
 119235636.597 8  92910865.79446  22689787.280    22689782.060          48.250
        41.750
 108691261.866 8  84694474.95448  20683256.340    20683253.760          51.250
        50.750
 112796353.622 8  87893245.02747  21464428.560    21464425.040          50.500
        47.750
 122658490.841 7  95578035.04146  23341134.700    23341131.600          45.750
        37.000
 126224926.120 7  98357070.00046  24019803.720    24019801.380          45.250
        37.750
 10  6 20  1 18 30.0000000  0 10G05G30G21G16G02G23G29G31G13G10
 129600150.976 7 100987121.41546  24662088.000    24662085.760          42.250
        37.500
 122037108.920 7  95093852.32446  23222888.460    23222886.380          46.750
        39.500
 128320389.225 7  99989902.39444  24418559.520    24418555.880          42.750
        29.750
 117905180.202 8  91874163.47347  22436609.120    22436605.860          48.000
        42.500
 125252969.773 7  97599696.43346  23834846.960    23834842.020          45.500
        39.750
 119242813.065 8  92916457.84946  22691152.920    22691147.660          48.500
        41.250
 108708518.467 8  84707921.64448  20686540.180    20686537.560          51.500
        50.750
 112871166.861 8  87951541.02847  21478665.080    21478661.620          50.250
        47.750
 122604737.041 7  95536148.98146  23330905.700    23330902.600          46.250
        37.250
 126182513.806 7  98324021.44846  24011732.940    24011730.720          45.500
        38.250
 10  6 20  1 19  0.0000000  0 10G05G30G21G16G02G23G29G31G13G10
 129516269.806 7 100921759.47945  24646125.980    24646123.520          43.750
        35.750
 122131966.388 7  95167767.29846  23240939.300    23240937.160          47.250
        39.750
 128199324.792 7  99895566.49945  24395521.640    24395518.280          42.750
        31.250
 117812348.250 8  91801826.89447  22418943.880    22418940.420          48.000
        42.000
 125336838.812 7  97665048.92746  23850806.720    23850801.760          46.250
        39.000
 119250615.695 8  92922537.83046  22692637.700    22692632.500          48.500
        41.250
 108726368.514 8  84721830.76848  20689936.940    20689934.340          51.500
        50.750
 112946494.045 8  88010237.53947  21492999.360    21492995.980          50.250
        47.500
 122551527.329 7  95494686.86246  23320780.260    23320777.100          46.000
        37.000
 126140625.400 7  98291381.13246  24003761.980    24003759.500          45.500
        38.000
 10  6 20  1 19 30.0000000  0 10G05G30G21G16G02G23G29G31G13G10
 129432737.228 7 100856669.14646  24630230.280    24630227.660          43.250
        37.000
 122227039.633 7  95241850.37946  23259031.220    23259028.880          47.000
        38.750
 128078391.413 7  99801332.73245  24372508.780    24372505.520          42.000
        33.500
 117719810.785 8  91729719.80147  22401334.600    22401331.160          48.000
        42.750
 125421099.336 7  97730706.48246  23866840.980    23866836.080          46.250
        39.500
 119259045.957 8  92929106.85347  22694241.900    22694236.780          48.250
        42.000
 108744812.905 8  84736203.03148  20693446.760    20693444.180          51.250
        50.750
 113022334.769 8  88069334.19747  21507431.400    21507428.040          50.250
        47.750
 122498865.594 7  95453651.75446  23310759.020    23310755.900          46.500
        36.250
 126099264.603 7  98259151.93746  23995891.220    23995888.740          44.750
        37.250
 10  6 20  1 20  0.0000000  0 10G05G30G21G16G02G23G29G31G13G10
 129349556.762 7 100791853.18645  24614401.640    24614398.960          44.000
        35.750
 122322327.675 7  95316100.81846  23277163.980    23277161.560          47.500
        38.750
 127957592.504 7  99707203.76345  24349521.360    24349517.860          42.250
        34.250
 117627570.853 8  91657844.53747  22383781.940    22383778.500          48.250
        43.000
 125505749.402 7  97796667.57446  23882949.300    23882944.540          47.000
        40.000
 119268104.329 8  92936165.33846  22695965.600    22695960.580          48.250
        41.500
 108763851.407 8  84751038.24248  20697069.620    20697067.120          51.250
        50.750
 113098687.715 8  88128830.02048  21521960.900    21521957.540          50.250
        48.000
 122446754.429 7  95413045.65546  23300842.560    23300839.460          46.500
        37.250
 126058433.211 7  98227335.28746  23988121.160    23988118.900          45.000
        38.500
 10  6 20  1 20 30.0000000  0 10G05G30G21G16G02G23G29G31G13G10
 129266728.758 7 100727311.88945  24598640.060    24598637.300          44.250
        35.500
 122417826.142 7  95390515.18546  23295336.760    23295334.340          47.000
        39.750
 127836928.079 7  99613179.56745  24326559.600    24326556.340          42.750
        32.750
 117535626.635 8  91586199.66947  22366285.600    22366282.120          48.000
        43.250
 125590783.632 7  97862928.02046  23899130.800    23899126.100          47.000
        40.500
 119277787.426 8  92943710.60846  22697808.160    22697803.160          48.250
        41.500
 108783480.470 8  84766333.62448  20700804.880    20700802.380          51.250
        50.750
 113175547.457 8  88188720.71147  21536586.860    21536583.380          50.000
        47.500
 122395192.615 7  95372867.61846  23291030.700    23291027.500          46.250
        36.750
 126018130.660 7  98195930.71246  23980451.900    23980449.600          45.250
        37.750
 10  6 20  1 21  0.0000000  0 10G05G30G21G16G02G23G29G31G13G10
 129184259.899 7 100663050.46346  24582946.720    24582943.940          44.250
        36.750
 122513537.577 7  95465095.56746  23313550.080    23313547.680          46.500
        38.750
 127716405.441 7  99519265.88445  24303624.800    24303621.680          42.250
        35.500
 117443984.521 8  91514790.17947  22348846.660    22348843.200          48.250
        42.750
 125676203.222 7  97929488.74546  23915385.700    23915380.940          46.750
        40.250
 119288098.680 8  92951745.35046  22699770.300    22699765.340          48.250
        41.250
 108803703.000 8  84782091.44448  20704653.080    20704650.580          51.250
        50.500
 113252915.762 8  88249007.69247  21551309.540    21551306.040          50.250
        47.250
 122344186.021 7  95333122.22946  23281324.440    23281321.200          46.000
        37.250
 125978361.829 7  98164941.99946  23972884.200    23972881.680          44.500
        38.000
 10  6 20  1 21 30.0000000  0 10G05G30G21G16G02G23G29G31G13G10
 129102150.724 7 100599069.27946  24567321.800    24567319.080          44.250
        36.500
 122609458.280 7  95539838.99546  23331802.940    23331800.720          45.750
        38.500
 127596025.740 7  99425463.52045  24280717.320    24280713.980          43.500
        35.250
 117352645.049 8  91443616.51747  22331465.320    22331461.840          48.500
        43.000
 125762003.755 7  97996346.28346  23931713.020    23931708.140          47.000
        39.500
 119299035.865 8  92960267.80446  22701851.620    22701846.580          48.250
        41.500
 108824516.441 8  84798309.70948  20708613.780    20708611.240          51.250
        50.500
 113330788.115 8  88309687.39247  21566128.220    21566124.640          50.250
        47.250
 122293734.641 7  95293809.45746  23271723.960    23271720.660          46.250
        38.500
 125939126.972 7  98134369.38446  23965418.020    23965415.320          44.750
        37.000
 10  6 20  1 22  0.0000000  0 10G05G30G21G16G02G23G29G31G13G10
 129020402.838 7 100535369.63246  24551765.700    24551762.920          44.750
        37.250
 122705585.137 7  95614743.02846  23350095.040    23350092.940          46.000
        38.500
 127475790.683 7  99331773.88645  24257837.280    24257834.080          44.000
        34.500
 117261608.727 8  91372679.12447  22314141.700    22314138.240          48.500
        42.750
 125848181.218 7  98063497.55746  23948112.080    23948107.080          47.250
        40.000
 119310597.195 8  92969276.64146  22704051.800    22704046.720          48.500
        41.500
 108845918.408 8  84814986.55248  20712686.460    20712683.900          51.250
        50.500
 113409161.385 8  88370757.41247  21581042.200    21581038.620          50.000
        47.250
 122243838.830 7  95254929.60146  23262229.080    23262225.820          46.250
        37.750
 125900425.538 7  98104212.41046  23958053.380    23958050.760          44.500
        36.250
 10  6 20  1 22 30.0000000  0 10G05G30G21G16G02G23G29G31G13G10
 128939019.822 7 100471954.30345  24536279.160    24536276.260          45.000
        34.750
 122801917.446 7  95689807.16046  23368426.440    23368424.280          46.500
        37.750
 127355703.882 7  99238199.78645  24234985.540    24234982.400          44.250
        33.500
 117170877.768 8  91301979.74547  22296876.180    22296872.820          48.500
        43.250
 125934733.192 7  98130940.66246  23964582.360    23964577.260          47.000
        40.000
 119322782.519 8  92978771.69946  22706370.680    22706365.520          48.500
        41.500
 108867908.464 8  84832121.66348  20716870.980    20716868.460          51.250
        50.500
 113488033.771 8  88432216.37147  21596051.140    21596047.660          50.000
        47.250
 122194501.105 7  95216484.63046  23252840.420    23252837.180          46.500
        38.250
 125862260.144 7  98074473.14246  23950790.620    23950788.300          44.500
        37.500
 10  6 20  1 23  0.0000000  0 10G05G30G21G16G02G23G29G31G13G10
 128858005.781 7 100408826.47646  24520862.780    24520859.720          44.750
        36.000
 122898455.091 7  95765031.29446  23386797.040    23386794.840          46.250
        38.000
 127235769.878 7  99144744.71845  24212162.840    24212159.560          43.750
        33.250
 117080455.981 8  91231521.24247  22279669.460    22279665.980          48.500
        43.250
 126021659.277 7  98198675.27346  23981123.740    23981118.800          45.750
        40.500
 119335592.805 8  92988753.72646  22708808.500    22708803.220          48.500
        41.750
 108890487.249 8  84849715.53448  20721167.560    20721165.020          51.250
        50.500
 113567404.597 8  88494063.77447  21611154.880    21611151.500          50.000
        47.250
 122145724.909 7  95178477.18846  23243558.680    23243555.420          46.750
        38.500
 125824633.793 7  98045153.90846  23943630.460    23943628.340          44.750
        36.500
 10  6 20  1 23 30.0000000  0 10G05G30G21G16G02G23G29G31G13G10
 128777362.345 7 100345987.43445  24505516.820    24505513.800          44.500
        35.750
 122995195.183 7  95840413.11946  23405206.200    23405203.940          46.250
        38.000
 127115990.610 7  99051410.22345  24189369.600    24189366.400          43.250
        35.750
 116990343.960 8  91161304.00747  22262521.720    22262518.220          48.750
        43.500
 126108955.238 7  98266698.09246  23997735.460    23997730.840          46.250
        39.750
 119349026.505 8  92999221.51346  22711364.900    22711359.580          48.500
        41.500
 108913652.618 8  84867766.47248  20725575.800    20725573.260          51.250
        50.500
 113647270.022 8  88556296.54847  21626352.740    21626349.420          50.000
        47.000
 122097510.794 7  95140907.72146  23234383.880    23234380.540          46.500
        37.750
 125787546.648 7  98016254.83246  23936573.060    23936570.740          44.750
        37.000
 10  6 20  1 24  0.0000000  0 10G05G30G21G16G02G23G29G31G13G10
 128697094.272 7 100283440.87746  24490242.260    24490239.300          44.250
        36.500
 123092138.388 7  95915953.27346  23423653.920    23423651.680          46.500
        38.750
 126996371.089 7  98958200.23145  24166606.680    24166603.380          42.750
        33.750
 116900545.530 8  91091331.20447  22245433.640    22245430.180          48.750
        43.250
 126196620.594 7  98335008.75646  24014417.580    24014413.040          45.750
        39.250
 119363084.605 8  93010175.84046  22714040.000    22714034.800          48.250
        41.750
 108937405.746 8  84886275.40548  20730095.860    20730093.320          51.250
        50.500
 113727629.680 8  88618914.39847  21641644.700    21641641.420          49.750
        47.000
 122049862.213 7  95103778.95746  23225316.640    23225313.460          46.500
        37.500
 125751001.973 7  97987778.45345  23929618.780    23929616.700          44.250
        34.500
 10  6 20  1 24 30.0000000  0 10G05G30G21G16G02G23G29G31G13G10
 128617201.211 7 100221186.56046  24475039.040    24475036.200          43.750
        36.250
 123189279.753 7  95991647.83446  23442139.360    23442137.120          46.250
        39.000
 126876911.410 6  98865114.79445  24143874.100    24143871.140          41.500
        33.000
 116811060.114 8  91021602.39247  22228405.080    22228401.680          48.500
        43.750
 126284649.445 7  98403602.67946  24031168.940    24031164.520          45.250
        38.250
 119377763.624 8  93021614.02646  22716833.300    22716828.120          48.500
        41.250
 108961742.427 8  84905239.05348  20734726.960    20734724.480          51.250
        50.500
 113808478.375 8  88681913.36847  21657029.720    21657026.400          50.000
        46.750
 122002777.807 7  95067089.79546  23216356.660    23216353.520          46.750
        37.250
 125714998.106 7  97959723.49045  23922767.480    23922765.280          44.250
        35.250
 10  6 20  1 25  0.0000000  0 10G05G30G21G16G02G23G29G31G13G10
 128537686.053 7 100159226.67845  24459907.680    24459904.900          44.250
        35.500
 123286618.018 7  96067495.79046  23460662.320    23460660.000          46.250
        39.250
 126757614.409 6  98772156.07945  24121172.620    24121169.700          41.500
        34.250
 116721889.818 8  90952119.02747  22211436.480    22211433.140          48.500
        43.750
 126373039.252 7  98472477.84546  24047988.940    24047984.500          44.750
        37.500
 119393063.061 8  93033535.62446  22719744.760    22719739.500          48.500
        41.500
 108986661.805 8  84924656.74248  20739468.940    20739466.460          51.250
        50.500
 113889813.777 8  88745291.58747  21672507.400    21672503.940          50.000
        47.000
 121956259.644 7  95030841.87046  23207504.500    23207501.420          46.750
        37.500
 125679536.820 7  97932091.30846  23916019.520    23916017.040          44.500
        36.750
 10  6 20  1 25 30.0000000  0 10G05G30G21G16G02G23G29G31G13G10
 128458555.153 7 100097566.24546  24444849.580    24444846.800          44.750
        36.250
 123384155.110 7  96143498.68446  23479223.080    23479220.680          46.000
        38.500
 126638487.311 7  98679329.79645  24098503.540    24098500.640          42.000
        34.250
 116633040.091 8  90882885.51647  22194528.860    22194525.540          48.750
        43.750
 126461791.181 7  98541635.21346  24064878.040    24064873.140          44.750
        37.500
 119408986.068 8  93045943.16246  22722774.840    22722769.600          48.500
        41.250
 109012166.450 8  84944530.48548  20744322.360    20744319.880          51.250
        50.750
 113971637.346 8  88809050.22547  21688077.940    21688074.440          49.750
        47.250
 121910312.907 7  94995039.21346  23198761.160    23198758.100          47.000
        37.500
 125644623.021 7  97904885.72646  23909375.640    23909373.100          44.250
        37.250
 10  6 20  1 26  0.0000000  0 10G05G30G21G16G02G23G29G31G13G10
 128379808.124 7 100036204.90345  24429864.620    24429861.580          45.000
        35.750
 123481886.286 7  96219652.82146  23497820.620    23497818.340          46.000
        38.750
 126519529.811 6  98586635.65945  24075866.620    24075863.480          41.750
        33.500
 116544509.060 8  90813900.29747  22177681.940    22177678.660          48.750
        43.750
 126550899.385 7  98611070.17346  24081834.800    24081829.760          43.250
        37.750
 119425528.525 8  93058833.38346  22725922.820    22725917.560          48.500
        41.250
 109038252.102 8  84964856.96548  20749286.360    20749283.840          51.500
        50.500
 114053943.131 8  88873184.59247  21703740.160    21703736.760          49.750
        46.750
 121864936.148 7  94959680.69846  23190126.340    23190123.160          46.750
        38.000
 125610254.742 7  97878105.26146  23902835.640    23902833.040          44.750
        36.750
 10  6 20  1 26 30.0000000  0 10G05G30G21G16G02G23G29G31G13G10
 128301447.967 7  99975145.03246  24414953.300    24414950.260          44.000
        36.000
 123579810.375 7  96295957.27946  23516454.980    23516452.640          46.250
        38.000
 126400745.392 7  98494076.37946  24053262.760    24053259.600          42.250
        36.000
 116456300.218 8  90745166.16347  22160896.400    22160893.100          48.750
        43.750
 126640361.614 7  98680780.95746  24098858.540    24098853.680          42.750
        38.250
 119442690.173 8  93072206.13246  22729188.540    22729183.240          48.500
        41.250
 109064917.989 8  84985635.57248  20754360.740    20754358.200          51.250
        50.500
 114136729.257 8  88937693.26847  21719493.780    21719490.460          49.750
        47.000
 121820131.256 7  94924767.79946  23181600.300    23181596.980          46.750
        37.750
 125576433.815 7  97851751.29246  23896399.800    23896397.200          44.750
        36.000
 10  6 20  1 27  0.0000000  0 10G05G30G21G16G02G23G29G31G13G10
 128223476.412 7  99914387.97746  24400115.760    24400112.900          44.500
        36.000
 123677924.704 7  96372409.96846  23535125.540    23535123.320          46.250
        39.250
 126282136.146 7  98401653.61245  24030692.380    24030689.300          42.750
        35.500
 116368414.535 8  90676683.83547  22144172.320    22144168.920          49.000
        43.250
 126730173.864 7  98750764.50546  24115949.020    24115944.460          43.750
        38.000
 119460468.970 8  93086059.74646  22732571.660    22732566.440          48.500
        41.500
 109092162.215 8  85006864.84448  20759545.140    20759542.580          51.250
        50.500
 114219992.154 8  89002573.46647  21735338.220    21735334.840          49.750
        46.750
 121775898.960 7  94890301.06946  23173183.200    23173179.820          46.750
        37.500
 125543160.438 7  97825823.98846  23890068.100    23890065.620          44.750
        37.000
 10  6 20  1 27 30.0000000  0 10G05G30G21G16G02G23G29G31G13G10
 128145900.052 7  99853938.87746  24385353.400    24385350.780          43.250
        37.250
 123776231.548 7  96449012.64946  23553832.760    23553830.540          46.250
        38.250
 126163708.869 6  98309372.63646  24008156.440    24008153.100          41.750
        37.500
 116280856.957 8  90608457.18247  22127510.740    22127507.280          49.000
        44.000
 126820337.251 7  98821021.68946  24133106.580    24133102.040          44.250
        38.000
 119478868.271 8  93100396.83946  22736072.920    22736067.600          48.500
        41.250
 109119987.184 8  85028546.62348  20764840.080    20764837.480          51.250
        50.500
 114303733.391 8  89067826.37847  21751273.640    21751270.260          49.750
        46.750
 121732244.522 7  94856284.61546  23164876.000    23164872.620          46.750
        38.000
 125510440.047 7  97800327.58746  23883841.600    23883839.080          44.500
        38.000
 10  6 20  1 28  0.0000000  0 10G05G30G21G16G02G23G29G31G13G10
 128068719.654 7  99793798.34646  24370666.400    24370663.960          43.250
        37.500
 123874727.545 7  96525762.74146  23572575.940    23572573.620          46.000
        36.750
 126045464.774 7  98217234.41946  23985655.520    23985652.040          42.500
        37.000
 116193628.171 8  90540486.71047  22110911.720    22110908.200          49.250
        43.500
 126910847.433 7  98891549.11446  24150330.220    24150325.540          44.250
        38.500
 119497885.083 8  93115215.13446  22739691.700    22739686.460          48.250
        41.000
 109148390.267 8  85050678.90048  20770245.060    20770242.400          51.250
        50.500
 114387948.534 8  89133448.59647  21767299.280    21767295.860          49.500
        46.500
 121689167.750 7  94822718.28846  23156678.700    23156675.360          46.500
        37.750
 125478271.796 7  97775261.41646  23877720.060    23877717.680          44.500
        37.250
 10  6 20  1 28 30.0000000  0 10G05G30G21G16G02G23G29G31G13G10
 127991937.227 7  99733967.91046  24356055.160    24356052.680          44.250
        38.500
 123973410.196 7  96602658.31146  23591354.620    23591352.160          46.000
        37.500
 125927406.522 7  98125241.00845  23963189.820    23963186.180          43.250
        34.250
 116106729.602 8  90472773.63947  22094375.460    22094371.860          49.000
        43.750
 127001701.510 7  98962344.50346  24167619.200    24167614.460          44.250
        37.750
 119517518.079 8  93130513.57146  22743427.780    22743422.520          48.500
        41.250
 109177369.702 8  85073260.27748  20775759.680    20775757.000          51.250
        50.250
 114472634.805 8  89199437.89447  21783414.540    21783411.080          49.500
        46.750
 121646669.687 7  94789602.91446  23148591.520    23148588.320          46.500
        37.750
 125446656.158 7  97750625.85346  23871703.700    23871701.360          44.500
        36.250
 10  6 20  1 29  0.0000000  0 10G05G30G21G16G02G23G29G31G13G10
 127915554.338 7  99674448.77846  24341520.120    24341517.460          44.250
        39.000
 124072276.715 7  96679697.13846  23610168.300    23610165.920          45.250
        37.500
 125809536.011 7  98033393.89045  23940759.880    23940756.000          43.000
        33.500
 116020161.445 8  90405317.98047  22077902.020    22077898.420          49.250
        43.500
 127092895.228 7  99033404.54746  24184972.860    24184968.200          44.750
        38.500
 119537765.292 8  93146290.65146  22747280.720    22747275.440          48.250
        41.000
 109206922.855 8  85096288.70448  20781383.440    20781380.800          51.250
        50.500
 114557787.828 8  89265790.87147  21799618.680    21799615.140          49.500
        46.250
 121604750.443 7  94756938.56746  23140614.580    23140611.440          46.500
        38.000
 125415593.320 7  97726421.05346  23865792.660    23865790.280          45.500
        37.750
 10  6 20  1 29 30.0000000  0 10G05G30G21G16G02G23G29G31G13G10
 127839577.484 7  99615246.04346  24327062.320    24327059.420          43.750
        39.000
 124171329.485 7  96756881.07245  23629017.400    23629015.140          46.250
        35.500
 125691860.038 7  97941698.36545  23918366.800    23918363.100          43.000
        31.750
 115933929.807 8  90338124.51847  22061492.600    22061489.020          49.000
        44.250
 127184429.619 7  99104730.04246  24202391.440    24202386.680          45.000
        37.500
 119558629.766 8  93162548.72046  22751251.000    22751245.820          48.250
        41.000
 109237052.167 8  85119766.07848  20787116.860    20787114.240          51.250
        50.500
 114643409.535 8  89332509.09447  21815911.980    21815908.380          49.750
        46.250
 121563415.556 7  94724729.55846  23132748.760    23132745.580          46.250
        38.750
 125385088.385 7  97702650.96446  23859987.800    23859985.480          45.000
        37.000
 10  6 20  1 30  0.0000000  0 10G05G30G21G16G02G23G29G31G13G10
 127764005.153 7  99556358.52446  24312681.240    24312678.280          43.250
        38.000
 124270562.748 7  96834205.65446  23647900.920    23647898.620          46.000
        36.750
 125574377.509 7  97850153.53145  23896010.620    23896006.900          42.750
        35.000
 115848032.501 8  90271191.55847  22045146.800    22045143.340          49.000
        44.500
 127276297.947 7  99176315.76946  24219873.500    24219868.680          45.500
        38.500
 119580106.245 8  93179283.65646  22755337.720    22755332.700          48.000
        41.250
 109267752.434 8  85143688.33548  20792958.940    20792956.280          51.250
        50.500
 114729493.253 8  89399587.35947  21832293.080    21832289.600          49.500
        46.000
 121522662.414 7  94692973.84946  23124993.580    23124990.440          46.250
        38.250
 125355138.167 7  97679313.13446  23854288.480    23854286.220          45.250
        38.000
 10  6 20  1 30 30.0000000  0 11G05G06G30G21G16G02G23G29G31G13G10
 127688843.290 7  99497790.83946  24298378.200    24298375.280          42.500
        38.750
 134920326.217 6 105132733.68245  25674484.680    25674482.640          37.250
        31.500
 124369978.242 7  96911672.24046  23666819.120    23666816.900          45.750
        37.500
 125457094.823 7  97758764.46745  23873692.280    23873688.720          42.500
        34.250
 115762475.265 8  90204523.52147  22028865.740    22028862.340          49.000
        44.250
 127368500.881 7  99248162.21546  24237419.200    24237414.140          46.250
        36.500
 119602196.853 8  93196497.11846  22759541.360    22759536.300          48.250
        41.250
 109299026.077 8  85168057.39548  20798910.120    20798907.440          51.250
        50.500
 114816039.867 8  89467026.28947  21848762.340    21848758.820          49.500
        46.500
 121482495.842 7  94661675.20746  23117350.180    23117347.120          46.750
        38.750
 125325747.256 7  97656411.11446  23848695.660    23848693.240          45.000
        37.500
 10  6 20  1 31  0.0000000  0 11G05G06G30G21G16G02G23G29G31G13G10
 127614086.088 7  99439538.52346  24284152.180    24284149.620          42.500
        39.250
 134801236.411 6 105039936.41945  25651822.980    25651819.940          37.500
        31.000
 124469565.849 7  96989272.91946  23685770.060    23685767.820          45.500
        37.000
 125340006.718 7  97667526.99145  23851410.940    23851407.800          42.000
        34.500
 115677251.142 8  90138115.04047  22012648.140    22012644.740          49.250
        44.000
 127461027.174 7  99320260.63546  24255026.440    24255021.260          46.000
        37.750
 119624892.632 8  93214182.14446  22763860.200    22763855.140          48.000
        41.250
 109330863.715 8  85192865.92448  20804968.620    20804965.980          51.250
        50.250
 114903037.857 8  89534816.91447  21865317.440    21865314.040          49.250
        46.750
 121442908.575 7  94630828.00446  23109817.080    23109814.040          47.000
        38.750
 125296908.420 7  97633939.29846  23843207.900    23843205.320          45.000
        38.000
 10  6 20  1 31 30.0000000  0 11G05G06G30G21G16G02G23G29G31G13G10
 127539753.661 7  99381617.15946  24270007.260    24270004.760          43.250
        39.250
 134682150.663 6 104947142.40945  25629161.220    25629159.140          38.250
        33.250
 124569341.373 7  97067020.02046  23704756.640    23704754.560          45.250
        37.500
 125223133.836 7  97576457.22746  23829170.640    23829167.360          42.500
        36.250
 115592379.812 8  90071981.51447  21996497.660    21996494.260          49.250
        44.250
 127553891.669 7  99392622.59046  24272697.920    24272692.780          44.750
        37.500
 119648210.081 8  93232351.62147  22768297.400    22768292.280          48.000
        42.000
 109363281.201 8  85218126.30348  20811137.460    20811134.860          51.250
        50.250
 114990502.152 8  89602970.88647  21881961.340    21881957.960          49.500
        46.500
 121403919.512 7  94600446.90846  23102397.840    23102394.680          47.000
        38.000
 125268640.349 7  97611912.23646  23837828.620    23837826.100          44.250
        38.750
 10  6 20  1 32  0.0000000  0 11G05G06G30G21G16G02G23G29G31G13G10
 127465834.877 7  99324018.12146  24255941.060    24255938.440          43.750
        38.250
 134563056.482 6 104854341.71645  25606497.940    25606496.420          37.750
        34.500
 124669289.518 7  97144901.68046  23723776.120    23723774.160          45.500
        36.250
 125106465.462 7  97485546.81345  23806969.420    23806966.180          42.750
        34.250
 115507849.548 8  90006113.79747  21980412.080    21980408.680          49.250
        44.500
 127647078.176 7  99465235.42946  24290430.560    24290425.600          45.000
        37.000
 119672134.226 8  93250993.84346  22772850.020    22772844.880          48.000
        40.750
 109396263.414 8  85243826.73548  20817413.720    20817411.160          51.250
        50.500
 115078417.267 8  89671476.18447  21898691.040    21898687.680          49.500
        46.000
 121365516.312 7  94570522.32046  23095089.920    23095086.720          47.000
        39.000
 125240930.058 7  97590319.80446  23832555.440    23832553.000          44.500
        38.250
 10  6 20  1 32 30.0000000  0 11G05G06G30G21G16G02G23G29G31G13G10
 127392333.965 7  99266744.67346  24241954.340    24241951.640          43.000
        39.500
 134443956.968 6 104761536.96145  25583833.760    25583832.600          39.500
        34.500
 124769410.272 7  97222917.86546  23742828.540    23742826.500          45.750
        36.750
 124990006.127 7  97394799.27746  23784807.880    23784804.680          43.250
        36.500
 115423663.596 8  89940514.40647  21964392.020    21964388.640          49.250
        44.500
 127740585.286 7  99538098.09646  24308224.240    24308219.520          44.250
        37.500
 119696665.609 8  93270109.22146  22777518.160    22777512.940          48.000
        41.000
 109429810.570 8  85269967.38648  20823797.500    20823794.940          51.250
        50.250
 115166781.689 8  89740331.57047  21915506.220    21915502.880          49.750
        45.750
 121327702.177 7  94541056.74746  23087894.100    23087890.880          47.000
        38.000
 125213780.259 7  97569164.11646  23827388.920    23827386.640          44.250
        38.500
 10  6 20  1 33  0.0000000  0 11G05G06G30G21G16G02G23G29G31G13G10
 127319256.517 7  99209801.22946  24228048.020    24228045.540          43.000
        38.750
 134324856.836 6 104668731.63746  25561169.880    25561168.740          38.500
        37.500
 124869705.049 7  97301069.59246  23761914.100    23761911.860          45.500
        36.750
 124873762.231 7  97304219.59145  23762687.440    23762684.080          43.500
        35.750
 115339827.640 8  89875187.73247  21948438.580    21948435.200          49.500
        44.250
 127834413.408 7  99611210.92146  24326079.200    24326074.620          44.500
        37.750
 119721806.369 8  93289699.42746  22782302.420    22782297.100          48.250
        41.250
 109463924.389 8  85296549.56648  20830289.100    20830286.560          51.250
        50.250
 115255596.279 8  89809537.70147  21932407.040    21932403.680          49.250
        45.750
 121290481.649 7  94512053.73646  23080811.240    23080808.040          47.250
        38.500
 125187195.326 7  97548448.58046  23822329.900    23822327.760          44.750
        37.500
 10  6 20  1 33 30.0000000  0 11G05G06G30G21G16G02G23G29G31G13G10
 127246605.488 7  99153190.04246  24214222.980    24214220.520          43.750
        39.250
 134205757.469 6 104575927.00745  25538506.200    25538504.580          37.250
        35.500
 124970172.152 7  97379355.41145  23781032.400    23781030.060          45.500
        35.750
 124757737.156 7  97213810.42845  23740608.700    23740605.180          43.750
        35.500
 115256343.527 8  89810135.18247  21932552.080    21932548.640          49.250
        44.500
 127928560.020 7  99684571.91746  24343994.820    24343990.200          45.000
        36.750
 119747555.688 8  93309763.80346  22787202.320    22787197.000          48.000
        41.000
 109498604.161 8  85323572.73848  20836888.440    20836885.960          51.250
        50.250
 115344858.572 8  89879092.68547  21949393.080    21949389.800          49.000
        46.000
 121253856.133 7  94483514.35846  23073841.720    23073838.540          47.500
        38.250
 125161176.603 7  97528174.25446  23817378.740    23817376.580          44.500
        38.500
 10  6 20  1 34  0.0000000  0 11G05G06G30G21G16G02G23G29G31G13G10
 127174382.094 7  99096912.07946  24200479.380    24200476.840          44.250
        40.250
 134086659.715 6 104483123.55745  25515842.840    25515840.840          37.250
        35.500
 125070809.347 7  97457773.96346  23800183.100    23800180.880          45.500
        37.500
 124641933.098 7  97123573.54745  23718571.840    23718568.380          43.500
        35.000
 115173212.132 8  89745357.45347  21916732.660    21916729.220          49.250
        44.500
 128023021.371 7  99758178.16946  24361970.360    24361965.540          45.000
        36.500
 119773911.194 7  93330300.51046  22792217.600    22792212.360          47.750
        41.000
 109533847.411 8  85351034.98848  20843595.040    20843592.580          51.250
        50.250
 115434564.949 8  89948993.71147  21966463.620    21966460.420          49.000
        46.000
 121217825.797 7  94455438.76946  23066985.420    23066982.240          47.250
        38.750
 125135723.647 7  97508340.79046  23812535.280    23812533.020          45.500
        38.750
 10  6 20  1 34 30.0000000  0 11G05G06G30G21G16G02G23G29G31G13G10
 127102587.473 7  99040968.20946  24186817.440    24186814.780          44.500
        39.000
 133967563.170 5 104390321.05245  25493179.740    25493177.300          35.250
        32.750
 125171613.408 7  97536322.54846  23819365.600    23819363.300          45.750
        36.750
 124526351.205 7  97033509.77146  23696577.220    23696574.000          42.250
        36.750
 115090433.313 8  89680854.50447  21900980.360    21900976.920          49.250
        44.250
 128117793.132 7  99832026.30346  24380004.880    24380000.000          44.750
        36.000
 119800870.417 8  93351307.70946  22797347.780    22797342.620          48.000
        41.500
 109569651.047 8  85378933.91448  20850408.300    20850405.780          51.250
        50.250
 115524711.054 8  90019237.42847  21983617.860    21983614.680          49.250
        46.000
 121182390.494 7  94427826.85346  23060242.240    23060239.120          47.250
        38.500
 125110836.348 7  97488948.08646  23807799.520    23807797.040          45.500
        38.500
 10  6 20  1 35  0.0000000  0 11G05G06G30G21G16G02G23G29G31G13G10
 127031226.417 7  98985362.21546  24173237.980    24173235.220          44.750
        41.000
 133848471.452 6 104297522.35544  25470517.520    25470514.980          38.500
        29.500
 125272584.527 7  97615001.23546  23838579.880    23838577.600          45.500
        36.750
 124410996.613 7  96943623.04545  23674625.840    23674622.860          43.250
        34.750
 115008011.886 8  89616630.01847  21885296.080    21885292.660          49.250
        44.750
 128212874.744 7  99906115.87246  24398098.340    24398093.320          43.500
        37.000
 119828434.092 7  93372785.89546  22802592.920    22802587.880          47.500
        41.250
 109606015.622 8  85407269.88248  20857328.240    20857325.740          51.250
        50.250
 115615296.247 8  90089823.25947  22000855.700    22000852.500          49.500
        45.500
 121147553.500 7  94400681.13746  23053612.940    23053609.740          47.250
        38.500
 125086517.801 7  97469998.56746  23803171.920    23803169.360          45.750
        39.000
 10  6 20  1 35 30.0000000  0 11G05G06G30G21G16G02G23G29G31G13G10
 126960300.854 7  98930095.57146  24159741.320    24159738.620          45.000
        40.250
 133729386.010 6 104204728.42344  25447856.160    25447853.960          38.500
        29.750
 125373720.800 7  97693808.53745  23857825.520    23857823.240          45.250
        35.500
 124295872.305 7  96853915.81246  23652718.340    23652715.560          43.000
        36.000
 114925949.165 8  89552685.04547  21869680.040    21869676.700          49.500
        45.000
 128308262.999 7  99980444.35646  24416250.040    24416245.020          43.000
        37.000
 119856600.693 8  93394733.90446  22807952.900    22807947.780          48.000
        41.000
 109642939.708 8  85436041.88548  20864354.680    20864352.220          51.250
        50.250
 115706317.833 8  90160749.13847  22018176.600    22018173.340          49.250
        46.000
 121113315.493 7  94374002.16746  23047097.680    23047094.500          47.250
        39.250
 125062768.123 7  97451492.32846  23798652.680    23798650.060          45.500
        39.250
 10  6 20  1 36  0.0000000  0 11G05G06G30G21G16G02G23G29G31G13G10
 126889813.281 7  98875170.19846  24146327.960    24146325.320          45.000
        40.000
 133610308.100 6 104111940.30344  25425196.360    25425194.180          39.500
        29.000
 125475021.150 7  97772743.95645  23877102.360    23877100.140          45.000
        35.000
 124180981.246 7  96764390.31046  23630855.260    23630852.420          42.750
        36.500
 114844246.730 8  89489020.80347  21854132.600    21854129.200          49.250
        45.000
 128403955.232 7 100055009.71446  24434459.560    24434454.740          42.750
        38.250
 119885369.138 7  93417150.89346  22813427.400    22813422.240          47.500
        40.250
 109680421.643 8  85465248.56548  20871487.280    20871484.840          51.250
        50.250
 115797772.924 8  90232012.79347  22035580.000    22035576.700          49.000
        45.500
 121079678.003 7  94347791.13046  23040696.680    23040693.640          47.000
        38.750
 125039588.241 7  97433430.07646  23794241.660    23794239.080          45.000
        39.250
 10  6 20  1 36 30.0000000  0 11G05G06G30G21G16G02G23G29G31G13G10
 126819765.482 7  98820587.51046  24132998.360    24132995.540          45.750
        39.000
 133491239.046 5 104019159.29044  25402538.220    25402536.140          35.250
        26.000
 125576483.441 7  97851805.59846  23896409.920    23896407.740          45.000
        36.500
 124066325.981 7  96675048.54145  23609037.100    23609034.300          43.500
        33.500
 114762906.782 8  89425638.97447  21838654.160    21838650.680          49.500
        44.750
 128499948.290 7 100129809.47746  24452726.320    24452721.420          44.000
        36.500
 119914737.589 7  93440035.40046  22819015.940    22819010.860          47.500
        41.250
 109718459.765 8  85494888.69148  20878725.700    20878723.280          51.250
        50.250
 115889658.764 8  90303612.10247  22053065.360    22053062.060          49.250
        45.750
 121046641.527 7  94322048.42746  23034409.980    23034406.940          47.250
        37.250
 125016978.521 7  97415812.12546  23789939.120    23789936.640          45.500
        38.000
 10  6 20  1 37  0.0000000  0 11G05G06G30G21G16G02G23G29G31G13G10
 126750163.344 7  98766352.06746  24119753.600    24119750.660          45.250
        40.250
 133372181.231 6 103926367.61645  25379882.340    25379880.660          36.750
        34.000
 125678108.183 7  97930993.72546  23915748.520    23915746.340          45.250
        36.250
 123951912.574 7  96585895.19345  23587265.100    23587261.980          43.750
        35.250
 114681933.383 8  89362542.66347  21823245.500    21823242.000          49.500
        45.250
 128596242.259 7 100204843.73045  24471050.420    24471045.680          45.500
        35.500
 119944707.692 7  93463388.71946  22824719.000    22824713.920          47.750
        41.000
 109757055.131 8  85524963.04448  20886070.160    20886067.720          51.250
        50.250
 115981975.412 8  90375547.16547  22070632.760    22070629.340          49.250
        45.500
 121014210.178 7  94296777.24246  23028238.500    23028235.380          47.250
        38.250
 124994942.844 7  97398641.45946  23785745.780    23785743.300          45.000
        38.500
 10  6 20  1 37 30.0000000  0 11G05G06G30G21G16G02G23G29G31G13G10
 126681003.504 7  98712461.28546  24106592.840    24106589.940          45.750
        39.750
 133253134.748 6 103833604.13345  25357228.580    25357226.840          39.500
        33.500
 125779888.530 7  98010303.04746  23935116.660    23935114.560          45.000
        37.750
 123837738.904 7  96496928.74445  23565538.700    23565535.400          44.500
        35.000
 114601322.660 8  89299729.03747  21807905.860    21807902.420          49.500
        45.000
 128692828.765 7 100280105.97745  24489430.280    24489425.460          46.250
        33.000
 119975272.487 7  93487205.43246  22830535.340    22830530.140          47.750
        40.750
 109796201.430 8  85555466.70648  20893519.440    20893517.000          51.250
        50.250
 116074714.580 8  90447811.39347  22088280.560    22088277.080          49.250
        45.250
 120982379.674 7  94271974.23346  23022181.420    23022178.160          47.250
        38.750
 124973476.552 7  97381914.47746  23781660.740    23781658.220          45.500
        38.250
 10  6 20  1 38  0.0000000  0 11G05G06G30G21G16G02G23G29G31G13G10
 126612291.810 7  98658919.71646  24093517.340    24093514.500          45.750
        39.000
 133134102.563 6 103740851.68845  25334577.480    25334575.460          40.250
        33.000
 125881826.254 7  98089734.98546  23954514.740    23954512.640          44.000
        36.000
 123723811.054 7  96408153.85645  23543859.100    23543855.540          45.000
        33.250
 114521081.232 8  89237203.25647  21792636.480    21792633.020          49.250
        45.500
 128789708.463 7 100355596.68845  24507865.900    24507860.880          44.750
        35.250
 120006434.001 7  93511487.11946  22836465.180    22836460.020          47.750
        40.750
 109835900.015 8  85586400.71648  20901073.820    20901071.300          51.250
        50.250
 116167876.863 8  90520405.37747  22106008.760    22106005.300          49.250
        45.500
 120951154.342 7  94247642.81746  23016239.440    23016236.340          47.000
        38.750
 124952583.763 7  97365634.38346  23777684.980    23777682.500          45.750
        38.500
 10  6 20  1 38 30.0000000  0 11G05G06G30G21G16G02G23G29G31G13G10
 126544030.952 7  98605729.43246  24080527.780    24080524.840          45.750
        39.500
 133015086.588 6 103648111.83243  25311929.480    25311928.080          37.500
        23.500
 125983919.814 7  98169288.37045  23973942.420    23973940.500          44.250
        34.250
 123610132.124 7  96319572.78245  23522226.780    23522223.180          45.000
        35.250
 114441210.295 8  89174966.07047  21777437.540    21777434.100          49.500
        45.500
 128886878.788 7 100431313.83245  24526356.900    24526351.740          44.250
        35.250
 120038191.155 7  93536232.95646  22842508.360    22842503.300          47.750
        40.750
 109876149.244 8  85617763.72848  20908733.000    20908730.420          51.250
        50.000
 116261459.962 8  90593327.27847  22123817.040    22123813.600          48.750
        45.500
 120920535.747 7  94223784.17146  23010412.900    23010409.800          47.250
        38.500
 124932265.198 7  97349801.73946  23773818.540    23773816.040          45.000
        38.750
 10  6 20  1 39  0.0000000  0 11G05G06G30G21G16G02G23G29G31G13G10
 126476223.340 7  98552892.33846  24067624.440    24067621.440          45.750
        39.000
 132896088.239 6 103555385.89245  25289284.840    25289283.360          36.250
        34.250
 126086166.947 7  98248961.28846  23993399.440    23993397.440          45.000
        36.250
 123496705.515 7  96231188.38045  23500642.500    23500638.700          44.750
        35.750
 114361712.286 8  89113019.51647  21762309.660    21762306.220          49.500
        45.500
 128984337.083 7 100507255.35145  24544902.660    24544897.600          44.750
        35.750
 120070542.641 7  93561441.91346  22848664.720    22848659.520          47.750
        41.000
 109916948.033 8  85649554.96648  20916496.780    20916494.180          51.250
        50.000
 116355460.659 8  90666574.50047  22141704.700    22141701.440          48.750
        45.750
 120890524.699 7  94200398.94346  23004702.040    23004698.820          47.250
        38.250
 124912522.177 7  97334417.56546  23770061.500    23770059.140          45.250
        38.750
 10  6 20  1 39 30.0000000  0 11G05G06G30G21G16G02G23G29G31G13G10
 126408871.644 7  98500410.49746  24054807.780    24054804.680          45.500
        39.000
 132777109.567 6 103462675.29045  25266644.000    25266642.560          38.750
        33.500
 126188566.781 7  98328753.19745  24012885.720    24012883.640          46.000
        34.750
 123383534.682 7  96143003.35345  23479106.720    23479103.040          44.750
        35.500
 114282588.718 8  89051364.81247  21747253.000    21747249.600          49.500
        45.500
 129082080.851 7 100583419.30746  24563502.720    24563497.640          44.500
        36.500
 120103487.354 7  93587113.11546  22854933.960    22854928.720          47.750
        40.750
 109958295.545 8  85681773.83648  20924364.960    20924362.340          51.250
        50.000
 116449877.322 8  90740145.86347  22159671.460    22159668.420          48.500
        45.000
 120861122.584 7  94177488.20046  22999107.100    22999103.820          47.250
        39.250
 124893355.720 7  97319482.66546  23766414.300    23766411.840          45.000
        39.000
 10  6 20  1 40  0.0000000  0 11G05G06G30G21G16G02G23G29G31G13G10
 126341977.815 7  98448285.43146  24042078.120    24042075.180          45.000
        39.250
 132658151.973 6 103369981.02445  25244007.080    25244005.640          39.250
        31.750
 126291117.558 7  98408662.88746  24032400.740    24032398.620          46.000
        37.250
 123270621.966 7  96055019.40745  23457620.100    23457616.540          44.000
        35.000
 114203841.641 8  88990003.51547  21732267.940    21732264.540          49.500
        45.500
 129180106.937 7 100659803.25445  24582156.440    24582151.420          44.500
        34.500
 120137023.548 7  93613245.19746  22861315.660    22861310.440          47.750
        41.250
 110000189.156 8  85714418.21448  20932337.040    20932334.420          51.250
        50.000
 116544706.497 8  90814038.74647  22177716.760    22177713.780          48.250
        45.000
 120832329.856 7  94155052.32446  22993628.000    22993624.700          47.000
        38.500
 124874765.974 7  97304997.16146  23762876.860    23762874.480          45.250
        38.250
 10  6 20  1 40 30.0000000  0 11G05G06G30G21G16G02G23G29G31G13G10
 126275544.673 7  98396519.35946  24029436.260    24029433.420          45.250
        38.500
 132539217.338 6 103277304.64245  25221374.720    25221373.180          40.000
        30.500
 126393818.241 7  98488689.45445  24051944.220    24051941.900          45.000
        35.500
 123157971.218 7  95967239.70046  23436183.240    23436179.880          44.250
        36.500
 114125473.257 8  88928937.30847  21717354.900    21717351.520          49.500
        45.500
 129278412.809 7 100736405.23345  24600863.420    24600858.280          44.750
        35.750
 120171149.974 8  93639837.19946  22867809.740    22867804.500          48.000
        41.000
 110042627.882 8  85747487.37948  20940412.840    20940410.220          51.250
        50.000
 116639945.959 8  90888251.33647  22195840.180    22195837.180          48.750
        45.000
 120804148.023 7  94133092.45846  22988265.060    22988261.960          47.250
        39.500
 124856753.643 7  97290961.56746  23759449.120    23759446.760          44.750
        38.000
 10  6 20  1 41  0.0000000  0 11G05G06G30G21G16G02G23G29G31G13G10
 126209572.690 7  98345112.61346  24016882.300    24016879.440          45.250
        39.500
 132420305.504 6 103184646.06245  25198746.740    25198744.800          39.500
        33.750
 126496665.207 7  98568830.00546  24071515.320    24071513.060          44.000
        36.750
 123045583.606 7  95879664.97245  23414796.520    23414793.140          44.000
        35.500
 114047483.633 8  88868166.21947  21702513.960    21702510.540          49.750
        45.750
 129376994.079 7 100813221.82345  24619622.740    24619617.700          44.750
        35.500
 120205863.730 7  93666886.87146  22874415.640    22874410.240          47.750
        41.500
 110085608.462 8  85780978.74548  20948591.760    20948589.140          51.250
        50.250
 116735591.044 8  90962779.94547  22214040.900    22214037.840          48.750
        45.000
 120776576.386 7  94111608.07246  22983018.220    22983015.260          47.000
        38.750
 124839318.087 7  97277375.42546  23756131.200    23756128.720          45.250
        37.500
 10  6 20  1 41 30.0000000  0 11G05G06G30G21G16G02G23G29G31G13G10
 126144066.857 7  98294069.11146  24004417.060    24004414.120          45.500
        39.000
 132301420.674 6 103092008.55745  25176123.740    25176121.860          38.750
        34.250
 126599658.892 7  98649084.93546  24091114.160    24091112.140          43.500
        36.750
 122933464.736 7  95792299.65646  23393460.820    23393457.540          44.250
        36.250
 113969877.088 8  88807693.61147  21687745.900    21687742.500          49.750
        45.250
 129475850.485 7 100890252.80345  24638434.400    24638429.320          45.000
        35.000
 120241165.355 7  93694394.62946  22881133.360    22881127.960          47.750
        41.250
 110129131.772 8  85814892.99648  20956873.940    20956871.320          51.250
        50.000
 116831641.457 8  91037624.44847  22232318.760    22232315.620          48.750
        44.750
 120749617.980 7  94090601.54546  22977888.220    22977885.220          47.250
        39.250
 124822462.172 7  97264240.94246  23752923.720    23752921.160          45.250
        37.250
 10  6 20  1 42  0.0000000  0 11G05G06G30G21G16G02G23G29G31G13G10
 126079029.779 7  98243390.88146  23992040.900    23992038.080          45.500
        38.250
 132182564.623 6 102999393.37045  25153505.860    25153503.920          37.750
        32.000
 126702797.988 7  98729453.12946  24110740.620    24110738.900          43.250
        36.750
 122821617.623 7  95705146.09845  23372177.080    23372173.780          44.500
        35.500
 113892655.191 8  88747520.72047  21673051.040    21673047.620          49.750
        45.750
 129574979.438 7 100967496.14746  24657297.940    24657293.120          44.250
        36.000
 120277053.861 7  93722359.71446  22887962.680    22887957.340          47.500
        41.250
 110173196.361 8  85849229.02348  20965259.140    20965256.520          51.250
        50.000
 116928094.670 8  91112782.77047  22250673.260    22250670.000          49.000
        44.750
 120723274.496 7  94070074.14846  22972875.280    22972872.140          47.500
        38.250
 124806187.183 7  97251559.14246  23749826.640    23749824.160          45.000
        37.000
 10  6 20  1 42 30.0000000  0 11G05G06G30G21G16G02G23G29G31G13G10
 126014463.105 7  98193079.16246  23979754.280    23979751.340          45.250
        38.000
 132063738.665 6 102906801.69646  25130893.720    25130892.060          36.000
        37.000
 126806080.424 7  98809932.97446  24130394.480    24130392.720          44.500
        36.750
 122710045.051 7  95618206.44246  23350945.480    23350942.280          44.750
        36.500
 113815820.172 8  88687649.31847  21658429.840    21658426.380          49.750
        45.500
 129674377.816 7 101044949.42345  24676212.820    24676208.060          43.500
        33.750
 120313527.296 7  93750780.54546  22894903.180    22894897.980          47.750
        41.000
 110217800.117 8  85883985.20048  20973746.980    20973744.360          51.500
        50.000
 117024947.522 8  91188252.47447  22269103.820    22269100.500          48.500
        44.750
 120697546.199 7  94050026.14746  22967979.380    22967976.260          47.500
        39.250
 124790492.570 7  97239329.58046  23746840.060    23746837.440          44.750
        37.500
 10  6 20  1 43  0.0000000  0 11G05G06G30G21G16G02G23G29G31G13G10
 125950369.482 7  98143136.07546  23967557.700    23967554.680          44.500
        37.750
 131944944.402 5 102814234.73245  25108287.800    25108286.320          34.250
        35.500
 126909504.711 7  98890523.36246  24150075.380    24150073.700          43.250
        36.000
 122598750.310 7  95531483.30845  23329766.820    23329763.560          45.000
        34.500
 113739374.162 8  88628081.06247  21643882.620    21643879.120          50.000
        45.750
 129774043.114 7 101122610.69345  24695178.480    24695173.660          42.750
        35.000
 120350584.201 7  93779656.06546  22901954.860    22901949.660          47.500
        41.000
 110262941.686 8  85919160.44548  20982337.140    20982334.540          51.250
        50.000
 117122197.634 8  91264031.75347  22287610.020    22287606.620          48.750
        44.750
 120672434.182 7  94030458.36246  22963200.740    22963197.640          47.500
        38.250
 124775379.178 7  97227552.90446  23743964.080    23743961.460          45.250
        37.000
 10  6 20  1 43 30.0000000  0 11G05G06G30G21G16G02G23G29G31G13G10
 125886749.487 7  98093562.08246  23955451.040    23955448.100          44.500
        37.250
 131826181.972 6 102721692.55245  25085688.280    25085687.040          38.750
        33.500
 127013067.532 7  98971221.66246  24169782.480    24169781.040          43.250
        36.250
 122487734.806 7  95444977.76645  23308641.360    23308637.980          44.500
        35.250
 113663316.423 8  88568815.31247  21629409.300    21629405.680          49.750
        45.750
 129873970.372 7 101200476.07745  24714194.020    24714189.360          43.500
        35.250
 120388221.280 7  93808983.69046  22909116.900    22909111.880          47.500
        41.500
 110308617.430 8  85954751.92348  20991028.920    20991026.360          51.250
        50.000
 117219840.048 8  91340116.69647  22306190.840    22306187.500          48.500
        44.500
 120647937.401 7  94011369.96946  22958539.140    22958535.980          47.250
        39.000
 124760846.164 7  97216228.48046  23741198.540    23741196.000          45.000
        38.250
 10  6 20  1 44  0.0000000  0 11G05G06G30G21G16G02G23G29G31G13G10
 125823606.518 7  98044359.77446  23943435.240    23943432.440          45.000
        38.750
 131707454.428 6 102629177.46645  25063095.600    25063094.040          39.250
        33.250
 127116768.218 7  99052027.36546  24189515.920    24189514.500          43.250
        37.250
 122377002.661 7  95358692.98246  23287569.680    23287566.100          44.500
        37.000
 113587650.751 8  88509855.08347  21615010.560    21615006.900          49.750
        45.750
 129974158.375 7 101278544.65146  24733259.240    24733254.500          43.750
        36.750
 120426437.811 7  93838762.70246  22916389.220    22916384.100          47.500
        41.000
 110354827.361 8  85990759.65148  20999822.380    20999819.820          51.250
        50.000
 117317873.147 8  91416505.97847  22324846.000    22324842.580          48.500
        44.750
 120624057.700 7  93992762.42446  22953994.960    22953991.780          47.500
        39.500
 124746895.272 7  97205357.65946  23738543.780    23738541.180          45.250
        37.000
 10  6 20  1 44 30.0000000  0 11G05G06G30G21G16G02G23G29G31G13G10
 125760943.144 7  97995531.18046  23931510.840    23931508.100          45.000
        39.500
 131588763.474 6 102536690.98645  25040509.600    25040507.960          39.500
        33.750
 127220605.394 7  99132939.42546  24209275.540    24209274.120          43.250
        38.000
 122266557.615 7  95272631.95846  23266552.680    23266549.320          44.000
        37.000
 113512379.008 8  88451201.79347  21600686.740    21600683.140          49.750
        45.500
 130074604.707 7 101356814.52445  24752373.560    24752368.900          42.750
        35.000
 120465232.697 7  93868992.36346  22923771.740    22923766.560          47.750
        41.000
 110401569.690 8  86027182.23948  21008717.200    21008714.580          51.250
        50.000
 117416294.864 8  91493198.19547  22343575.060    22343571.740          48.500
        44.500
 120600796.390 7  93974636.74146  22949568.480    22949565.240          47.250
        39.000
 124733527.618 7  97194941.29746  23736000.020    23735997.260          45.000
        38.250
 10  6 20  1 45  0.0000000  0 11G05G06G30G21G16G02G23G29G31G13G10
 125698761.889 7  97947078.25146  23919678.240    23919675.560          44.500
        38.500
 131470111.219 6 102444234.63645  25017931.020    25017928.760          39.250
        32.250
 127324577.986 7  99213956.99346  24229061.020    24229059.520          44.250
        37.750
 122156402.762 7  95186797.03246  23245590.880    23245587.580          44.500
        37.000
 113437503.565 8  88392857.29847  21586438.360    21586434.820          49.750
        46.000
 130175306.602 7 101435283.53146  24771536.460    24771531.860          42.750
        37.250
 120504604.831 7  93899671.92046  22931264.100    22931259.000          47.750
        40.500
 110448843.180 8  86064018.73548  21017713.040    21017710.400          51.250
        49.750
 117515102.692 8  91570191.32847  22362377.620    22362374.380          48.500
        45.000
 120578154.676 7  93956993.85946  22945259.940    22945256.640          47.250
        38.750
 124720743.620 7  97184979.75246  23733567.240    23733564.660          44.250
        39.750
 10  6 20  1 45 30.0000000  0 11G05G06G30G21G16G02G23G29G31G13G10
 125637065.633 7  97899003.25146  23907937.700    23907935.020          43.750
        38.000
 131351500.031 6 102351810.28745  24995360.140    24995357.960          41.000
        31.250
 127428684.874 7  99295079.21546  24248872.020    24248870.340          44.500
        36.750
 122046541.587 7  95101190.94046  23224684.980    23224681.820          44.750
        37.000
 113363026.911 8  88334823.54847  21572265.880    21572262.420          49.750
        46.000
 130276262.150 6 101513950.19446  24790747.660    24790742.980          41.500
        36.250
 120544553.172 7  93930800.52246  22938866.040    22938860.940          47.000
        41.000
 110496646.824 8  86101268.33448  21026809.740    21026807.160          51.250
        49.750
 117614294.363 8  91647483.54847  22381253.080    22381249.980          48.250
        44.750
 120556133.799 7  93939834.74046  22941069.480    22941066.300          47.250
        39.500
 124708544.170 7  97175473.69046  23731245.680    23731243.320          44.750
        38.250
 10  6 20  1 46  0.0000000  0 11G05G06G30G21G16G02G23G29G31G13G10
 125575855.372 7  97851306.94746  23896289.640    23896286.820          44.250
        38.000
 131232930.437 6 102259418.33444  24972797.160    24972795.000          37.750
        29.500
 127532923.287 7  99376303.96246  24268707.980    24268706.240          44.250
        37.250
 121936976.076 7  95015815.25945  23203835.360    23203832.140          45.250
        35.750
 113288949.561 8  88277100.95647  21558169.380    21558165.940          50.000
        46.250
 130377467.567 6 101592811.55046  24810006.320    24810001.720          41.250
        36.500
 120585074.732 7  93962375.81246  22946577.040    22946571.860          47.500
        40.250
 110544977.540 8  86138928.64348  21036006.780    21036004.220          51.250
        49.750
 117713865.998 8  91725071.83247  22400200.900    22400197.780          48.250
        44.750
 120534733.597 7  93923159.25046  22936997.120    22936993.860          47.250
        39.500
 124696928.503 7  97166422.51746  23729035.300    23729033.060          45.000
        37.500
 10  6 20  1 46 30.0000000  0 11G05G06G30G21G16G02G23G29G31G13G10
 125515136.724 7  97803993.71346  23884735.280    23884732.340          44.750
        38.750
 131114407.306 6 102167062.67045  24950242.740    24950241.300          38.250
        31.250
 127637294.561 7  99457632.17045  24288569.260    24288567.420          43.500
        34.250
 121827712.698 7  94930674.96646  23183043.280    23183039.980          45.500
        38.250
 113215276.755 8  88219693.57447  21544149.900    21544146.460          50.250
        46.250
 130478923.192 6 101671867.87946  24829312.640    24829308.020          41.250
        37.750
 120626171.178 7  93994399.08246  22954397.460    22954392.200          47.500
        40.500
 110593837.089 8  86177001.03348  21045304.480    21045301.860          51.250
        50.000
 117813817.984 8  91802956.51747  22419221.140    22419217.960          48.250
        44.250
 120513957.741 7  93906970.26946  22933043.580    22933040.420          47.000
        39.250
 124685900.701 7  97157829.41246  23726936.820    23726934.440          45.000
        38.750
 10  6 20  1 47  0.0000000  0 11G05G06G30G21G16G02G23G29G31G13G10
 125454905.391 7  97757060.20946  23873273.840    23873270.880          45.000
        40.000
 130995925.986 6 102074739.55545  24927696.540    24927695.340          40.750
        32.750
 127741790.636 7  99539057.68245  24308454.220    24308452.400          42.500
        34.000
 121718748.127 7  94845767.51446  23162308.140    23162304.760          45.750
        37.750
 113142003.803 8  88162597.75247  21530206.520    21530203.100          50.000
        46.500
 130580619.847 6 101751111.97946  24848664.820    24848660.300          40.250
        37.750
 120667834.139 7  94026863.75246  22962325.660    22962320.460          47.750
        40.500
 110643217.102 8  86215478.98148  21054701.140    21054698.560          51.250
        49.750
 117914140.778 8  91881130.04747  22438312.000    22438308.660          48.500
        44.250
 120493800.258 7  93891263.13546  22929207.680    22929204.560          47.250
        38.500
 124675454.166 7  97149689.25146  23724949.040    23724946.500          45.750
        37.500
 10  6 20  1 47 30.0000000  0 11G05G06G30G21G16G02G23G29G31G13G10
 125395169.727 7  97710512.94446  23861906.620    23861903.840          45.250
        39.500
 130877494.163 6 101982454.90945  24905160.040    24905157.980          39.750
        34.000
 127846415.888 7  99620583.77845  24328363.720    24328361.420          42.000
        32.500
 121610091.511 7  94761100.02146  23141631.540    23141628.040          45.750
        36.750
 113069138.711 8  88105819.71947  21516340.760    21516337.340          50.000
        46.250
 130682560.919 6 101830546.55446  24868063.600    24868059.060          40.000
        38.000
 120710068.103 7  94059773.35246  22970362.540    22970357.300          47.500
        40.250
 110693122.203 8  86254366.07548  21064197.760    21064195.160          51.250
        49.750
 118014838.046 8  91959595.43947  22457474.140    22457470.680          48.250
        44.000
 120474268.318 7  93876043.45046  22925490.920    22925487.740          47.500
        39.250
 124665595.882 7  97142007.46746  23723073.140    23723070.500          45.250
        37.750
 10  6 20  1 48  0.0000000  0 10G05G06G30G21G16G23G29G31G13G10
 125335928.545 7  97664351.00146  23850633.300    23850630.680          45.000
        39.500
 130759110.608 6 101890208.01045  24882632.260    24882630.320          37.750
        35.250
 127951165.821 6  99702207.13845  24348296.800    24348294.580          40.000
        31.250
 121501742.622 7  94676672.35446  23121013.460    23121009.820          45.500
        36.000
 112996680.130 8  88049358.45247  21502552.420    21502548.980          50.250
        46.500
 120752868.052 7  94093123.92946  22978507.080    22978501.900          47.750
        40.500
 110743547.074 8  86293658.17348  21073793.320    21073790.680          51.250
        49.500
 118115903.548 8  92038347.77847  22476706.320    22476702.700          48.000
        44.000
 120455359.313 7  93861309.16146  22921892.700    22921889.520          47.250
        39.250
 124656323.214 7  97134781.99946  23721308.620    23721305.900          45.000
        37.500
 10  6 20  1 48 30.0000000  0 11G05G06G30G21G16G02G23G29G31G13G10
 125277188.127 7  97618579.23646  23839455.380    23839452.720          45.750
        39.750
 130640780.689 6 101798002.87245  24860114.620    24860112.800          39.000
        34.750
 128056042.703 6  99783929.34645  24368254.160    24368252.320          41.500
        32.750
 121393708.497 7  94592489.93346  23100455.260    23100451.440          45.250
        36.750
 112924634.169 8  87993218.79247  21488842.600    21488839.120          50.250
        46.500
 130887155.128 6 101989972.46646  24906997.460    24906993.000          39.750
        36.250
 120796236.622 7  94126917.69646  22986759.860    22986754.620          47.500
        40.750
 110794494.131 8  86333357.17148  21083488.260    21083485.560          51.250
        49.750
 118217338.581 8  92117388.08847  22496008.620    22496005.140          48.000
        43.500
 120437077.786 7  93847063.79646  22918413.760    22918410.720          47.000
        39.250
 124647639.873 7  97128015.73846  23719656.260    23719653.480          45.500
        38.000
 10  6 20  1 49  0.0000000  0 11G05G06G30G21G16G02G23G29G31G13G10
 125218948.778 7  97573197.91846  23828372.820    23828370.040          45.500
        39.750
 130522504.389 6 101705839.48045  24837607.380    24837605.560          38.750
        32.750
 128161042.976 7  99865747.68745  24388234.920    24388233.280          43.250
        35.000
 121285990.307 7  94508553.67346  23079957.040    23079953.360          45.750
        36.750
 112853000.182 8  87937400.10647  21475211.160    21475207.600          50.250
        46.500
 130989809.288 7 102069962.69146  24926531.880    24926527.600          42.500
        36.000
 120840169.315 7  94161150.97146  22995119.920    22995114.620          47.500
        40.000
 110845960.101 8  86373460.53348  21093281.920    21093279.240          51.250
        49.750
 118319138.101 7  92196712.35247  22515380.360    22515377.020          47.750
        43.750
 120419422.154 7  93833306.16346  22915053.960    22915050.960          47.500
        39.000
 124639544.364 7  97121707.56046  23718115.760    23718113.100          45.250
        38.000
 10  6 20  1 49 30.0000000  0 11G05G06G30G21G16G02G23G29G31G13G10
 125161209.018 7  97528205.89146  23817385.240    23817382.620          45.250
        41.250
 130404279.998 6 101613716.54645  24815110.040    24815108.060          38.750
        33.500
 128266161.599 7  99947658.26046  24408238.520    24408236.840          44.500
        36.500
 121178588.136 7  94424863.74646  23059519.020    23059515.340          46.250
        37.000
 112781777.068 8  87881901.56847  21461657.900    21461654.300          50.250
        46.750
 131092692.351 7 102150131.33646  24946109.960    24946105.500          43.000
        36.000
 120884661.317 7  94195820.06846  23003586.360    23003581.100          47.250
        40.250
 110897938.918 8  86413963.51848  21103173.140    21103170.500          51.250
        49.750
 118421295.977 8  92276315.89247  22534820.360    22534817.060          48.000
        43.750
 120402389.830 7  93820034.19846  22911812.840    22911809.760          47.250
        39.000
 124632033.933 7  97115855.26446  23716686.420    23716683.920          45.000
        36.500
 10  6 20  1 50  0.0000000  0 11G05G06G30G21G16G02G23G29G31G13G10
 125103975.155 7  97483608.08646  23806493.960    23806491.460          45.250
        41.750
 130286113.418 6 101521638.64446  24792623.820    24792622.160          39.750
        36.500
 128371400.296 7 100029662.35945  24428264.960    24428263.420          45.500
        35.750
 121071508.304 7  94341424.93046  23039142.360    23039138.640          45.750
        37.250
 112710970.581 8  87826727.67747  21448183.840    21448180.300          50.250
        46.750
 131195805.438 7 102230479.18246  24965731.960    24965727.400          44.000
        36.500
 120929714.704 7  94230926.56446  23012159.720    23012154.560          47.500
        40.250
 110950433.175 8  86454868.13848  21113162.460    21113159.880          51.250
        49.500
 118523813.826 8  92356199.94847  22554328.820    22554325.560          48.000
        43.250
 120385985.433 7  93807251.54146  22908691.320    22908688.120          47.250
        39.000
 124625112.437 7  97110461.87046  23715369.200    23715366.620          45.000
        37.000
 10  6 20  1 50 30.0000000  0 11G05G06G30G21G16G02G23G29G31G13G10
 125047247.097 7  97439404.41646  23795699.040    23795696.400          45.750
        40.000
 130168004.147 6 101429605.48345  24770148.300    24770146.860          37.750
        34.500
 128476755.929 7 100111757.58646  24448313.740    24448312.020          46.000
        36.000
 120964752.159 7  94258238.36946  23018827.220    23018823.540          45.500
        36.500
 112640580.518 8  87771878.29347  21434789.000    21434785.520          50.250
        46.750
 131299144.297 7 102311002.97845  24985396.880    24985392.160          44.000
        35.500
 120975325.869 7  94266467.70146  23020839.200    23020834.160          47.250
        40.500
 111003438.871 8  86496171.26948  21123249.100    21123246.500          51.250
        49.500
 118626686.571 8  92436360.57047  22573904.880    22573901.640          48.000
        43.750
 120370207.483 7  93794957.03246  22905688.840    22905685.680          47.000
        38.250
 124618778.345 7  97105526.19646  23714163.840    23714161.340          45.000
        36.750
 10  6 20  1 51  0.0000000  0 11G05G06G30G21G16G02G23G29G31G13G10
 124991028.978 7  97395598.07146  23785001.180    23784998.380          46.250
        40.000
 130049955.989 6 101337619.92245  24747684.540    24747683.200          40.250
        34.500
 128582229.018 7 100193944.33145  24468384.860    24468382.820          45.500
        35.250
 120858325.095 7  94175308.21146  22998574.680    22998571.180          45.000
        36.000
 112570610.470 8  87717356.16747  21421474.100    21421470.640          50.250
        46.750
 131402707.869 7 102391701.87046  25005104.500    25005099.680          44.000
        36.500
 121021494.884 7  94302443.56546  23029624.900    23029619.760          47.500
        39.750
 111056956.628 8  86537873.40748  21133433.140    21133430.560          51.000
        49.500
 118729913.287 7  92516796.98147  22593548.220    22593545.080          47.500
        43.750
 120355058.519 7  93783152.64146  22902806.020    22902803.020          47.250
        39.250
 124613034.082 7  97101050.13246  23713070.800    23713068.240          45.250
        36.750
 10  6 20  1 51 30.0000000  0 11G05G06G30G21G16G02G23G29G31G13G10
 124935322.935 7  97352190.77346  23774400.680    23774397.800          45.500
        40.500
 129931970.703 6 101245683.24546  24725232.880    24725231.340          40.500
        37.500
 128687817.763 7 100276221.23445  24488477.940    24488475.760          43.250
        34.500
 120752229.906 7  94092636.73246  22978385.260    22978381.980          45.500
        38.250
 112501062.448 8  87663162.90347  21408239.560    21408236.060          50.250
        46.750
 131506493.264 7 102472573.61046  25024854.120    25024849.180          43.250
        36.750
 121068219.498 7  94338852.34746  23038516.300    23038511.180          47.500
        39.750
 111110984.412 8  86579972.99148  21143714.260    21143711.660          51.250
        49.500
 118833491.093 7  92597507.01647  22613258.320    22613255.180          47.500
        43.250
 120340538.772 7  93771838.56446  22900042.960    22900040.020          47.250
        39.000
 124607879.665 7  97097033.68946  23712090.120    23712087.540          45.000
        38.000
 10  6 20  1 52  0.0000000  0 11G05G06G30G21G16G02G23G29G31G13G10
 124880127.715 7  97309181.48946  23763897.320    23763894.440          45.750
        39.500
 129814047.216 6 101153794.96044  24702792.620    24702791.460          38.750
        24.750
 128793517.638 6 100358584.75145  24508591.980    24508589.720          40.750
        33.750
 120646466.687 7  94010223.88346  22958259.160    22958255.820          45.500
        37.000
 112431934.645 8  87609297.00147  21395084.980    21395081.480          50.250
        46.750
 131610494.725 7 102553613.65446  25044644.840    25044639.840          43.500
        38.000
 121115495.216 7  94375690.54746  23047512.560    23047507.500          47.500
        40.250
 111165517.090 8  86622466.00148  21154091.480    21154088.840          51.000
        49.500
 118937414.159 7  92678486.03747  22633034.180    22633031.060          47.250
        43.250
 120326645.696 7  93761012.79346  22897399.260    22897396.220          47.250
        39.250
 124603312.106 7  97093474.55046  23711220.980    23711218.340          45.500
        38.000
 10  6 20  1 52 30.0000000  0 11G05G06G30G21G16G02G23G29G31G13G10
 124825449.631 7  97266575.17946  23753492.400    23753489.540          45.500
        40.750
 129696190.925 6 101061958.91845  24680365.140    24680363.840          39.750
        31.750
 128899330.689 6 100441036.40145  24528727.380    24528725.440          41.500
        33.250
 120541042.315 7  93928075.07446  22938197.560    22938194.240          46.000
        36.250
 112363234.258 8  87555764.17847  21382011.760    21382008.240          50.250
        46.750
 131714713.797 7 102634823.32145  25064476.960    25064471.980          43.250
        35.750
 121163324.074 7  94412959.75646  23056614.040    23056608.920          47.250
        39.500
 111220556.831 8  86665354.11148  21164565.180    21164562.520          51.250
        49.250
 119041683.398 7  92759734.80747  22652875.980    22652872.780          47.500
        43.000
 120313383.729 7  93750678.75946  22894875.620    22894872.500          47.250
        39.250
 124599335.508 7  97090375.90246  23710464.400    23710461.620          46.000
        38.000
 10  6 20  1 53  0.0000000  0 11G05G06G30G21G16G02G23G29G31G13G10
 124771291.038 7  97224373.67846  23743186.300    23743183.620          46.000
        40.000
 129578403.955 6 100970176.88745  24657950.840    24657949.280          36.250
        34.500
 129005255.745 6 100523575.33045  24548884.100    24548882.480          41.000
        34.500
 120435960.248 7  93846192.96346  22918201.140    22918197.700          46.000
        37.500
 112294962.703 8  87502565.54947  21369020.180    21369016.660          50.250
        46.750
 131819147.881 7 102716200.51346  25084350.040    25084345.300          43.500
        37.250
 121211704.035 7  94450658.39246  23065820.440    23065815.260          47.500
        39.750
 111276102.277 8  86708636.25548  21175135.140    21175132.480          51.000
        49.250
 119146296.307 7  92841251.34747  22672783.180    22672779.840          47.500
        42.250
 120300753.629 7  93740837.09746  22892472.240    22892469.120          47.250
        39.500
 124595950.419 7  97087738.15446  23709820.260    23709817.520          45.250
        38.750
 10  6 20  1 53 30.0000000  0 11G05G06G30G21G16G02G23G29G31G13G10
 124717651.084 7  97182576.30346  23732979.000    23732976.320          46.250
        40.000
 129460685.317 6 100878448.15645  24635549.620    24635548.140          39.500
        33.500
 129111288.343 7 100606198.07045  24569061.460    24569059.900          43.250
        35.250
 120331220.895 7  93764577.89546  22898270.000    22898266.260          46.250
        38.250
 112227119.317 8  87449700.66247  21356110.000    21356106.500          50.250
        47.000
 131923791.589 7 102797741.05745  25104263.060    25104258.260          43.500
        35.750
 121260630.759 7  94488783.08746  23075130.920    23075125.800          47.250
        39.500
 111332148.699 8  86752308.76748  21185800.420    21185797.820          51.250
        49.250
 119251247.600 7  92923031.58747  22692754.760    22692751.520          47.250
        43.000
 120288753.443 7  93731486.30046  22890188.680    22890185.640          47.250
        39.750
 124593154.369 7  97085559.41646  23709288.000    23709285.500          45.000
        37.250
 10  6 20  1 54  0.0000000  0 12G05G06G30G03G21G16G02G23G29G31G13G10
 124664529.801 7  97141183.07946  23722870.440    23722867.700          45.750
        40.000
 129343035.055 6 100786772.62445  24613161.640    24613159.820          39.000
        33.250
 129217424.954 7 100688901.89646  24589258.740    24589257.060          43.750
        37.000
 135266308.874 5 105402294.44844  25740323.440    25740317.660          35.500
        27.500
 120226825.312 7  93683230.66746  22878404.220    22878400.540          46.000
        38.000
 112159702.796 8  87397168.32447  21343281.060    21343277.560          50.250
        47.000
 132028640.425 7 102879441.42145  25124215.140    25124210.500          44.500
        33.250
 121310100.244 7  94527330.68946  23084544.740    23084539.540          47.500
        39.750
 111388692.650 8  86796368.99048  21196560.400    21196557.840          51.000
        49.250
 119356532.435 7  93005071.77047  22712789.860    22712786.580          47.500
        42.750
 120277380.860 7  93722624.54246  22888024.580    22888021.580          47.500
        40.250
 124590945.218 7  97083838.00446  23708867.620    23708865.180          45.250
        38.000
 10  6 20  1 54 30.0000000  0 12G05G06G30G03G21G16G02G23G29G31G13G10
 124611934.973 7  97100200.06746  23712861.900    23712859.260          46.000
        40.500
 129225460.355 6 100695156.00845  24590787.960    24590786.240          40.750
        35.500
 129323669.595 7 100771689.83645  24609476.540    24609474.700          43.500
        35.750
 135159121.288 5 105318813.62743  25719925.880    25719923.400          33.000
        19.250
 120122782.155 7  93602158.13246  22858605.420    22858601.700          45.500
        38.500
 112092721.662 8  87344975.24047  21330534.900    21330531.480          50.250
        47.000
 132133697.594 7 102961304.14845  25144206.960    25144202.360          45.000
        32.750
 121360116.487 8  94566304.39546  23094062.640    23094057.340          48.000
        39.000
 111445738.091 8  86840819.98348  21207415.760    21207413.220          51.000
        49.250
 119462153.406 7  93087373.79947  22732888.900    22732885.600          47.500
        43.000
 120266642.290 7  93714256.83746  22885981.140    22885978.040          47.500
        38.500
 124589329.022 7  97082578.59746  23708560.060    23708557.660          44.750
        38.500
 10  6 20  1 55  0.0000000  0 12G05G06G30G03G21G16G02G23G29G31G13G10
 124559866.040 7  97059626.87946  23702953.580    23702950.820          46.250
        40.500
 129107960.776 6 100603597.87645  24568428.660    24568427.040          39.750
        35.000
 129430018.396 6 100854559.03045  24629714.120    24629712.380          41.750
        35.750
 135051941.702 5 105235297.05544  25699530.120    25699526.140          34.000
        29.250
 120019092.105 7  93521360.70546  22838873.720    22838870.100          45.500
        38.250
 112026175.080 8  87293120.75747  21317871.520    21317868.080          50.500
        47.250
 132238957.291 7 103043324.67445  25164237.380    25164232.820          44.750
        33.250
 121410674.429 7  94605700.10046  23103683.540    23103678.160          47.500
        40.000
 111503279.886 8  86885657.74148  21218365.640    21218363.040          51.000
        49.250
 119568105.063 7  93169933.54047  22753050.880    22753047.520          47.250
        42.500
 120256535.362 7  93706381.31446  22884057.780    22884054.720          47.250
        39.000
 124588302.997 7  97081779.11446  23708364.620    23708362.440          44.500
        38.250
 10  6 20  1 55 30.0000000  0 12G05G06G30G03G21G16G02G23G29G31G13G10
 124508324.949 7  97019464.98246  23693145.700    23693142.900          46.000
        40.750
 128990537.752 6 100512099.39745  24546083.740    24546082.380          40.000
        35.250
 129536469.469 6 100937507.92345  24649970.940    24649969.440          41.000
        33.500
 134944771.302 5 105151787.65642  25679135.700    25679134.720          35.500
        16.750
 119915758.015 7  93440840.61246  22819209.860    22819206.260          46.250
        38.250
 111960064.745 8  87241606.17547  21305291.140    21305287.680          50.500
        47.250
 132344417.001 7 103125501.10345  25184305.760    25184301.060          44.750
        32.500
 121461772.079 7  94645516.39146  23113407.180    23113401.900          47.500
        40.000
 111561316.413 8  86930880.99148  21229409.660    21229407.040          51.000
        49.250
 119674384.832 7  93252748.93647  22773275.180    22773271.820          47.250
        42.500
 120247060.407 7  93698998.23446  22882254.760    22882251.820          47.250
        40.000
 124587867.260 7  97081439.59746  23708281.800    23708279.520          45.000
        38.500
 10  6 20  1 56  0.0000000  0 12G05G06G30G03G21G16G02G23G29G31G13G10
 124457312.496 7  96979715.02046  23683438.400    23683435.560          46.250
        40.500
 128873192.352 6 100420661.39346  24523753.760    24523752.320          39.000
        38.250
 129643020.092 6 101020534.26745  24670246.740    24670245.280          40.500
        33.250
 134837609.933 6 105068285.29143  25658743.400    25658741.960          36.500
        21.750
 119812782.336 7  93360599.83446  22799614.180    22799610.540          46.250
        37.750
 111894391.179 8  87190431.91747  21292793.920    21292790.440          50.500
        47.250
 132450073.336 7 103207830.72744  25204411.540    25204407.000          45.000
        28.250
 121513406.799 7  94685751.18446  23123233.000    23123227.840          47.750
        39.250
 111619845.067 8  86976487.72448  21240547.280    21240544.680          51.000
        49.250
 119780989.070 7  93335817.14247  22793561.240    22793557.940          47.250
        43.000
 120238216.973 7  93692107.21646  22880571.880    22880569.020          47.000
        40.000
 124588020.936 7  97081559.35046  23708311.020    23708308.820          44.500
        38.500
 10  6 20  1 56 30.0000000  0 12G05G06G30G03G21G16G02G23G29G31G13G10
 124406832.003 7  96940379.56946  23673832.300    23673829.440          46.000
        40.250
 128755927.455 6 100329286.19545  24501438.760    24501437.680          38.000
        33.500
 129749670.391 6 101103638.32646  24690541.560    24690539.980          40.000
        36.250
 134730460.136 5 104984759.93745  25638353.180    25638350.800          35.500
        31.250
 119710169.135 7  93280641.54946  22780087.480    22780083.880          46.250
        38.000
 111829158.106 8  87139600.92247  21280380.540    21280377.060          50.500
        47.250
 132555924.659 7 103290312.26944  25224554.320    25224549.720          43.000
        29.000
 121565577.861 7  94726404.00146  23133160.780    23133155.700          46.750
        40.500
 111678864.778 8  87022477.08848  21251778.320    21251775.780          51.000
        49.250
 119887915.770 7  93419136.61047  22813908.720    22813905.420          47.250
        42.750
 120230006.411 7  93685709.42346  22879009.540    22879006.580          47.250
        39.500
 124588765.190 7  97082139.31046  23708452.520    23708450.480          44.500
        39.000
 10  6 20  1 57  0.0000000  0 12G05G06G30G03G21G16G02G23G29G31G13G10
 124356887.862 7  96901462.04246  23664328.200    23664325.340          46.000
        40.500
 128638747.558 6 100237977.07645  24479140.400    24479139.040          38.750
        34.500
 129856420.713 7 101186820.25845  24710855.560    24710853.780          43.500
        31.250
 134623325.827 6 104901278.62944  25617965.960    25617964.080          37.500
        29.500
 119607923.760 7  93200969.87346  22760630.660    22760627.280          46.250
        39.250
 111764369.494 8  87089116.30447  21268051.720    21268048.220          50.500
        47.250
 132661970.807 7 103372945.66245  25244734.000    25244729.200          43.250
        31.500
 121618285.499 7  94767474.96746  23143190.640    23143185.520          47.500
        38.750
 111738376.021 8  87068849.46148  21263102.960    21263100.420          51.000
        49.000
 119995164.643 7  93502707.13847  22834317.580    22834314.240          47.500
        42.250
 120222431.227 7  93679806.74646  22877567.980    22877565.000          47.500
        38.750
 124590102.473 7  97083181.34646  23708707.020    23708704.880          44.750
        37.750
 10  6 20  1 57 30.0000000  0 12G05G06G30G03G21G16G02G23G29G31G13G10
 124307478.358 7  96862961.11446  23654925.920    23654923.000          46.000
        40.000
 128521650.725 6 100146732.88046  24456857.460    24456856.300          37.250
        36.250
 129963266.231 7 101270076.58644  24731187.660    24731185.980          43.750
        29.500
 134516204.670 6 104817807.62644  25597581.800    25597580.680          39.250
        29.250
 119506046.016 7  93121584.67946  22741243.960    22741240.520          46.500
        39.250
 111700022.909 8  87038976.12847  21255807.020    21255803.480          50.500
        47.250
 132768205.621 6 103455726.04944  25264949.620    25264944.780          41.750
        28.500
 121671524.108 7  94808959.60446  23153321.640    23153316.440          47.750
        39.250
 111798373.515 8  87115600.72848  21274520.120    21274517.580          51.000
        49.000
 120102728.803 7  93586523.33647  22854786.460    22854783.040          47.250
        42.250
 120215488.451 7  93674396.78846  22876246.880    22876243.760          47.500
        40.750
 124592029.371 7  97084682.83146  23709073.720    23709071.580          44.500
        38.250
 10  6 20  1 58  0.0000000  0 12G05G06G30G03G21G16G02G23G29G31G13G10
 124258606.297 7  96824878.99046  23645625.900    23645623.020          45.750
        40.250
 128404639.827 6 100055555.53345  24434590.980    24434589.620          38.500
        32.250
 130070205.906 7 101353406.13544  24751537.680    24751535.960          44.250
        27.000
 134409098.450 6 104734348.23245  25577200.400    25577199.200          39.750
        31.000
 119404539.302 7  93042488.56546  22721927.840    22721924.440          46.250
        39.750
 111636122.059 8  86989183.26247  21243647.080    21243643.540          50.500
        47.500
 132874627.278 7 103538652.01845  25285201.000    25285196.240          42.500
        30.000
 121725292.215 7  94850856.79546  23163553.320    23163548.220          47.500
        39.500
 111858856.104 8  87162729.96348  21286029.600    21286027.060          51.000
        49.000
 120210606.909 7  93670584.14246  22875314.920    22875311.600          47.250
        41.500
 120209178.898 7  93669480.27446  22875046.260    22875043.060          47.000
        40.750
 124594546.754 7  97086644.42646  23709552.720    23709550.380          45.000
        37.500
 10  6 20  1 58 30.0000000  0 12G05G06G30G03G21G16G02G23G29G31G13G10
 124210273.486 7  96787217.07646  23636428.360    23636425.620          45.750
        40.250
 128287716.628 6  99964446.57745  24412341.160    24412339.600          38.500
        34.500
 130177238.422 7 101436808.18944  24771905.420    24771903.540          45.000
        29.500
 134302008.728 6 104650901.67945  25556822.040    25556820.280          39.250
        32.250
 119303407.263 7  92963684.42246  22702683.080    22702679.740          46.250
        39.750
 111572668.375 8  86939738.84347  21231572.180    21231568.720          50.500
        47.500
 132981233.177 6 103621721.56645  25305487.720    25305482.720          41.750
        31.500
 121779588.090 7  94893165.24946  23173885.500    23173880.420          47.250
        39.750
 111919822.235 8  87210235.93748  21297631.120    21297628.560          51.000
        49.000
 120318795.955 7  93754887.21346  22895902.600    22895899.260          47.000
        41.500
 120203502.863 7  93665057.42246  22873966.100    22873962.900          47.250
        39.250
 124597654.732 7  97089066.21546  23710144.240    23710141.820          45.250
        38.500
 10  6 20  1 59  0.0000000  0 12G05G06G30G03G21G16G02G23G29G31G13G10
 124162482.139 7  96749977.05346  23627333.920    23627331.240          45.750
        41.250
 128170882.993 6  99873407.39845  24390108.480    24390106.880          39.000
        32.750
 130284362.151 7 101520281.16445  24792290.560    24792288.460          44.250
        31.750
 134194936.815 6 104567469.02444  25536446.720    25536444.980          40.000
        29.750
 119202652.889 7  92885174.59846  22683510.100    22683506.740          46.250
        40.000
 111509663.516 8  86890644.11347  21219582.720    21219579.300          50.500
        47.500
 133088021.010 6 103704932.79945  25325809.000    25325803.640          40.250
        33.250
 121834409.671 7  94935883.33146  23184317.840    23184312.560          47.000
        39.500
 111981269.906 8  87258117.23748  21309324.320    21309321.740          51.000
        49.000
 120427293.325 7  93839430.65546  22916549.100    22916545.660          47.000
        41.250
 120198460.575 7  93661128.35846  22873006.460    22873003.280          47.250
        39.500
 124601352.624 7  97091947.69546  23710847.900    23710845.600          45.500
        38.000
 10  6 20  1 59 30.0000000  0 12G05G06G30G03G21G16G02G23G29G31G13G10
 124115235.571 7  96713161.55246  23618343.140    23618340.500          45.750
        40.250
 128054142.826 6  99782441.06945  24367893.320    24367891.960          38.000
        31.250
 130391577.172 7 101603825.35045  24812692.960    24812690.980          43.250
        30.250
 134087885.684 6 104484052.58045  25516075.420    25516073.540          39.750
        35.000
 119102280.663 7  92806962.52146  22664409.980    22664406.600          46.500
        39.750
 111447111.108 8  86841901.90547  21207679.340    21207676.020          50.500
        47.500
 133194989.559 6 103788284.89445  25346164.680    25346158.800          39.250
        32.500
 121889756.335 7  94979010.40446  23194849.920    23194844.620          47.250
        39.250
 112043199.046 8  87306373.75548  21321109.080    21321106.420          51.000
        48.750
 120536097.870 7  93924213.35846  22937253.880    22937250.540          47.000
        41.750
 120194053.684 7  93657694.41346  22872167.840    22872164.720          47.250
        40.750
 124605642.428 7  97095290.39346  23711664.160    23711661.980          45.500
        37.250
 10  6 20  2  0  0.0000000  0 12G05G06G30G03G21G16G02G23G29G31G13G10
 124068532.788 7  96676769.77746  23609455.860    23609453.240          45.500
        40.750
 127937494.626 6  99691546.40845  24345696.140    24345694.940          39.750
        33.750
 130498879.213 7 101687437.27345  24833111.780    24833110.180          44.000
        35.750
 133980853.912 6 104400651.17745  25495708.040    25495705.820          40.750
        32.500
 119002291.224 7  92729048.71846  22645382.600    22645379.120          46.750
        39.000
 111385009.398 8  86793510.83547  21195861.780    21195858.500          50.500
        47.750
 133302133.846 6 103871773.98045  25366553.580    25366547.940          38.000
        31.500
 121945623.264 7  95022543.06746  23205481.160    23205475.940          47.250
        39.500
 112105604.329 8  87355001.26448  21332984.400    21332981.780          51.000
        48.750
 120645203.689 7  94009230.83546  22958016.100    22958012.660          46.750
        41.500
 120190279.462 7  93654753.44346  22871449.700    22871446.440          47.250
        39.750
 124610521.008 7  97099091.88946  23712592.520    23712590.260          45.000
        38.750
 10  6 20  2  0 30.0000000  0 12G05G06G30G03G21G16G02G23G29G31G13G10
 124022376.995 7  96640804.23646  23600672.760    23600670.100          45.750
        40.500
 127820941.589 6  99600725.85045  24323516.780    24323515.380          40.000
        32.000
 130606267.836 7 101771116.64845  24853547.240    24853545.400          42.500
        33.250
 133873844.318 6 104317267.07645  25475345.020    25475342.660          41.000
        35.250
 118902688.646 7  92651436.33746  22626428.900    22626425.220          47.000
        38.250
 111323363.042 8  86745474.74947  21184130.900    21184127.640          50.500
        47.750
 133409452.126 6 103955398.55245  25386975.580    25386969.960          39.250
        32.500
 122002009.602 7  95066480.49246  23216211.220    23216206.040          47.250
        39.500
 112168485.479 8  87403999.56748  21344950.240    21344947.600          51.000
        48.750
 120754609.171 7  94094481.81046  22978835.220    22978831.820          46.750
        41.500
 120187139.507 7  93652306.72146  22870852.180    22870848.920          47.000
        40.000
 124615989.940 7  97103353.39846  23713633.340    23713630.960          45.500
        37.500
 10  6 20  2  1  0.0000000  0 12G05G06G30G03G21G16G02G23G29G31G13G10
 123976771.411 7  96605267.42446  23591994.340    23591991.760          46.250
        41.250
 127704487.431 6  99509982.37646  24301356.440    24301355.000          40.750
        36.000
 130713743.346 6 101854863.76145  24873999.060    24873997.240          38.500
        33.250
 133766859.253 6 104233902.10645  25454986.640    25454984.040          41.000
        34.000
 118803477.460 7  92574128.93046  22607549.620    22607545.900          47.000
        38.750
 111262174.470 8  86697795.41047  21172487.120    21172483.840          50.500
        47.750
 133516943.577 6 104039158.08344  25407430.360    25407424.840          38.750
        29.750
 122058915.170 7  95110822.62446  23227039.840    23227034.780          47.250
        39.750
 112231842.118 8  87453368.39348  21357006.580    21357003.960          51.000
        48.750
 120864313.018 7  94179965.26447  22999711.160    22999707.860          46.750
        42.000
 120184635.430 7  93650355.50646  22870375.660    22870372.560          47.250
        40.000
 124622050.585 7  97108075.99746  23714786.700    23714784.340          45.250
        37.750
 10  6 20  2  1 30.0000000  0 12G05G06G30G03G21G16G02G23G29G31G13G10
 123931715.097 7  96570158.62646  23583420.400    23583417.940          46.000
        40.500
 127588131.394 6  99419315.36845  24279214.620    24279213.080          41.500
        34.000
 130821301.533 6 101938675.23645  24894466.500    24894464.840          36.000
        35.250
 133659897.557 6 104150555.28145  25434632.560    25434630.120          39.750
        35.500
 118704658.126 7  92497126.86846  22588744.960    22588741.180          47.000
        39.750
 111201442.787 8  86650471.98848  21160930.260    21160926.920          50.500
        48.000
 133624602.879 6 104123048.42045  25427917.020    25427912.040          37.750
        31.000
 122116334.378 7  95155564.88346  23237966.240    23237961.220          47.000
        39.500
 112295669.137 8  87503103.72948  21369152.460    21369149.880          51.000
        48.750
 120974310.241 7  94265677.35947  23020643.000    23020639.780          47.000
        42.000
 120182764.861 7  93648897.91646  22870019.700    22870016.600          47.500
        39.750
 124628699.584 7  97113257.03146  23716052.020    23716049.480          45.750
        38.250
 10  6 20  2  2  0.0000000  0 12G05G06G30G03G21G16G02G23G29G31G13G10
 123887213.171 7  96535481.80246  23574951.920    23574949.360          46.000
        40.500
 127471878.231 6  99328728.46245  24257092.540    24257090.800          39.750
        35.750
 130928943.801 6 102022552.27045  24914950.100    24914948.660          36.000
        33.250
 133552964.309 6 104067230.66845  25414283.660    25414281.620          38.750
        33.500
 118606236.861 7  92420434.98346  22570015.980    22570012.320          47.000
        38.750
 111141172.893 8  86603508.35047  21149461.300    21149457.960          50.500
        47.750
 133732430.510 6 104207069.95545  25448435.520    25448431.440          36.750
        34.000
 122174268.312 7  95200708.17746  23248990.720    23248985.780          47.250
        39.000
 112359968.422 8  87553207.05548  21381388.220    21381385.640          51.000
        48.750
 121084600.595 7  94351617.87246  23041630.640    23041627.440          46.250
        41.750
 120181530.196 7  93647935.84746  22869784.700    22869781.680          47.000
        39.000
 124635939.844 7  97118898.79446  23717429.920    23717427.340          45.000
        38.250
 10  6 20  2  2 30.0000000  0 12G05G06G30G03G21G16G02G23G29G31G13G10
 123843265.433 7  96501236.81046  23566588.880    23566586.280          45.750
        41.500
 127355727.884 6  99238221.76545  24234989.380    24234988.080          40.500
        34.500
 131036666.587 6 102106491.94345  24935448.980    24935447.800          36.750
        33.750
 133446058.272 6 103983927.24845  25393939.820    25393937.980          38.250
        31.750
 118508215.018 7  92344054.35346  22551363.060    22551359.320          47.250
        39.750
 111081364.688 8  86556904.56848  21138080.180    21138076.900          50.500
        48.000
 133840421.964 6 104291219.11346  25468985.160    25468981.680          37.000
        36.750
 122232713.208 7  95246249.67946  23260112.500    23260107.480          46.750
        39.000
 112424735.956 8  87603675.24648  21393713.060    21393710.520          51.000
        48.750
 121195179.531 7  94437783.19546  23062673.160    23062669.900          47.000
        41.750
 120180929.850 7  93647468.05146  22869670.420    22869667.420          47.000
        40.000
 124643769.500 7  97124999.82046  23718919.800    23718917.320          44.250
        38.250
 10  6 20  2  3  0.0000000  0 12G05G06G30G03G21G16G02G23G29G31G13G10
 123799874.019 7  96467425.33346  23558331.700    23558329.180          46.250
        41.250
 127239682.757 6  99147796.94145  24212906.960    24212905.180          41.000
        34.750
 131144469.107 6 102190493.78645  24955963.360    24955962.200          40.000
        34.750
 133339181.705 6 103900646.79045  25373601.700    25373600.140          38.250
        34.250
 118410595.921 7  92267987.53246  22532786.740    22532783.040          47.250
        39.000
 111022020.408 8  86510662.27447  21126787.380    21126784.060          50.500
        47.750
 133948575.529 6 104375494.49546  25489565.880    25489562.520          37.750
        37.000
 122291667.191 7  95292187.87246  23271331.020    23271325.980          47.000
        38.750
 112489970.359 8  87654507.22948  21406126.820    21406124.260          51.000
        48.750
 121306044.873 7  94524171.67346  23083770.300    23083766.980          47.000
        40.750
 120180964.652 7  93647495.16146  22869677.060    22869674.000          47.250
        38.750
 124652189.099 7  97131560.54946  23720521.860    23720519.560          44.750
        38.000
 10  6 20  2  3 30.0000000  0 12G05G06G30G03G21G16G02G23G29G31G13G10
 123757039.489 7  96434047.77346  23550180.660    23550178.160          46.500
        41.000
 127123743.545 6  99057454.76545  24190844.440    24190842.940          39.250
        35.500
 131252348.148 6 102274555.25645  24976492.180    24976491.120          41.750
        35.000
 133232334.807 6 103817389.44945  25353269.540    25353268.240          37.000
        32.000
 118313381.078 7  92192235.70346  22514287.440    22514283.600          47.250
        39.250
 110963140.813 8  86464782.10147  21115583.000    21115579.640          50.750
        47.750
 134056887.096 6 104459893.11146  25510176.820    25510173.860          37.750
        36.500
 122351126.911 7  95338520.17546  23282645.820    23282640.720          47.250
        39.250
 112555668.066 8  87705700.23148  21418628.720    21418626.120          51.000
        48.750
 121417192.197 7  94610779.92246  23104921.080    23104917.640          46.750
        41.000
 120181633.074 7  93648016.00846  22869804.260    22869801.300          47.250
        39.500
 124661196.493 7  97138579.30246  23722235.900    23722233.620          45.000
        37.000
 10  6 20  2  4  0.0000000  0 12G05G06G30G03G21G16G02G23G29G31G13G10
 123714761.819 7  96401104.13046  23542135.580    23542132.960          46.750
        41.000
 127007910.587 6  98967195.35045  24168801.940    24168800.260          41.000
        32.500
 131360300.768 7 102358674.06845  24997035.080    24997033.520          43.250
        32.000
 133125517.467 6 103734155.13945  25332943.020    25332941.520          38.000
        34.500
 118216572.447 7  92116800.41646  22495865.400    22495861.500          47.250
        39.750
 110904725.402 8  86419263.60748  21104466.860    21104463.560          50.500
        48.000
 134165352.815 6 104544411.83345  25530817.500    25530814.300          39.750
        33.000
 122411088.642 7  95385243.61046  23294056.220    23294051.080          47.250
        37.750
 112621825.457 8  87757251.44348  21431218.060    21431215.420          50.750
        48.750
 121528617.420 7  94697604.68946  23126124.620    23126121.180          46.500
        41.250
 120182933.409 7  93649029.24946  22870051.740    22870048.680          47.000
        39.750
 124670790.177 7  97146054.91646  23724061.500    23724059.140          45.000
        38.750
 10  6 20  2  4 30.0000000  0 12G05G06G30G03G21G16G02G23G29G31G13G10
 123673045.919 7  96368598.22146  23534197.280    23534194.640          46.750
        41.000
 126892188.891 6  98877022.57445  24146781.060    24146779.160          40.750
        33.750
 131468328.598 7 102442851.51645  25017592.220    25017590.700          43.000
        35.250
 133018733.980 6 103650947.13945  25312623.080    25312621.320          38.250
        31.000
 118120175.652 7  92041686.02046  22477521.640    22477517.780          47.250
        39.500
 110846779.834 8  86374111.20248  21093440.160    21093436.880          50.500
        48.000
 134273973.347 6 104629051.14746  25551487.740    25551484.040          40.750
        36.500
 122471552.981 7  95432358.68946  23305562.180    23305557.000          46.750
        38.250
 112688443.681 8  87809161.74848  21443895.020    21443892.420          50.750
        48.500
 121640320.835 7  94784646.25247  23147381.040    23147377.880          46.250
        42.000
 120184868.631 7  93650537.19646  22870419.940    22870416.900          46.500
        39.500
 124680972.878 7  97153989.49746  23725999.120    23725996.940          45.000
        38.000
 10  6 20  2  5  0.0000000  0 12G05G06G30G03G21G16G02G23G29G31G13G10
 123631894.792 7  96336532.40246  23526366.600    23526363.740          47.000
        41.250
 126776581.416 6  98786938.72545  24124781.480    24124779.800          41.250
        32.750
 131576431.506 7 102527087.48945  25038163.580    25038162.060          44.000
        33.250
 132911986.760 6 103567767.44045  25292309.780    25292307.780          37.500
        33.000
 118024194.976 7  91966895.87046  22459257.120    22459253.300          47.250
        39.000
 110789307.077 8  86329327.24448  21082503.480    21082500.200          50.500
        48.000
 134382747.053 6 104713809.85446  25572187.160    25572183.060          40.000
        36.500
 122532519.085 7  95479864.73046  23317163.580    23317158.460          47.000
        38.750
 112755522.212 8  87861430.73948  21456659.600    21456657.080          50.750
        48.500
 121752300.462 7  94871903.01446  23168690.020    23168686.900          46.250
        41.750
 120187439.901 7  93652540.76746  22870909.320    22870906.160          47.250
        39.750
 124691745.832 7  97162384.00646  23728049.140    23728046.960          44.750
        38.500
 10  6 20  2  5 30.0000000  0 12G05G06G30G03G21G16G02G23G29G31G13G10
 123591306.159 7  96304904.89647  23518642.860    23518639.980          47.000
        42.000
 126661086.638 6  98696942.89645  24102803.660    24102801.940          41.500
        30.750
 131684603.831 7 102611377.60445  25058748.120    25058746.500          45.250
        32.750
 132805273.435 6 103484614.18045  25272002.660    25272001.060          38.000
        33.250
 117928629.925 7  91892429.61146  22441071.720    22441067.900          47.250
        39.500
 110732304.076 8  86284909.30248  21071656.200    21071652.880          50.750
        48.250
 134491667.446 6 104798682.83446  25592914.400    25592909.720          41.750
        36.250
 122593980.509 7  95527756.75746  23328859.340    23328854.020          47.000
        39.000
 112823054.951 8  87914053.62448  21469510.700    21469508.160          51.000
        48.500
 121864549.701 7  94959369.94147  23190050.560    23190047.220          46.750
        42.250
 120190642.953 7  93655036.63346  22871518.840    22871515.660          46.750
        39.750
 124703104.029 7  97171234.55546  23730210.540    23730208.320          45.000
        39.000
 10  6 20  2  6  0.0000000  0 12G05G06G30G03G21G16G02G23G29G31G13G10
 123551285.181 7  96273719.71046  23511027.200    23511024.320          47.250
        41.000
 126545709.326 6  98607038.40945  24080848.080    24080846.080          39.750
        35.000
 131792847.396 7 102695723.19044  25079346.220    25079344.300          45.250
        27.500
 132698598.869 6 103401491.09445  25251703.260    25251702.060          40.250
        35.000
 117833486.793 7  91818292.14346  22422966.540    22422962.860          47.500
        40.500
 110675776.560 8  86240861.89648  21060899.360    21060896.060          50.750
        48.250
 134600735.725 7 104883671.08345  25613669.620    25613664.460          42.750
        35.250
 122655938.462 7  95576035.66946  23340649.500    23340644.300          46.750
        38.750
 112891043.360 8  87967031.58448  21482448.480    21482445.960          51.000
        48.250
 121977069.251 7  95047047.49047  23211462.400    23211458.960          46.250
        42.000
 120194481.428 7  93658027.67146  22872249.260    22872246.200          47.250
        39.250
 124715051.152 7  97180544.02146  23732484.060    23732481.740          45.250
        37.750
 10  6 20  2  6 30.0000000  0 12G05G06G30G03G21G16G02G23G29G31G13G10
 123511831.357 7  96242976.48346  23503519.340    23503516.440          47.000
        41.500
 126430449.803 6  98517225.77545  24058914.740    24058913.380          41.000
        35.250
 131901159.124 7 102780121.86943  25099957.360    25099955.580          44.250
        23.000
 132591963.038 6 103318398.22045  25231411.360    25231409.620          40.000
        33.750
 117738766.791 7  91744484.36446  22404942.000    22404938.260          47.750
        40.500
 110619724.229 8  86197184.78948  21050233.000    21050229.660          50.750
        48.250
 134709947.646 7 104968771.24046  25634451.920    25634446.800          43.250
        36.500
 122718389.362 7  95624698.67346  23352533.580    23352528.360          47.000
        39.000
 112959483.844 8  88020361.83748  21495472.280    21495469.700          50.750
        48.500
 122089854.565 7  95134932.10746  23232924.760    23232921.360          46.500
        41.500
 120198953.495 7  93661512.41346  22873100.240    22873097.180          47.000
        39.000
 124727585.334 7  97190310.91446  23734869.300    23734866.940          45.000
        38.500
 10  6 20  2  7  0.0000000  0 12G05G06G30G03G21G16G02G23G29G31G13G10
 123472948.822 7  96212678.39146  23496120.180    23496117.200          46.750
        41.250
 126315312.832 6  98427508.67345  24037004.960    24037003.380          41.250
        35.000
 132009539.955 7 102864574.51443  25120581.520    25120579.400          43.250
        18.750
 132485369.546 6 103235338.34645  25211127.440    25211125.460          38.750
        33.250
 117644475.214 7  91671010.39746  22386998.920    22386995.200          47.500
        40.000
 110564151.895 8  86153881.70148  21039657.940    21039654.540          50.750
        48.250
 134819303.263 7 105053983.33846  25655261.480    25655256.440          43.250
        37.250
 122781332.592 7  95673745.28046  23364511.340    23364506.040          46.750
        39.000
 113028376.723 8  88074044.58048  21508582.140    21508579.560          50.750
        48.250
 122202905.197 7  95223023.49646  23254437.540    23254434.240          46.000
        40.500
 120204060.937 7  93665492.22446  22874072.200    22874069.040          46.750
        39.250
 124740707.970 7  97200536.34046  23737366.500    23737364.180          45.500
        38.750
 10  6 20  2  7 30.0000000  0 12G05G06G30G03G21G16G02G23G29G31G13G10
 123434634.602 7  96182823.14746  23488829.260    23488826.320          47.000
        41.750
 126200295.521 6  98337884.84245  24015118.060    24015116.460          40.250
        33.750
 132117983.750 7 102949076.24043  25141217.720    25141215.780          42.250
        21.000
 132378815.404 6 103152309.11844  25190850.520    25190848.800          38.500
        29.000
 117550610.683 7  91597869.20846  22369137.060    22369133.440          47.500
        41.250
 110509056.448 8  86110950.20048  21029173.580    21029170.160          50.750
        48.250
 134928795.435 7 105139301.89346  25676097.040    25676091.940          43.000
        37.500
 122844761.803 7  95723170.66046  23376581.500    23376576.220          46.750
        39.000
 113097715.339 8  88128074.67348  21521776.880    21521774.260          50.750
        48.250
 122316213.670 7  95311315.79346  23275999.360    23275996.060          45.750
        39.750
 120209799.057 7  93669963.44646  22875164.200    22875161.020          47.250
        38.750
 124754414.064 7  97211216.41546  23739974.760    23739972.400          45.000
        38.000
 10  6 20  2  8  0.0000000  0 12G05G06G30G03G21G16G02G23G29G31G13G10
 123396894.638 7  96153415.39547  23481647.500    23481644.740          46.750
        42.000
 126085403.859 6  98248358.70945  23993254.860    23993253.120          39.750
        32.000
 132226493.072 6 103033627.10444  25161866.360    25161864.360          41.250
        28.500
 132272305.907 6 103069314.62544  25170582.280    25170580.880          38.750
        29.750
 117457180.621 7  91525066.57746  22351357.920    22351354.220          47.750
        40.500
 110454443.271 8  86068394.49048  21018781.020    21018777.580          50.750
        48.250
 135038426.237 7 105224728.45345  25696958.900    25696953.960          43.500
        35.000
 122908678.988 7  95772976.24746  23388744.480    23388739.400          47.000
        38.500
 113167502.271 8  88182454.10048  21535056.920    21535054.300          50.750
        48.000
 122429781.834 7  95399810.47446  23297610.540    23297607.420          45.750
        41.250
 120216172.181 7  93674929.54646  22876376.980    22876373.940          47.000
        39.250
 124768707.177 7  97222353.91046  23742694.620    23742692.280          45.500
        38.000
 10  6 20  2  8 30.0000000  0 12G05G06G30G03G21G16G02G23G29G31G13G10
 123359726.770 7  96124453.40446  23474574.740    23474572.020          47.000
        41.750
 125970636.638 7  98158929.77345  23971415.400    23971414.120          43.000
        34.750
 132335062.978 6 103118226.90344  25182526.500    25182527.380          39.250
        24.750
 132165839.569 6 102986353.81745  25150322.580    25150321.040          40.000
        33.750
 117364184.287 8  91452601.92646  22333661.320    22333657.660          48.000
        40.000
 110400310.972 8  86026213.48648  21008479.960    21008476.540          50.750
        48.250
 135148189.642 7 105310258.34045  25717846.180    25717841.420          42.000
        32.250
 122973077.916 7  95823157.23346  23400999.100    23400994.100          46.500
        38.500
 113237731.739 8  88237178.35948  21548421.080    21548418.540          50.500
        48.000
 122543602.988 7  95488502.30546  23319269.980    23319266.920          45.750
        41.000
 120223176.313 7  93680387.28346  22877709.880    22877706.880          47.250
        39.000
 124783583.720 7  97233946.02346  23745525.440    23745523.120          44.250
        39.000
 10  6 20  2  9  0.0000000  0 12G05G06G30G03G21G16G02G23G29G31G13G10
 123323135.333 7  96095940.59947  23467611.640    23467608.900          46.750
        42.000
 125855998.199 6  98069601.08345  23949600.520    23949598.700          41.250
        34.000
 132443694.889 6 103202875.07944  25203198.480    25203197.560          37.250
        29.750
 132059420.529 6 102903429.83445  25130071.800    25130070.200          39.500
        34.250
 117271627.408 8  91380479.70146  22316048.300    22316044.600          48.000
        41.250
 110346664.328 8  85984410.92248  20998271.340    20998267.940          50.750
        48.250
 135258085.963 6 105395891.76945  25738758.760    25738754.240          41.500
        34.250
 123037959.078 7  95873713.94646  23413345.500    23413340.540          46.500
        38.500
 113308404.260 8  88292247.86448  21561869.560    21561867.100          50.500
        48.000
 122657677.130 7  95577391.27446  23340977.500    23340974.560          45.250
        40.000
 120230814.002 7  93686338.73346  22879163.280    22879160.280          47.250
        39.750
 124799046.226 7  97245994.70546  23748467.760    23748465.380          44.750
        37.250
 10  6 20  2  9 30.0000000  0 12G05G06G30G03G21G16G02G23G29G31G13G10
 123287120.089 7  96067876.76946  23460758.140    23460755.380          47.000
        41.250
 125741488.583 6  97980372.77845  23927809.980    23927808.120          40.250
        35.000
 132552385.482 5 103287569.04745  25223881.500    25223880.080          35.000
        31.750
 131953047.967 6 102820542.14245  25109829.820    25109828.140          39.500
        31.500
 117179510.953 7  91308700.65146  22298519.060    22298515.400          47.750
        40.750
 110293502.408 8  85942986.06048  20988154.940    20988151.540          50.750
        48.500
 135368110.816 7 105481625.38045  25759695.960    25759691.260          43.000
        35.250
 123103318.171 7  95924643.02646  23425783.000    23425778.060          46.000
        38.500
 113379516.078 8  88347659.68648  21575401.760    21575399.180          50.750
        48.000
 122771999.591 7  95666473.70546  23362732.400    23362729.520          45.750
        40.000
 120239082.643 7  93692781.84446  22880736.800    22880733.720          47.000
        39.250
 124815091.859 7  97258497.78746  23751521.080    23751518.720          45.000
        36.750
 10  6 20  2 10  0.0000000  0 12G05G06G30G03G21G16G02G23G29G31G13G10
 123251684.799 7  96040264.85746  23454015.000    23454012.260          46.500
        41.500
 125627112.736 7  97891248.76846  23906045.280    23906043.420          43.000
        38.500
 132661135.595 5 103372320.31044  25244575.760    25244576.840          33.250
        29.250
 131846725.664 6 102737693.55045  25089597.380    25089595.460          39.500
        32.000
 117087840.383 7  91237269.04246  22281074.560    22281071.040          47.750
        40.500
 110240830.063 8  85901942.70148  20978131.700    20978128.320          50.750
        48.500
 135478264.468 6 105567459.36845  25780657.680    25780652.800          40.250
        33.000
 123169155.791 7  95975944.97546  23438311.460    23438306.540          46.750
        38.250
 113451067.776 8  88403414.27948  21589017.660    21589015.020          50.750
        48.000
 122886569.972 7  95755749.34446  23384534.420    23384531.420          45.750
        41.000
 120247984.584 7  93699718.39346  22882430.700    22882427.680          47.000
        40.000
 124831722.701 7  97271456.87346  23754685.820    23754683.500          45.000
        38.750
 10  6 20  2 10 30.0000000  0 11G05G06G03G21G16G02G23G29G31G13G10
 123216831.575 7  96013106.51346  23447382.600    23447380.020          46.750
        41.500
 125512872.595 6  97802230.51146  23884306.020    23884304.260          40.750
        38.750
 131740455.982 6 102654885.98945  25069374.940    25069372.740          39.750
        31.750
 116996619.349 7  91166187.72746  22263715.640    22263712.300          47.750
        40.250
 110188649.274 8  85861282.35648  20968202.020    20968198.640          50.750
        48.750
 135588544.948 7 105653392.11345  25801643.480    25801638.620          42.500
        34.750
 123235469.609 7  96027618.02946  23450930.740    23450925.640          46.500
        39.000
 113523057.600 8  88459510.26048  21602716.860    21602714.240          50.750
        48.000
 123001385.899 7  95845216.30746  23406383.160    23406380.180          45.500
        40.000
 120257520.040 7  93707148.61446  22884245.180    22884242.120          46.750
        39.500
 124848938.733 7  97284871.95546  23757962.020    23757959.680          45.500
        37.250
 10  6 20  2 11  0.0000000  0 13G05G06G30G03G21G16G02G23G07G29G31G13
                                G10
 123182559.516 7  95986401.02847  23440860.840    23440858.320          46.500
        42.250
 125398767.697 7  97713317.63346  23862592.460    23862590.860          42.250
        36.750
 132878811.204 5 103541930.29645  25285997.200    25285997.280          33.000
        30.750
 131634237.648 6 102572118.40745  25049162.320    25049160.280          40.500
        33.500
 116905847.745 7  91095456.58946  22246442.340    22246439.080          47.750
        41.250
 110136958.493 8  85821003.85448  20958365.560    20958362.240          50.750
        48.750
 135698947.473 6 105739420.02045  25822652.540    25822647.500          41.500
        32.750
 123302254.502 7  96079658.08246  23463639.560    23463634.460          46.250
        38.500
 134986909.012 6 105184603.55644  25687153.820    25687150.220          39.250
        28.500
 113595480.854 8  88515943.96047  21616498.520    21616495.960          50.500
        47.750
 123116441.992 7  95934870.40746  23428277.560    23428274.580          45.500
        39.500
 120267685.985 7  93715070.11546  22886179.700    22886176.600          47.000
        39.500
 124866736.521 7  97298740.36946  23761349.000    23761346.400          45.500
        37.500
 10  6 20  2 11 30.0000000  0 13G05G06G30G03G21G16G02G23G07G29G31G13
                                G10
 123148865.626 7  95960146.05646  23434449.040    23434446.460          46.500
        41.750
 125284795.905 6  97624508.42345  23840904.520    23840902.620          41.500
        35.750
 132987723.009 5 103626796.47845  25306722.500    25306722.240          35.750
        33.250
 131528068.138 6 102489389.00245  25028958.960    25028957.000          41.000
        30.250
 116815524.713 8  91025075.00546  22229254.440    22229251.160          48.000
        40.750
 110085756.016 8  85781105.82048  20948622.040    20948618.720          50.750
        48.750
 135809465.701 6 105825538.08945  25843683.500    25843678.440          39.500
        31.250
 123369504.376 7  96132060.63246  23476436.920    23476431.900          46.250
        38.000
 134874613.121 6 105097100.23045  25665785.020    25665781.800          39.750
        32.500
 113668331.684 8  88572710.83747  21630361.500    21630358.960          50.500
        47.750
 123231731.356 7  96024706.26746  23450216.440    23450213.340          45.500
        40.000
 120278477.917 7  93723479.37946  22888233.320    22888230.360          47.000
        39.250
 124885111.738 7  97313058.72246  23764845.840    23764843.200          45.500
        38.000
 10  6 20  2 12  0.0000000  0 13G05G06G30G03G21G16G02G23G07G29G31G13
                                G10
 123115757.324 7  95934347.38646  23428148.640    23428145.940          46.500
        41.500
 125170965.386 7  97535809.36546  23819243.180    23819241.540          42.000
        37.500
 133096688.479 6 103711704.51845  25327458.000    25327457.820          37.000
        32.000
 131421955.235 6 102406703.60345  25008766.460    25008764.620          40.500
        33.000
 116725659.573 8  90955050.21546  22212153.720    22212150.340          48.000
        40.500
 110035049.713 8  85741594.42748  20938972.900    20938969.640          50.750
        48.750
 135920103.349 6 105911749.15645  25864737.100    25864732.400          37.000
        32.500
 123437222.676 7  96184828.18446  23489323.280    23489318.140          46.250
        38.000
 134762446.283 6 105009697.43045  25644440.240    25644436.980          40.000
        33.500
 113741614.239 8  88629814.13247  21644306.660    21644304.160          50.500
        47.750
 123347257.456 7  96114726.60146  23472200.400    23472197.320          45.000
        39.000
 120289901.676 7  93732380.99146  22890407.160    22890404.240          46.750
        39.250
 124904069.872 7  97327831.29646  23768453.380    23768450.900          45.250
        39.000
 10  6 20  2 12 30.0000000  0 12G05G06G30G03G21G16G23G07G29G31G13G10
 123083237.454 7  95909007.22246  23421960.320    23421957.680          46.500
        41.500
 125057279.352 6  97447222.85745  23797609.580    23797607.840          41.750
        35.500
 133205707.030 6 103796653.94445  25348203.580    25348203.180          36.750
        30.250
 131315901.559 6 102324064.34645  24988585.100    24988583.240          40.000
        34.750
 116636256.046 8  90885385.12946  22195140.820    22195137.400          48.000
        40.500
 109984841.909 8  85702471.47748  20929418.680    20929415.380          50.750
        48.750
 123505408.469 7  96237960.01846  23502298.480    23502293.540          46.250
        37.500
 134650412.351 6 104922398.36646  25623120.640    25623117.420          38.000
        36.000
 113815327.178 8  88687252.81347  21658333.700    21658331.280          50.250
        47.750
 123463018.694 7  96204930.14446  23494229.020    23494226.020          45.250
        40.000
 120301957.807 7  93741775.37746  22892701.400    22892698.420          46.750
        40.250
 124923611.216 7  97343058.30346  23772171.920    23772169.480          45.500
        37.750
