     3.02           OBSERVATION DATA    M (MIXED)           RINEX VERSION / TYPE
BLANK OR G = GPS,  R = GLONASS,  E = GALILEO,  M = MIXED    COMMENT             
CHC Navigation      CHC Navigation      28-10-19 18:37      PGM / RUN BY / DATE 
GP008                                                       MARKER NAME         
GP008                                                       MARKER NUMBER       
CHC                 CHC                                     OBSERVER / AGENCY   
3206138             CHC I50             1.0.40              REC # / TYPE / VERS 
3206138             CHCI50                                  ANT # / TYPE        
 -2267702.2247  5009393.9291  3220938.7146                  APPROX POSITION XYZ 
        1.5410        0.0000        0.0000                  ANTENNA: DELTA H/E/N
G   12 C1C C2W C5I L1C L2W L5I S1C S2W S5I D1C D2W D5I      SYS / # / OBS TYPES 
R    8 C1C C2P L1C L2P S1C S2P D1C D2P                      SYS / # / OBS TYPES 
C   12 C1I C7I C6I L1I L7I L6I S1I S7I S6I D1I D7I D6I      SYS / # / OBS TYPES 
     5.000                                                  INTERVAL            
  2019    10    28     8    33   15.0000000     GPS         TIME OF FIRST OBS   
  2019    10    28     9     0   50.0000000     GPS         TIME OF LAST OBS   
     0                                                      RCV CLOCK OFFS APPL 
    18                                                      LEAP SECONDS        
HUACE ANT REFERENCEPOINT                                    COMMENT             
                                                            END OF HEADER       
> 2019 10 28 08 33 15.0000000  0 26
G10  20416358.155    20416359.291    20416413.778   107288688.924    83601602.880    80118392.441          51.708          45.374          54.935        1180.587         920.043         881.669  
G12  22081387.715    22081386.971           0.000   116038474.846    90419603.233           0.000          48.277          37.005           0.000         658.692         513.244           0.000  
G14  23850078.012    23850077.341           0.000   125333004.933    97662127.847           0.000          40.875          29.029           0.000        1848.675        1441.065           0.000  
G15  24784354.534    24784358.099           0.000   130242661.258   101487833.696           0.000          37.251          27.362           0.000       -2482.186       -1933.826           0.000  
G20  20099636.382    20099635.101           0.000   105624304.205    82304661.227           0.000          48.565          42.001           0.000       -1137.072        -885.919           0.000  
G21  23457227.651    23457227.789           0.000   123268551.254    96053475.495           0.000          40.827          29.736           0.000       -2688.626       -2095.443           0.000  
G24  22336244.575    22336246.333    22336303.274   117377757.402    91463201.855    87652452.270          43.659          34.847          52.746       -3027.445       -2358.602       -2260.638  
G25  22204551.795    22204554.990    22204611.435   116685708.391    90923954.986    87135667.129          43.385          33.678          51.782        2834.147        2208.846        2116.554  
G31  23514097.594    23514099.521           0.000   123567406.171    96286351.747           0.000          39.943          28.719           0.000        3229.433        2516.456           0.000  
G32  22011361.061    22011362.091    22011418.091   115670487.934    90132877.274    86377531.500          47.820          38.689          52.650        1512.472        1178.550        1129.557  
R01  23433536.827    23433556.987   125265681.732    97428966.687          40.948          33.451       -2650.575       -2061.693  
R02  19918735.734    19918752.760   106290188.367    82670215.707          53.884          46.964          96.590          75.170  
R03  21336344.649    21336363.466   114215118.533    88834062.472          50.581          49.489        2602.399        2024.245  
R10  22432986.377           0.000   119664627.990           0.000          44.861           0.000       -3831.687           0.000  
R12  20191550.806    20191568.692   107859632.646    83890902.142          52.953          48.609       -2248.960       -1749.068  
R13  19671345.565    19671363.442   105043876.640    81700876.154          46.384          40.212        2138.384        1663.339  
R14  23328460.726    23328483.911   124353829.020    96719743.491          45.420          41.184        4326.936        3365.303  
C06  36579764.622    36579776.374    36579764.352   190480433.126   147291600.264   154780953.036          48.430          48.169          46.577         125.475          97.081         101.962  
C07  38176127.464    38176140.606    38176126.973   198793115.558   153719498.272   161535688.948          44.014          46.555          44.564        1466.679        1134.224        1192.011  
C08  39755946.592    39755962.713    39755948.468   207019641.893   160080792.834   168220429.093          36.865          44.040          38.299       -1929.015       -1491.560       -1567.319  
C09  37117164.280    37117178.864    37117165.126   193278812.776   149455499.413   157054869.648          47.240          47.755          45.717          86.368          66.844          70.022  
C10  39662764.178    39662783.764    39662769.051   206534431.886   159705595.158   167826154.884          36.031          43.221          40.329        1417.210        1095.999        1151.744  
C13  38316564.725    38316585.406    38316570.646   199524406.883   154285011.292   162129952.076          44.434          44.707          43.443       -1918.705       -1483.806       -1559.073  
C16  36761663.483    36761681.555    36761667.165   191427629.269   148024059.967   155550644.035          49.366          48.422          45.390          97.479          75.382          79.248  
C25  23665904.236           0.000    23665908.236   123234575.457           0.000   100138205.017          48.361           0.000          47.702       -2380.201           0.000       -1933.978  
C32  22649290.940           0.000    22649298.249   117940799.892           0.000    95836592.900          51.968           0.000          51.299        1637.061           0.000        1330.255  
> 2019 10 28 08 33 20.0000000  0 26
G10  20415208.898    20415210.074    20415264.352   107282649.339    83596896.700    80113882.356          52.031          44.896          54.847        1179.043         918.984         880.480  
G12  22080734.988    22080735.237           0.000   116035046.585    90416931.878           0.000          47.230          36.125           0.000         656.364         512.010           0.000  
G14  23848291.991    23848291.108           0.000   125323619.327    97654814.381           0.000          41.898          31.513           0.000        1849.554        1442.099           0.000  
G15  24786688.931    24786692.279           0.000   130254929.198   101497393.132           0.000          36.861          27.575           0.000       -2481.315       -1934.367           0.000  
G20  20100692.532    20100691.175           0.000   105629854.558    82308986.171           0.000          48.716          41.501           0.000       -1139.114        -886.965           0.000  
G21  23459758.743    23459759.129           0.000   123281852.664    96063840.222           0.000          39.504          28.624           0.000       -2688.208       -2094.717           0.000  
G24  22339098.629    22339100.144    22339157.227   117392754.219    91474887.665    87663651.185          44.360          34.102          52.615       -3027.461       -2359.170       -2260.698  
G25  22201829.078    22201831.713    22201888.374   116671398.721    90912804.604    87124981.353          43.701          34.005          51.900        2833.423        2208.155        2115.899  
G31  23510998.481    23510999.576           0.000   123551120.974    96273661.985           0.000          40.266          27.639           0.000        3228.638        2516.200           0.000  
G32  22009895.292    22009896.137    22009952.130   115662784.206    90126874.361    86371778.710          48.076          38.743          52.626        1512.862        1178.979        1129.730  
R01  23435988.568    23436008.513   125278792.771    97439164.158          42.044          33.146       -2650.970       -2061.996  
R02  19918618.942    19918635.995   106289565.381    82669731.163          53.990          46.947          96.350          74.408  
R03  21333886.865    21333905.968   114201961.108    88823828.933          50.891          49.653        2603.970        2024.746  
R10  22436552.069           0.000   119683646.122           0.000          44.977           0.000       -3832.583           0.000  
R12  20193629.572    20193648.451   107870740.398    83899541.502          53.062          48.806       -2250.651       -1750.993  
R13  19669317.817    19669336.052   105033049.277    81692454.892          46.373          40.967        2135.386        1660.838  
R14  23324375.120    23324398.583   124332051.890    96702805.777          45.591          41.779        4327.093        3365.553  
C06  36579616.580    36579628.524    36579616.163   190479663.852   147291005.411   154780327.940          48.562          48.651          46.627         126.579          97.939         102.975  
C07  38174692.254    38174705.276    38174691.142   198785641.329   153713718.746   161529615.547          43.884          47.443          44.176        1467.210        1134.565        1192.275  
C08  39757771.587    39757787.769    39757773.657   207029146.492   160088142.408   168228152.429          37.915          43.962          37.859       -1928.384       -1490.999       -1567.153  
C09  37117053.866    37117068.448    37117054.737   193278239.448   149455056.093   157054403.765          47.134          48.700          45.503          87.398          67.523          71.008  
C10  39661376.725    39661396.226    39661381.678   206527205.578   159700007.388   167820282.970          36.767          43.314          40.803        1417.662        1096.187        1152.052  
C13  38318379.472    38318400.844    38318385.989   199533860.370   154292321.329   162137633.809          43.500          44.951          43.172       -1918.167       -1483.204       -1558.651  
C16  36761542.885    36761560.794    36761546.291   191427000.204   148023573.545   155550132.872          49.332          48.829          45.240          98.611          76.142          80.200  
C25  23668163.640           0.000    23668166.776   123246338.511           0.000   100147763.452          48.281           0.000          47.750       -2380.783           0.000       -1934.490  
C32  22647692.507           0.000    22647700.135   117932476.219           0.000    95829829.240          52.021           0.000          51.325        1636.839           0.000        1329.984  
> 2019 10 28 08 33 25.0000000  0 26
G10  20414061.618    20414062.684    20414116.879   107276619.796    83592198.358    80109379.776          52.117          45.076          55.011        1177.587         917.757         879.440  
G12  22080085.073    22080084.749           0.000   116031631.532    90414270.798           0.000          47.621          36.062           0.000         654.469         510.377           0.000  
G14  23846505.394    23846504.388           0.000   125314231.872    97647499.500           0.000          41.133          30.147           0.000        1850.612        1441.873           0.000  
G15  24789022.933    24789026.371           0.000   130267195.446   101506951.213           0.000          37.577          27.971           0.000       -2480.557       -1932.890           0.000  
G20  20101750.945    20101749.655           0.000   105635416.970    82313320.512           0.000          48.460          41.517           0.000       -1141.053        -889.411           0.000  
G21  23462289.689    23462290.395           0.000   123295153.405    96074204.370           0.000          40.200          29.961           0.000       -2687.778       -2094.333           0.000  
G24  22341952.901    22341954.107    22342011.006   117407752.861    91486574.909    87674851.446          44.003          33.705          52.366       -3027.486       -2358.666       -2260.509  
G25  22199107.278    22199109.213    22199166.125   116657094.600    90901658.569    87114299.750          44.428          34.210          51.757        2832.953        2207.857        2115.554  
G31  23507899.886    23507902.105           0.000   123534839.974    96260975.517           0.000          40.186          28.287           0.000        3228.617        2515.907           0.000  
G32  22008429.407    22008430.357    22008485.924   115655079.859    90120870.974    86366025.465          48.678          39.294          52.753        1513.670        1179.695        1130.230  
R01  23438442.024    23438462.372   125291908.296    97449365.051          41.885          34.937       -2651.362       -2061.824  
R02  19918503.703    19918520.918   106288949.431    82669252.082          54.055          46.893          94.528          73.824  
R03  21331428.504    21331448.145   114188802.529    88813594.482          49.621          49.502        2604.062        2025.472  
R10  22440118.061           0.000   119702670.195           0.000          45.235           0.000       -3833.005           0.000  
R12  20195711.735    20195730.686   107881863.400    83908192.703          53.044          49.298       -2254.087       -1752.934  
R13  19667293.386    19667311.756   105022238.604    81684046.594          46.169          40.973        2132.801        1658.865  
R14  23320290.316    23320313.931   124310275.936    96685868.986          45.522          42.278        4327.167        3365.969  
C06  36579468.085    36579479.595    36579467.880   190478890.220   147290407.193   154779699.309          48.501          48.575          46.892         128.271          99.192         104.108  
C07  38173257.047    38173269.693    38173255.545   198778165.966   153707938.338   161523541.199          44.086          47.000          44.267        1468.270        1135.125        1193.208  
C08  39759596.260    39759612.615    39759597.711   207038647.707   160095489.364   168235872.913          38.436          44.509          38.258       -1926.836       -1490.113       -1565.862  
C09  37116943.308    37116957.698    37116943.792   193277661.784   149454609.399   157053934.367          47.214          48.389          45.827          89.009          68.771          72.365  
C10  39659989.993    39660007.593    39659992.892   206519976.632   159694417.472   167814408.811          38.387          42.931          40.199        1418.605        1097.211        1153.191  
C13  38320194.781    38320215.926    38320201.386   199543312.533   154299630.334   162145314.454          43.621          44.680          43.296       -1917.323       -1482.563       -1557.763  
C16  36761421.524    36761439.211    36761424.783   191426366.833   148023083.780   155549618.223          49.522          48.927          45.366         100.211          77.462          81.282  
C25  23670423.531           0.000    23670426.111   123258106.252           0.000   100157325.713          48.442           0.000          47.842       -2380.897           0.000       -1934.840  
C32  22646094.530           0.000    22646101.984   117924155.150           0.000    95823067.696          52.052           0.000          51.305        1637.011           0.000        1330.153  
> 2019 10 28 08 33 30.0000000  0 26
G10  20412916.164    20412917.273    20412971.447   107270600.529    83587508.017    80104884.873          51.894          45.625          54.820        1176.074         916.052         878.174  
G12  22079437.813    22079437.106           0.000   116028229.872    90411620.140           0.000          47.431          37.432           0.000         652.256         507.525           0.000  
G14  23844718.734    23844718.011           0.000   125304842.796    97640183.362           0.000          40.872          28.956           0.000        1851.283        1442.812           0.000  
G15  24791356.310    24791359.792           0.000   130279460.127   101516508.127           0.000          35.435          28.191           0.000       -2479.113       -1931.349           0.000  
G20  20102811.926    20102810.515           0.000   105640991.699    82317664.453           0.000          48.749          42.234           0.000       -1142.905        -890.926           0.000  
G21  23464820.739    23464822.083           0.000   123308453.646    96084568.151           0.000          41.548          29.792           0.000       -2686.603       -2093.506           0.000  
G24  22344807.565    22344808.566    22344865.500   117422753.426    91498263.679    87686053.181          44.319          34.701          52.829       -3027.260       -2359.182       -2260.505  
G25  22196386.660    22196388.736    22196445.237   116642796.350    90890517.080    87103622.498          45.168          34.046          51.225        2832.428        2206.512        2114.944  
G31  23504802.259    23504804.962           0.000   123518563.438    96248292.555           0.000          39.513          27.984           0.000        3228.305        2515.689           0.000  
G32  22006963.273    22006964.517    22007019.819   115647375.170    90114867.326    86360271.956          48.082          39.824          52.870        1514.263        1179.324        1130.678  
R01  23440896.366    23440917.592   125305028.493    97459569.668          43.239          35.264       -2651.741       -2062.384  
R02  19918389.682    19918406.690   106288340.725    82668778.644          53.744          46.049          93.200          73.052  
R03  21328970.152    21328989.811   114175643.144    88803359.379          49.189          49.976        2603.937        2026.018  
R10  22443686.040           0.000   119721700.540           0.000          46.086           0.000       -3833.938           0.000  
R12  20197796.637    20197815.866   107893001.815    83916855.925          53.164          49.649       -2257.168       -1754.933  
R13  19665271.766    19665290.368   105011444.952    81675651.515          45.971          40.896        2129.838        1656.698  
R14  23316204.840    23316228.536   124288501.396    96668933.307          45.971          41.932        4327.721        3365.763  
C06  36579318.654    36579330.360    36579318.557   190478112.497   147289805.799   154779067.349          48.354          48.930          47.108         129.459         100.181         105.178  
C07  38171821.349    38171833.416    38171819.974   198770689.691   153702157.221   161517466.132          44.192          46.819          44.118        1468.828        1135.757        1193.343  
C08  39761420.442    39761436.984    39761422.381   207048145.817   160102833.903   168243590.967          38.049          45.229          39.114       -1925.867       -1489.380       -1565.164  
C09  37116831.544    37116845.967    37116832.388   193277080.021   149454159.544   157053461.624          47.064          49.164          45.957          90.310          69.707          73.632  
C10  39658600.818    39658619.261    39658604.247   206512745.170   159688825.684   167808532.695          37.698          44.245          40.381        1419.996        1097.884        1153.981  
C13  38322010.058    38322031.142    38322016.495   199552763.598   154306938.495   162152994.221          43.258          45.392          43.021       -1916.718       -1482.067       -1557.364  
C16  36761298.658    36761316.896    36761302.098   191425729.399   148022590.883   155549100.250          49.329          49.202          45.089         101.483          78.397          82.439  
C25  23672684.680           0.000    23672687.186   123269878.929           0.000   100166891.956          48.023           0.000          47.603       -2381.543           0.000       -1935.062  
C32  22644496.886           0.000    22644504.486   117915836.938           0.000    95816308.467          51.741           0.000          51.568        1636.836           0.000        1330.050  
> 2019 10 28 08 33 35.0000000  0 26
G10  20411772.430    20411773.489    20411827.667   107264590.467    83582824.851    80100396.827          52.142          44.907          55.003        1174.885         915.452         877.505  
G12  22078792.544    22078792.126           0.000   116024840.530    90408979.112           0.000          46.928          36.062           0.000         650.480         506.805           0.000  
G14  23842931.423    23842931.394           0.000   125295450.978    97632865.059           0.000          43.362          30.593           0.000        1852.564        1443.619           0.000  
G15  24793689.575    24793692.811           0.000   130291722.332   101526062.974           0.000          34.752          28.189           0.000       -2478.596       -1931.955           0.000  
G20  20103874.825    20103873.554           0.000   105646577.618    82322017.120           0.000          48.595          42.021           0.000       -1144.439        -891.544           0.000  
G21  23467351.630    23467353.271           0.000   123321752.292    96094930.699           0.000          41.687          29.825           0.000       -2685.667       -2092.644           0.000  
G24  22347662.471    22347663.712    22347720.566   117437754.924    91509953.146    87697255.611          44.382          34.330          53.298       -3026.413       -2358.657       -2260.121  
G25  22193666.648    22193668.922    22193725.427   116628502.829    90879379.283    87092948.779          44.953          34.192          51.107        2832.060        2206.385        2114.907  
G31  23501705.734    23501707.874           0.000   123502290.278    96235612.161           0.000          38.562          27.094           0.000        3228.242        2515.759           0.000  
G32  22005496.821    22005497.989    22005553.181   115639669.013    90108862.510    86354517.347          48.138          40.075          52.873        1515.337        1180.602        1131.601  
R01  23443352.085    23443372.513   125318152.147    97469776.962          43.992          35.475       -2651.658       -2062.235  
R02  19918277.001    19918293.007   106287738.095    82668309.942          54.328          46.359          93.380          72.596  
R03  21326510.983    21326531.223   114162481.578    88793122.623          49.475          50.268        2605.857        2026.803  
R10  22447254.528           0.000   119740735.837           0.000          46.492           0.000       -3834.160           0.000  
R12  20199883.855    20199903.469   107904154.420    83925530.189          53.755          49.442       -2258.533       -1756.620  
R13  19663253.608    19663272.398   105000667.123    81667268.775          45.699          40.562        2127.468        1654.624  
R14  23312120.642    23312143.595   124266727.285    96651997.968          46.332          42.101        4328.267        3366.431  
C06  36579168.310    36579179.889    36579168.266   190477329.563   147289200.397   154778431.147          48.524          48.896          47.062         131.277         101.458         106.627  
C07  38170385.450    38170397.711    38170383.787   198763211.446   153696374.563   161511389.440          44.595          46.618          44.093        1470.087        1136.740        1194.390  
C08  39763243.894    39763260.301    39763245.277   207057639.688   160110175.157   168251305.506          38.301          45.613          36.998       -1923.911       -1488.010       -1563.787  
C09  37116719.153    37116732.774    37116719.593   193276493.011   149453705.641   157052984.651          47.546          49.201          46.210          92.150          71.210          74.771  
C10  39657211.354    39657229.466    39657214.327   206505510.115   159683231.129   167802653.643          36.753          44.276          39.403        1421.230        1099.134        1155.149  
C13  38323824.809    38323845.466    38323831.094   199562212.466   154314244.960   162160672.205          43.612          45.591          42.902       -1915.332       -1481.165       -1556.360  
C16  36761175.527    36761193.234    36761178.836   191425086.781   148022093.978   155548578.062          49.361          49.110          45.247         103.185          79.744          83.924  
C25  23674946.184           0.000    23674948.496   123281655.370           0.000   100176461.303          48.098           0.000          47.404       -2381.547           0.000       -1935.182  
C32  22642899.771           0.000    22642907.155   117907520.466           0.000    95809550.654          51.787           0.000          51.496        1637.269           0.000        1330.311  
> 2019 10 28 08 33 40.0000000  0 26
G10  20410630.960    20410632.058    20410686.129   107258591.363    83578150.218    80095916.976          52.421          45.100          54.695        1173.576         914.321         876.288  
G12  22078150.417    22078149.743           0.000   116021465.303    90406349.061           0.000          47.753          37.014           0.000         648.527         505.229           0.000  
G14  23841144.175    23841144.236           0.000   125286058.244    97625546.024           0.000          42.586          29.755           0.000        1853.661        1444.177           0.000  
G15  24796022.384    24796026.346           0.000   130303983.572   101535617.272           0.000          33.707          27.797           0.000       -2477.285       -1930.694           0.000  
G20  20104940.226    20104938.977           0.000   105652176.489    82326379.876           0.000          48.197          41.907           0.000       -1146.158        -893.705           0.000  
G21  23469882.357    23469883.736           0.000   123335051.052    96105293.315           0.000          42.597          30.270           0.000       -2684.812       -2092.264           0.000  
G24  22350518.162    22350518.645    22350576.211   117452759.039    91521644.654    87708459.967          44.383          35.581          53.205       -3026.016       -2358.370       -2259.875  
G25  22190947.598    22190950.420    22191006.536   116614215.846    90868246.599    87082279.946          44.679          34.740          51.300        2831.581        2205.537        2114.389  
G31  23498609.799    23498612.042           0.000   123486022.221    96222935.850           0.000          39.072          26.840           0.000        3228.007        2515.424           0.000  
G32  22004030.449    22004031.976    22004086.775   115631963.158    90102857.950    86348762.979          48.518          39.498          53.532        1516.061        1180.977        1131.984  
R01  23445808.343    23445830.096   125331281.334    97479988.539          42.900          33.085       -2651.867       -2062.627  
R02  19918165.683    19918182.038   106287143.374    82667847.373          54.459          46.851          92.169          72.105  
R03  21324052.559    21324072.505   114149319.877    88782885.753          49.290          49.634        2606.191        2027.463  
R10  22450824.781           0.000   119759777.822           0.000          45.945           0.000       -3834.612           0.000  
R12  20201974.290    20201994.566   107915323.174    83934216.974          54.457          49.389       -2261.503       -1758.466  
R13  19661238.192    19661257.824   104989906.785    81658899.607          45.665          40.693        2124.657        1652.538  
R14  23308036.008    23308059.131   124244955.284    96635064.261          45.994          41.944        4328.657        3366.620  
C06  36579017.004    36579028.916    36579017.008   190476543.186   147288592.320   154777792.147          48.734          48.629          47.204         132.598         102.570         107.757  
C07  38168948.986    38168961.842    38168947.474   198755732.945   153690591.752   161505312.545          44.445          46.873          44.042        1470.793        1137.073        1195.454  
C08  39765065.549    39765083.019    39765067.759   207067131.011   160117514.429   168259017.969          36.654          43.657          38.349       -1923.080       -1486.751       -1562.698  
C09  37116605.435    37116619.577    37116606.028   193275902.569   149453249.058   157052504.855          47.489          48.129          45.598          93.377          72.343          76.028  
C10  39655821.556    39655839.686    39655824.059   206498273.256   159677635.135   167796773.140          38.146          43.448          39.916        1422.184        1099.899        1156.057  
C13  38325639.213    38325659.975    38325645.717   199571660.946   154321551.115   162168349.871          43.502          45.237          43.447       -1914.704       -1480.427       -1555.898  
C16  36761051.741    36761069.257    36761054.671   191424440.756   148021594.424   155548053.115          49.369          48.601          45.024         104.574          80.925          85.040  
C25  23677208.656           0.000    23677211.411   123293437.361           0.000   100186035.148          48.265           0.000          47.905       -2381.980           0.000       -1935.509  
C32  22641303.225           0.000    22641310.683   117899207.510           0.000    95802795.692          51.745           0.000          51.631        1637.246           0.000        1330.437  
> 2019 10 28 08 33 45.0000000  0 26
G10  20409491.433    20409492.598    20409546.683   107252603.001    83573483.959    80091445.132          52.605          45.074          55.144        1171.524         912.880         874.889  
G12  22077510.594    22077510.132           0.000   116018103.926    90403729.804           0.000          47.919          36.365           0.000         645.879         503.082           0.000  
G14  23839356.703    23839355.586           0.000   125276664.248    97618226.091           0.000          42.415          30.369           0.000        1853.714        1443.631           0.000  
G15  24798354.949    24798358.818           0.000   130316243.798   101545170.702           0.000          32.643          26.409           0.000       -2476.760       -1929.793           0.000  
G20  20106008.156    20106006.627           0.000   105657788.072    82330752.529           0.000          48.233          41.742           0.000       -1148.614        -894.795           0.000  
G21  23472413.010    23472414.041           0.000   123348349.656    96115655.847           0.000          43.147          29.846           0.000       -2684.578       -2091.775           0.000  
G24  22353373.560    22353374.528    22353431.488   117467765.401    91533337.938    87719666.012          44.985          35.903          53.648       -3026.586       -2358.285       -2259.952  
G25  22188229.913    22188233.106    22188289.348   116599935.181    90857118.795    87071615.802          44.107          33.440          51.300        2830.545        2205.292        2113.764  
G31  23495514.680    23495517.359           0.000   123469759.033    96210263.242           0.000          38.962          25.902           0.000        3227.057        2514.624           0.000  
G32  22002564.272    22002565.594    22002620.416   115624257.356    90096853.435    86343008.649          49.334          40.179          52.804        1516.055        1181.663        1132.182  
R01  23448265.158    23448286.875   125344415.516    97490204.018          41.861          34.887       -2652.727       -2063.237  
R02  19918055.800    19918071.958   106286556.483    82667390.888          54.202          47.147          90.136          70.969  
R03  21321594.012    21321613.832   114136157.820    88772648.584          50.172          50.081        2606.387        2027.763  
R10  22454395.144           0.000   119778826.288           0.000          45.979           0.000       -3835.622           0.000  
R12  20204068.119    20204088.843   107926507.672    83942916.029          54.111          48.911       -2264.583       -1760.776  
R13  19659226.941    19659245.418   104979163.797    81650543.977          45.777          40.457        2121.428        1649.908  
R14  23303951.957    23303974.767   124223185.293    96618132.098          45.227          41.993        4328.419        3366.552  
C06  36578865.579    36578877.239    36578865.493   190475753.101   147287981.376   154777150.141          48.360          49.407          47.140         133.437         103.260         108.446  
C07  38167512.417    38167525.081    38167511.180   198748254.016   153684808.544   161499235.306          44.251          47.097          43.918        1470.881        1137.490        1195.227  
C08  39766888.399    39766905.018    39766890.238   207076619.668   160124851.671   168266728.255          37.947          45.442          39.417       -1922.082       -1486.662       -1562.005  
C09  37116491.510    37116505.625    37116492.303   193275308.430   149452789.644   157052022.076          47.361          49.367          46.250          94.239          72.979          76.679  
C10  39654432.051    39654449.647    39654433.652   206491034.323   159672037.605   167790890.945          37.456          44.416          39.041        1423.740        1100.314        1156.619  
C13  38327453.201    38327474.349    38327459.951   199581108.710   154328856.727   162176026.942          43.803          45.647          43.408       -1914.443       -1480.288       -1555.601  
C16  36760926.726    36760944.344    36760929.838   191423791.064   148021092.034   155547525.192          49.344          49.170          45.175         105.504          81.540          85.708  
C25  23679471.945           0.000    23679474.999   123305224.681           0.000   100195613.302          47.784           0.000          47.942       -2382.838           0.000       -1936.303  
C32  22639707.570           0.000    22639715.133   117890897.835           0.000    95796043.399          51.837           0.000          51.446        1636.814           0.000        1330.031  
> 2019 10 28 08 33 50.0000000  0 26
G10  20408353.996    20408355.207    20408409.130   107246625.808    83568826.416    80086981.664          52.403          45.520          55.231        1170.354         911.868         873.989  
G12  22076873.981    22076872.957           0.000   116014756.890    90401121.729           0.000          48.030          36.557           0.000         643.966         502.046           0.000  
G14  23837568.726    23837568.080           0.000   125267269.456    97610905.445           0.000          40.575          29.905           0.000        1855.417        1445.461           0.000  
G15  24800688.087    24800691.669           0.000   130328503.436   101554723.572           0.000          33.755          26.479           0.000       -2475.803       -1925.810           0.000  
G20  20107078.597    20107077.216           0.000   105663412.809    82335135.446           0.000          48.074          42.041           0.000       -1150.175        -895.713           0.000  
G21  23474943.667    23474944.686           0.000   123361648.628    96126018.666           0.000          43.151          29.333           0.000       -2683.613       -2090.783           0.000  
G24  22356229.843    22356230.406    22356287.951   117482774.583    91545033.403    87730874.181          44.912          35.013          53.785       -3025.983       -2358.349       -2259.752  
G25  22185513.619    22185516.807    22185573.155   116585661.259    90845996.294    87060956.717          43.667          34.227          51.687        2830.154        2205.489        2113.453  
G31  23492420.939    23492423.359           0.000   123453501.164    96197594.853           0.000          39.261          27.712           0.000        3227.173        2514.816           0.000  
G32  22001098.068    22001099.149    22001154.071   115616552.062    90090849.311    86337254.695          48.937          40.747          53.201        1516.995        1182.314        1133.038  
R01  23450722.932    23450744.766   125357555.421    97500423.927          42.187          34.771       -2652.858       -2063.349  
R02  19917947.046    19917963.786   106285977.589    82666940.656          53.831          46.428          90.832          70.447  
R03  21319135.163    21319154.857   114122995.647    88762411.388          50.272          48.561        2608.174        2028.460  
R10  22457966.904           0.000   119797881.690           0.000          45.970           0.000       -3836.103           0.000  
R12  20206165.137    20206185.082   107937708.388    83951627.712          53.860          48.961       -2265.827       -1762.535  
R13  19657218.466    19657236.495   104968438.650    81642202.194          46.031          40.978        2118.878        1648.125  
R14  23299868.249    23299890.942   124201417.666    96601201.810          44.931          42.145        4328.992        3367.036  
C06  36578713.097    36578725.119    36578713.070   190474959.758   147287367.918   154776505.493          48.199          48.918          46.924         135.326         104.603         110.000  
C07  38166076.483    38166089.346    38166075.284   198740775.009   153679025.323   161493158.008          43.997          47.261          43.975        1472.245        1138.232        1196.245  
C08  39768710.038    39768727.023    39768712.394   207086105.991   160132187.086   168274436.693          37.512          44.292          39.533       -1920.081       -1485.225       -1560.902  
C09  37116376.500    37116390.784    37116377.041   193274711.025   149452327.713   157051536.653          46.915          48.972          45.945          96.140          74.330          78.080  
C10  39653041.645    39653059.694    39653044.184   206483793.862   159666438.828   167785007.491          38.100          44.007          39.585        1424.672        1101.375        1157.649  
C13  38329268.011    38329288.587    38329274.539   199590556.204   154336162.142   162183703.814          43.393          45.191          43.325       -1912.942       -1479.265       -1554.486  
C16  36760801.226    36760819.088    36760804.742   191423138.156   148020587.171   155546994.657          49.123          49.197          45.668         107.299          82.861          87.108  
C25  23681736.731           0.000    23681739.837   123317017.695           0.000   100205196.110          47.545           0.000          48.609       -2382.731           0.000       -1936.395  
C32  22638112.401           0.000    22638119.924   117882591.899           0.000    95789294.145          51.761           0.000          51.549        1637.135           0.000        1330.376  
> 2019 10 28 08 33 55.0000000  0 26
G10  20407218.920    20407220.116    20407274.147   107240660.298    83564177.963    80082526.897          52.342          45.058          54.592        1168.410         910.804         872.608  
G12  22076239.831    22076239.011           0.000   116011424.613    90398525.156           0.000          47.932          36.276           0.000         641.548         499.958           0.000  
G14  23835780.852    23835780.222           0.000   125257874.346    97603584.584           0.000          40.744          29.074           0.000        1855.866        1445.351           0.000  
G15  24803021.602    24803024.854           0.000   130340762.870   101564276.390           0.000          37.357          26.466           0.000       -2475.779       -1930.455           0.000  
G20  20108151.387    20108149.947           0.000   105669051.167    82339528.966           0.000          48.402          41.694           0.000       -1152.559        -897.635           0.000  
G21  23477474.311    23477475.224           0.000   123374948.361    96136382.075           0.000          42.368          28.985           0.000       -2683.498       -2090.930           0.000  
G24  22359086.652    22359087.268    22359144.906   117497786.954    91556731.362    87742084.729          44.602          35.104          53.395       -3026.224       -2357.847       -2259.894  
G25  22182798.874    22182802.071    22182858.507   116571394.605    90834879.411    87050303.029          43.859          33.704          50.829        2829.175        2204.626        2112.803  
G31  23489328.815    23489330.618           0.000   123437249.220    96184931.025           0.000          39.277          28.597           0.000        3226.381        2513.511           0.000  
G32  21999632.081    21999633.378    21999687.906   115608847.728    90084845.957    86331501.483          48.869          40.049          52.575        1517.345        1182.590        1133.235  
R01  23453182.059    23453203.830   125370701.399    97510648.590          42.500          35.498       -2653.779       -2064.160  
R02  19917840.468    19917856.689   106285407.589    82666497.321          53.846          45.656          89.636          69.370  
R03  21316676.645    21316696.134   114109834.069    88752174.605          50.412          48.225        2608.965        2028.639  
R10  22461541.056           0.000   119816944.592           0.000          45.598           0.000       -3837.164           0.000  
R12  20208265.450    20208285.306   107948925.792    83960352.348          53.913          49.104       -2268.718       -1764.805  
R13  19655212.937    19655231.378   104957731.774    81633874.623          46.030          40.928        2115.494        1645.555  
R14  23295784.693    23295808.488   124179652.925    96584273.746          45.790          42.080        4328.909        3366.750  
C06  36578560.205    36578572.082    36578560.271   190474163.612   147286752.294   154775858.564          48.467          49.055          46.984         136.326         105.531         110.780  
C07  38164640.301    38164653.074    38164638.936   198733296.454   153673242.441   161487081.067          44.052          47.489          44.210        1472.525        1138.667        1196.694  
C08  39770531.354    39770548.160    39770533.498   207095590.545   160139521.129   168282143.612          37.765          43.706          39.248       -1919.905       -1484.416       -1559.635  
C09  37116261.170    37116275.617    37116262.059   193274110.813   149451863.578   157051048.907          47.098          49.051          46.261          97.237          75.128          79.124  
C10  39651650.207    39651668.791    39651653.236   206476552.245   159660839.182   167779123.079          37.338          43.366          39.612        1425.376        1101.768        1158.357  
C13  38331082.146    38331102.514    38331088.843   199600003.952   154343467.736   162191380.892          43.422          45.018          42.922       -1912.503       -1479.005       -1554.057  
C16  36760675.289    36760692.733    36760678.623   191422482.487   148020080.165   155546461.875          49.053          48.976          45.448         108.432          83.912          88.039  
C25  23684002.486           0.000    23684005.691   123328816.913           0.000   100214783.926          47.630           0.000          48.469       -2383.462           0.000       -1936.571  
C32  22636518.214           0.000    22636525.691   117874290.143           0.000    95782548.295          51.658           0.000          51.390        1636.929           0.000        1330.181  
> 2019 10 28 08 34  0.0000000  0 26
G10  20406086.089    20406087.410    20406141.502   107234707.487    83559539.408    80078081.606          52.224          45.778          54.893        1166.658         909.533         871.220  
G12  22075608.446    22075607.935           0.000   116008108.235    90395940.985           0.000          47.766          36.742           0.000         638.862         498.621           0.000  
G14  23833993.224    23833992.024           0.000   125248479.970    97596264.297           0.000          42.493          30.342           0.000        1856.104        1446.441           0.000  
G15  24805355.161    24805357.412           0.000   130353023.072   101573829.798           0.000          38.748          25.941           0.000       -2474.693       -1927.405           0.000  
G20  20109227.329    20109225.871           0.000   105674704.182    82343933.908           0.000          48.518          41.854           0.000       -1154.809        -898.825           0.000  
G21  23480005.693    23480006.336           0.000   123388249.917    96146746.919           0.000          44.488          30.930           0.000       -2683.154       -2090.097           0.000  
G24  22361944.134    22361944.807    22362002.366   117512803.643    91568432.684    87753298.497          44.587          35.070          53.566       -3026.449       -2357.678       -2260.213  
G25  22180085.901    22180088.732    22180144.974   116557136.221    90823768.992    87039655.561          44.623          34.685          51.342        2827.961        2203.906        2111.888  
G31  23486237.646    23486239.446           0.000   123421004.059    96172272.420           0.000          39.269          26.605           0.000        3225.855        2512.784           0.000  
G32  21998166.422    21998167.762    21998222.237   115601145.428    90078844.177    86325749.794          49.287          40.065          52.669        1517.481        1182.947        1133.060  
R01  23455642.596    23455664.501   125383854.334    97520878.652          43.079          34.873       -2654.439       -2064.189  
R02  19917735.210    19917751.503   106284847.044    82666061.327          53.722          45.824          88.442          68.487  
R03  21314218.391    21314238.085   114096674.102    88741939.069          50.778          48.214        2609.448        2029.024  
R10  22465116.089           0.000   119836015.778           0.000          45.583           0.000       -3838.157           0.000  
R12  20210369.133    20210388.702   107960160.908    83969090.780          53.800          49.126       -2271.577       -1767.049  
R13  19653211.664    19653231.296   104947044.319    81625562.167          45.760          40.680        2112.461        1643.036  
R14  23291702.458    23291726.001   124157892.084    96567348.735          46.301          42.731        4328.645        3366.452  
C06  36578407.002    36578419.364    36578406.915   190473365.720   147286135.313   154775210.209          48.404          49.091          46.979         137.169         106.265         111.612  
C07  38163204.395    38163217.190    38163202.610   198725819.311   153667460.642   161481005.282          44.003          47.145          44.233        1472.836        1138.944        1196.869  
C08  39772351.598    39772369.532    39772355.008   207105074.211   160146854.495   168289849.877          37.284          43.886          38.404       -1919.384       -1483.913       -1559.566  
C09  37116145.369    37116159.971    37116146.350   193273508.862   149451398.124   157050559.795          46.878          49.123          46.125          98.096          75.827          79.701  
C10  39650260.207    39650277.756    39650262.152   206469310.455   159655239.385   167773238.586          38.541          43.220          39.168        1425.769        1102.759        1158.495  
C13  38332896.523    38332917.788    38332903.506   199609452.953   154350774.303   162199058.982          42.962          45.106          43.189       -1912.508       -1478.735       -1554.059  
C16  36760548.812    36760566.795    36760552.307   191421825.109   148019571.839   155545927.697          48.968          48.838          45.219         109.129          84.427          88.718  
C25  23686269.434           0.000    23686273.022   123340623.334           0.000   100224377.623          47.521           0.000          48.187       -2384.290           0.000       -1937.411  
C32  22634924.808           0.000    22634932.530   117865993.621           0.000    95775806.705          51.387           0.000          51.254        1636.378           0.000        1329.549  
> 2019 10 28 08 34  5.0000000  0 26
G10  20404955.783    20404957.008    20405011.237   107228767.494    83554910.845    80073645.906          52.093          45.799          54.688        1165.471         908.283         870.252  
G12  22074980.184    22074979.809           0.000   116004807.823    90393369.230           0.000          47.129          35.945           0.000         637.204         496.372           0.000  
G14  23832205.739    23832204.925           0.000   125239086.411    97588944.646           0.000          41.286          29.278           0.000        1857.632        1447.253           0.000  
G15  24807688.181    24807690.663           0.000   130365284.344   101583384.077           0.000          37.782          27.088           0.000       -2473.746       -1928.498           0.000  
G20  20110305.826    20110304.461           0.000   105680371.926    82348350.328           0.000          48.393          41.924           0.000       -1156.272        -900.972           0.000  
G21  23482536.884    23482537.959           0.000   123401553.337    96157113.179           0.000          42.129          30.469           0.000       -2682.204       -2090.510           0.000  
G24  22364801.933    22364803.236    22364860.786   117527824.808    91580137.482    87764515.576          43.465          34.128          53.376       -3026.098       -2358.302       -2259.708  
G25  22177374.595    22177377.020    22177433.263   116542886.256    90812665.118    87029014.371          44.768          34.559          51.457        2827.856        2203.858        2111.636  
G31  23483147.372    23483149.148           0.000   123404765.996    96159619.438           0.000          38.473          29.238           0.000        3225.490        2512.955           0.000  
G32  21996701.272    21996702.951    21996757.046   115593445.234    90072844.017    86319999.642          49.549          40.430          52.390        1518.540        1183.348        1133.888  
R01  23458104.669    23458126.180   125397014.636    97531114.437          44.408          34.730       -2654.390       -2064.510  
R02  19917632.259    19917648.274   106284296.655    82665633.258          53.862          46.293          87.081          68.022  
R03  21311760.644    21311780.115   114083515.766    88731704.791          50.351          49.156        2609.123        2029.797  
R10  22468692.758           0.000   119855095.420           0.000          46.208           0.000       -3838.395           0.000  
R12  20212476.484    20212495.059   107971413.875    83977843.087          53.711          49.240       -2274.607       -1768.743  
R13  19651213.952    19651232.876   104936376.417    81617264.921          46.191          40.610        2109.945        1641.000  
R14  23287621.248    23287644.542   124136135.325    96550426.895          45.637          43.010        4329.435        3367.219  
C06  36578253.328    36578265.696    36578253.414   190472566.142   147285517.034   154774560.491          48.391          49.541          46.756         138.926         107.430         112.916  
C07  38161768.737    38161781.522    38161767.417   198718343.747   153661680.078   161474930.792          43.861          47.539          44.199        1474.034        1139.560        1197.610  
C08  39774173.219    39774190.050    39774176.337   207114557.136   160154187.277   168297555.514          37.253          44.146          39.675       -1918.011       -1482.952       -1558.185  
C09  37116029.424    37116043.923    37116030.384   193272905.218   149450931.337   157050069.292          47.090          49.177          46.113          99.789          77.104          80.982  
C10  39648867.991    39648886.672    39648871.441   206462068.683   159649639.628   167767354.060          36.070          43.928          38.389        1427.332        1103.393        1160.003  
C13  38334711.669    38334732.359    38334718.325   199618903.303   154358081.912   162206738.134          43.325          45.050          43.120       -1911.318       -1478.333       -1553.001  
C16  36760422.366    36760439.722    36760425.851   191421166.094   148019062.263   155545392.206          48.988          49.032          45.130         110.876          85.604          89.950  
C25  23688537.951           0.000    23688541.892   123352437.050           0.000   100233977.224          46.941           0.000          48.658       -2384.718           0.000       -1937.596  
C32  22633332.548           0.000    22633340.743   117857702.453           0.000    95769069.447          51.337           0.000          51.426        1636.533           0.000        1329.890  
> 2019 10 28 08 34 10.0000000  0 26
G10  20403827.522    20403829.104    20403883.178   107222839.203    83550291.395    80069218.936          52.321          45.699          54.715        1163.049         906.026         868.465  
G12  22074355.047    22074354.743           0.000   116001522.196    90390809.003           0.000          47.756          36.177           0.000         634.209         494.127           0.000  
G14  23830418.146    23830417.479           0.000   125229692.520    97581624.761           0.000          41.142          29.382           0.000        1857.354        1446.973           0.000  
G15  24810021.892    24810023.789           0.000   130377545.489   101592938.160           0.000          37.721          26.519           0.000       -2473.318       -1926.699           0.000  
G20  20111387.099    20111385.450           0.000   105686053.291    82352777.368           0.000          48.620          41.911           0.000       -1159.046        -903.288           0.000  
G21  23485068.557    23485069.055           0.000   123414857.557    96167480.075           0.000          41.723          29.212           0.000       -2682.292       -2090.269           0.000  
G24  22367660.813    22367662.062    22367719.728   117542849.194    91591844.805    87775735.096          43.737          34.041          53.340       -3026.558       -2358.297       -2260.188  
G25  22174664.327    22174666.843    22174722.629   116528643.582    90801566.937    87018378.612          44.748          35.019          51.098        2826.471        2202.345        2110.627  
G31  23480058.526    23480060.055           0.000   123388533.708    96146970.924           0.000          39.079          26.207           0.000        3224.425        2511.961           0.000  
G32  21995236.137    21995237.446    21995291.896   115585746.024    90066844.633    86314250.223          48.836          40.480          52.448        1518.251        1182.735        1133.804  
R01  23460567.557    23460589.597   125410180.935    97541354.874          43.825          35.224       -2655.635       -2065.341  
R02  19917530.365    19917547.392   106283754.751    82665211.755          53.997          46.778          85.467          66.646  
R03  21309302.612    21309321.966   114070357.947    88721470.951          50.452          49.037        2609.389        2029.788  
R10  22472270.966           0.000   119874182.453           0.000          47.310           0.000       -3839.991           0.000  
R12  20214586.162    20214604.299   107982683.490    83986608.345          53.141          48.923       -2277.867       -1771.261  
R13  19649219.570    19649238.414   104925726.895    81608981.966          45.873          40.930        2106.180        1638.114  
R14  23283540.121    23283562.823   124114381.461    96533507.301          45.929          42.507        4328.625        3366.725  
C06  36578099.711    36578111.949    36578099.089   190471763.793   147284896.605   154773908.524          48.586          49.563          46.965         139.524         107.884         113.241  
C07  38160333.486    38160345.890    38160331.556   198710868.655   153655899.878   161468856.672          44.119          47.236          43.970        1473.644        1139.528        1197.503  
C08  39775993.820    39776010.683    39775997.300   207124038.259   160161518.692   168305259.693          37.310          43.801          39.523       -1917.681       -1482.796       -1558.013  
C09  37115913.192    37115927.410    37115914.286   193272298.816   149450462.430   157049576.529          47.145          48.557          45.899         100.314          77.637          81.518  
C10  39647477.383    39647495.473    39647480.782   206454825.781   159644038.993   167761468.686          37.365          43.354          39.216        1427.750        1103.814        1159.738  
C13  38336526.294    38336546.859    38336533.436   199628353.836   154365389.647   162214417.474          43.444          45.018          42.773       -1911.294       -1477.801       -1553.207  
C16  36760295.462    36760312.881    36760298.754   191420504.326   148018550.533   155544854.471          49.148          49.191          45.221         111.391          86.191          90.489  
C25  23690807.539           0.000    23690812.050   123364256.932           0.000   100243581.859          46.608           0.000          48.548       -2385.752           0.000       -1938.778  
C32  22631741.199           0.000    22631748.956   117849415.506           0.000    95762335.632          51.512           0.000          51.264        1635.626           0.000        1329.125  
> 2019 10 28 08 34 15.0000000  0 26
G10  20402702.108    20402703.660    20402757.785   107216924.852    83545682.816    80064802.371          52.326          44.524          54.677        1160.797         904.410         866.705  
G12  22073733.160    22073733.213           0.000   115998253.603    90388262.058           0.000          47.423          35.261           0.000         631.485         491.645           0.000  
G14  23828630.778    23828629.868           0.000   125220300.583    97574306.398           0.000          40.274          29.179           0.000        1857.255        1447.603           0.000  
G15  24812356.079    24812357.140           0.000   130389808.692   101602493.935           0.000          38.594          28.441           0.000       -2473.443       -1926.699           0.000  
G20  20112471.145    20112469.393           0.000   105691750.501    82357216.753           0.000          48.775          40.807           0.000       -1161.724        -905.514           0.000  
G21  23487600.793    23487602.224           0.000   123428164.761    96177849.288           0.000          42.367          29.296           0.000       -2682.353       -2090.187           0.000  
G24  22370520.328    22370522.556    22370579.797   117557878.972    91603556.301    87786958.624          43.090          33.413          53.199       -3027.152       -2358.560       -2260.619  
G25  22171955.686    22171957.873    22172014.088   116514410.433    90790476.195    87007749.983          44.622          33.933          50.901        2825.079        2201.592        2109.706  
G31  23476970.926    23476972.907           0.000   123372309.530    96134328.799           0.000          38.882          28.206           0.000        3223.037        2511.070           0.000  
G32  21993771.616    21993773.078    21993827.448   115578050.027    90060847.762    86308503.228          49.167          39.498          52.401        1518.164        1183.109        1133.559  
R01  23463032.322    23463054.093   125423355.558    97551601.814          42.742          33.968       -2656.660       -2066.326  
R02  19917430.965    19917448.224   106283223.921    82664798.882          54.268          46.138          83.278          65.342  
R03  21306845.479    21306864.440   114057203.013    88711239.344          50.363          49.244        2609.276        2029.750  
R10  22475850.478           0.000   119893279.129           0.000          47.571           0.000       -3841.311           0.000  
R12  20216699.283    20216717.760   107993971.962    83995388.275          52.833          48.385       -2280.650       -1773.751  
R13  19647229.633    19647248.379   104915097.876    81600714.939          45.992          40.418        2102.791        1635.538  
R14  23279460.117    23279483.338   124092632.855    96516591.824          45.374          42.167        4328.252        3366.330  
C06  36577945.410    36577957.559    36577945.092   190470960.890   147284275.741   154773256.087          48.459          49.627          47.011         139.956         108.330         113.774  
C07  38158898.486    38158910.680    38158896.790   198703396.186   153650121.689   161462784.668          44.047          47.492          43.721        1473.771        1139.494        1197.363  
C08  39777814.989    39777831.630    39777818.149   207133519.697   160168850.344   168312964.125          37.222          44.221          39.743       -1917.038       -1482.581       -1557.392  
C09  37115796.303    37115810.802    37115797.609   193271691.827   149449993.071   157049083.295          47.133          48.794          46.070         100.783          77.975          82.068  
C10  39646087.040    39646104.542    39646089.986   206447584.001   159638439.209   167755584.125          37.525          43.302          38.916        1427.615        1104.030        1160.088  
C13  38338341.817    38338362.201    38338348.450   199637806.739   154372699.253   162222098.737          43.483          44.816          42.644       -1911.250       -1478.104       -1553.056  
C16  36760168.047    36760185.685    36760171.472   191419842.026   148018038.405   155544316.289          49.262          49.242          44.939         112.057          86.693          91.007  
C25  23693079.257           0.000    23693083.907   123376085.164           0.000   100253193.249          46.553           0.000          49.075       -2386.921           0.000       -1939.668  
C32  22630151.114           0.000    22630158.839   117841135.022           0.000    95755607.058          51.472           0.000          51.331        1634.819           0.000        1328.393  
> 2019 10 28 08 34 20.0000000  0 26
G10  20401578.960    20401580.497    20401634.482   107211022.781    83541083.795    80060394.969          52.310          44.978          54.980        1159.397         903.101         865.735  
G12  22073114.204    22073113.723           0.000   115995000.420    90385727.109           0.000          47.665          36.196           0.000         629.277         489.994           0.000  
G14  23826843.636    23826842.794           0.000   125210908.859    97566988.149           0.000          41.170          29.714           0.000        1858.451        1447.200           0.000  
G15  24814689.512    24814690.487           0.000   130402072.239   101612049.969           0.000          39.774          26.361           0.000       -2472.239       -1926.381           0.000  
G20  20113558.025    20113556.445           0.000   105697461.939    82361667.220           0.000          48.800          41.045           0.000       -1163.456        -906.832           0.000  
G21  23490133.370    23490134.520           0.000   123441473.254    96188219.513           0.000          42.306          30.392           0.000       -2681.574       -2089.563           0.000  
G24  22373380.991    22373383.084    22373440.506   117572912.516    91615270.754    87798184.954          43.005          33.173          52.941       -3026.926       -2358.739       -2260.304  
G25  22169248.673    22169250.836    22169307.152   116500185.180    90779391.596    86997127.248          44.614          33.506          50.836        2824.504        2200.292        2109.134  
G31  23473884.943    23473886.771           0.000   123356091.852    96121691.593           0.000          40.142          26.860           0.000        3223.330        2511.768           0.000  
G32  21992307.616    21992308.891    21992363.249   115570355.579    90054852.086    86302757.371          49.395          39.472          52.146        1519.076        1183.372        1134.323  
R01  23465497.880    23465519.866   125436536.814    97561853.821          44.104          33.171       -2656.956       -2065.896  
R02  19917332.993    19917350.056   106282702.384    82664393.258          54.405          45.991          83.113          64.867  
R03  21304388.532    21304407.322   114044049.221    88701008.606          51.018          49.008        2610.201        2030.448  
R10  22479432.431           0.000   119912383.587           0.000          47.005           0.000       -3841.655           0.000  
R12  20218815.920    20218834.011   108005277.592    84004181.534          53.158          48.221       -2282.736       -1775.574  
R13  19645242.308    19645261.438   104904487.846    81592462.695          45.924          41.131        2100.025        1633.360  
R14  23275380.888    23275403.376   124070887.801    96499679.071          45.510          42.618        4328.711        3366.671  
C06  36577790.653    36577803.042    36577790.604   190470155.730   147283653.152   154772601.831          48.231          49.331          46.952         141.553         109.360         115.032  
C07  38157463.566    38157475.995    38157461.981   198695924.740   153644344.305   161456713.519          43.827          47.023          43.969        1474.628        1140.307        1198.212  
C08  39779635.813    39779651.468    39779639.391   207142999.837   160176180.985   168320667.558          36.682          43.411          39.782       -1915.398       -1481.144       -1556.547  
C09  37115679.658    37115694.200    37115680.705   193271082.603   149449521.975   157048588.254          46.672          48.679          45.751         102.643          79.298          83.356  
C10  39644696.967    39644713.112    39644699.021   206440341.671   159632838.983   167749699.140          38.116          42.473          38.946        1428.729        1105.020        1161.178  
C13  38340157.781    38340177.599    38340163.926   199647260.434   154380009.449   162229780.647          43.388          44.881          42.758       -1910.377       -1477.215       -1552.495  
C16  36760040.386    36760058.080    36760043.916   191419177.534   148017524.585   155543776.325          49.105          49.135          44.911         113.467          87.749          92.300  
C25  23695352.506           0.000    23695356.598   123387920.096           0.000   100262810.087          46.691           0.000          48.987       -2387.303           0.000       -1939.681  
C32  22628561.908           0.000    22628569.398   117832859.315           0.000    95748882.375          51.355           0.000          50.929        1635.093           0.000        1328.529  
> 2019 10 28 08 34 25.0000000  0 26
G10  20400458.371    20400459.905    20400513.695   107205133.637    83536494.858    80055997.240          52.387          44.803          54.841        1157.683         901.999         864.337  
G12  22072498.253    22072497.836           0.000   115991763.247    90383204.632           0.000          47.187          34.824           0.000         626.976         488.215           0.000  
G14  23825056.730    23825055.802           0.000   125201518.013    97559670.614           0.000          41.138          29.393           0.000        1859.384        1448.114           0.000  
G15  24817023.053    24817024.331           0.000   130414336.896   101621606.803           0.000          38.614          26.196           0.000       -2471.944       -1927.441           0.000  
G20  20114647.672    20114645.906           0.000   105703188.186    82366129.229           0.000          48.546          40.967           0.000       -1165.547        -908.235           0.000  
G21  23492666.519    23492668.101           0.000   123454783.687    96198591.244           0.000          42.212          29.275           0.000       -2681.171       -2089.375           0.000  
G24  22376242.744    22376244.349    22376302.156   117587950.451    91626988.616    87809414.582          43.280          32.116          53.109       -3026.894       -2360.000       -2260.492  
G25  22166542.967    22166545.674    22166601.695   116485968.501    90768313.679    86986510.901          44.469          33.751          50.933        2823.483        2200.583        2108.489  
G31  23470800.267    23470802.157           0.000   123339881.237    96109059.997           0.000          40.247          28.239           0.000        3222.697        2511.431           0.000  
G32  21990843.857    21990844.596    21990899.444   115562663.312    90048858.116    86297013.137          49.778          39.587          52.297        1519.306        1183.470        1134.533  
R01  23467964.988    23467986.481   125449725.231    97572111.518          43.148          32.815       -2657.652       -2067.232  
R02  19917236.769    19917253.661   106282190.753    82663995.346          53.964          46.083          82.201          63.853  
R03  21301931.371    21301949.785   114030897.231    88690779.297          51.267          48.731        2611.083        2030.628  
R10  22483015.557           0.000   119931496.579           0.000          46.829           0.000       -3842.646           0.000  
R12  20220935.627    20220954.050   108016601.009    84012988.645          53.209          48.574       -2285.466       -1777.815  
R13  19643259.119    19643278.106   104893897.409    81584225.691          45.940          41.336        2096.878        1630.836  
R14  23271301.930    23271324.766   124049146.972    96482769.586          45.936          42.038        4328.470        3366.686  
C06  36577635.579    36577648.531    36577635.355   190469349.014   147283029.333   154771946.301          48.144          49.462          46.878         142.483         110.194         115.896  
C07  38156029.406    38156041.305    38156027.368   198688454.961   153638568.192   161450643.714          43.878          46.968          43.908        1474.631        1140.337        1198.306  
C08  39781456.708    39781472.368    39781459.593   207152479.316   160183511.142   168328370.403          37.151          43.955          39.924       -1914.739       -1480.850       -1555.949  
C09  37115562.228    37115576.736    37115563.721   193270471.774   149449049.630   157048091.909          46.689          48.322          46.063         103.334          79.851          83.963  
C10  39643306.016    39643322.740    39643308.520   206433099.436   159627238.853   167743814.296          38.417          42.392          38.727        1429.468        1105.559        1161.467  
C13  38341973.178    38341994.000    38341979.094   199656715.493   154387320.708   162237463.669          43.306          44.066          42.360       -1910.127       -1476.982       -1552.101  
C16  36759912.687    36759930.220    36759916.000   191418511.508   148017009.572   155543235.129          49.199          48.980          44.817         114.350          88.428          92.945  
C25  23697626.983           0.000    23697630.706   123399762.356           0.000   100272432.893          46.635           0.000          48.950       -2388.153           0.000       -1940.579  
C32  22626973.459           0.000    22626980.954   117824589.074           0.000    95742162.131          51.240           0.000          51.111        1634.512           0.000        1328.162  
> 2019 10 28 08 34 30.0000000  0 26
G10  20399340.313    20399341.493    20399395.572   107199258.300    83531916.674    80051609.810          52.244          44.105          54.895        1155.585         900.132         863.080  
G12  22071885.567    22071884.956           0.000   115988542.957    90380695.324           0.000          47.022          35.305           0.000         624.160         486.168           0.000  
G14  23823269.979    23823269.578           0.000   125192128.930    97552354.450           0.000          41.243          29.454           0.000        1859.603        1449.015           0.000  
G15  24819357.346    24819358.234           0.000   130426603.482   101631165.296           0.000          38.903          27.486           0.000       -2471.593       -1925.841           0.000  
G20  20115740.273    20115738.671           0.000   105708930.118    82370603.465           0.000          48.444          40.245           0.000       -1168.107        -910.179           0.000  
G21  23495199.946    23495201.326           0.000   123468096.902    96208965.153           0.000          42.452          30.105           0.000       -2680.961       -2088.534           0.000  
G24  22379105.606    22379106.843    22379164.721   117602993.681    91638710.616    87820648.155          42.836          33.025          53.181       -3027.172       -2359.433       -2260.638  
G25  22163839.135    22163842.376    22163898.175   116471761.251    90757243.110    86975901.608          44.568          33.723          50.894        2822.291        2199.575        2107.460  
G31  23467717.143    23467718.721           0.000   123323678.578    96096434.572           0.000          39.035          26.793           0.000        3221.250        2509.115           0.000  
G32  21989380.693    21989381.640    21989436.201   115554974.123    90042866.546    86291271.217          50.011          39.404          52.470        1519.225        1183.814        1134.578  
R01  23470433.129    23470455.070   125462922.019    97582375.694          42.680          34.784       -2658.814       -2067.632  
R02  19917142.607    19917159.983   106281690.029    82663605.884          54.066          46.714          80.335          62.666  
R03  21299475.063    21299493.397   114017747.854    88680551.989          51.279          48.784        2610.878        2030.820  
R10  22486600.522           0.000   119950618.948           0.000          47.118           0.000       -3843.911           0.000  
R12  20223058.910    20223077.056   108027943.212    84021810.356          53.588          49.123       -2288.885       -1780.199  
R13  19641279.836    19641298.251   104883327.505    81576004.662          45.806          40.770        2093.538        1628.180  
R14  23267224.040    23267247.539   124027411.290    96465864.142          46.221          42.783        4328.196        3366.323  
C06  36577480.602    36577492.733    36577480.485   190468541.531   147282404.943   154771290.172          48.114          49.225          46.676         143.663         111.124         116.750  
C07  38154594.870    38154607.203    38154593.466   198680987.684   153632794.046   161444575.958          43.821          46.382          44.345        1475.517        1140.801        1198.755  
C08  39783277.046    39783293.068    39783280.391   207161959.068   160190841.422   168336073.464          37.372          43.289          39.988       -1914.022       -1479.606       -1555.261  
C09  37115444.989    37115459.218    37115446.260   193269860.217   149448576.743   157047594.959          46.784          47.913          46.046         104.445          80.812          84.933  
C10  39641915.548    39641931.550    39641917.561   206425858.120   159621639.452   167737930.122          38.719          41.751          38.964        1429.883        1106.029        1162.166  
C13  38343789.578    38343809.989    38343795.452   199666172.872   154394633.731   162245148.526          43.465          43.873          42.218       -1909.600       -1476.242       -1551.609  
C16  36759784.582    36759802.142    36759787.892   191417844.773   148016494.005   155542693.361          49.236          48.700          44.749         115.507          89.392          93.776  
C25  23699902.480           0.000    23699906.422   123411612.786           0.000   100282062.338          46.706           0.000          48.967       -2388.888           0.000       -1941.180  
C32  22625386.546           0.000    22625393.925   117816325.149           0.000    95735447.014          51.550           0.000          51.001        1634.322           0.000        1327.894  
> 2019 10 28 08 34 35.0000000  0 26
G10  20398224.486    20398225.770    20398279.685   107193394.796    83527347.715    80047231.229          52.330          44.968          54.539        1153.014         898.663         860.944  
G12  22071275.473    22071274.874           0.000   115985337.558    90378197.622           0.000          47.308          35.609           0.000         621.158         484.128           0.000  
G14  23821483.044    23821483.384           0.000   125182739.583    97545038.124           0.000          41.509          28.721           0.000        1859.234        1448.843           0.000  
G15  24821691.695    24821692.315           0.000   130438870.008   101640723.547           0.000          39.608          25.299           0.000       -2471.841       -1926.069           0.000  
G20  20116835.431    20116833.993           0.000   105714685.722    82375088.352           0.000          48.515          40.589           0.000       -1170.921        -912.078           0.000  
G21  23497733.481    23497735.211           0.000   123481410.860    96219339.632           0.000          41.609          28.860           0.000       -2681.321       -2088.789           0.000  
G24  22381969.091    22381970.241    22382027.831   117618040.188    91650435.154    87831884.187          43.139          32.809          53.092       -3027.981       -2359.795       -2261.310  
G25  22161136.799    22161140.357    22161196.071   116457561.403    90746178.313    86965297.850          44.307          33.550          50.947        2820.761        2198.306        2106.424  
G31  23464634.872    23464636.226           0.000   123307481.876    96083813.797           0.000          39.944          28.195           0.000        3220.149        2509.445           0.000  
G32  21987917.831    21987918.967    21987973.222   115547285.984    90036875.772    86285530.066          49.415          40.318          52.443        1519.049        1183.813        1134.131  
R01  23472903.531    23472924.085   125476124.820    97592644.522          43.616          36.142       -2660.018       -2068.722  
R02  19917050.178    19917068.378   106281198.127    82663223.290          53.629          46.908          79.303          61.131  
R03  21297018.628    21297037.964   114004599.226    88670325.271          50.294          49.114        2611.760        2030.754  
R10  22490186.495           0.000   119969748.559           0.000          47.137           0.000       -3845.262           0.000  
R12  20225184.795    20225203.398   108039302.018    84030645.005          53.431          49.368       -2291.361       -1782.876  
R13  19639303.989    19639322.394   104872776.002    81567797.913          46.210          40.456        2089.688        1625.402  
R14  23263147.222    23263170.416   124005678.707    96448961.111          46.943          43.587        4327.642        3365.648  
C06  36577324.854    36577337.050    36577325.072   190467731.357   147281778.462   154770631.821          48.214          49.127          46.659         143.767         111.218         116.862  
C07  38153160.994    38153173.378    38153159.435   198673520.995   153627020.325   161438508.634          43.941          46.233          44.339        1474.873        1140.402        1198.545  
C08  39785097.209    39785112.820    39785100.532   207171436.939   160198170.355   168343775.005          36.445          42.852          40.486       -1913.345       -1480.147       -1555.249  
C09  37115326.948    37115340.938    37115327.977   193269245.930   149448101.735   157047095.805          46.970          48.093          45.925         104.692          80.990          84.909  
C10  39640525.196    39640540.690    39640526.792   206418615.760   159616039.236   167732045.144          39.627          42.173          39.416        1430.003        1105.629        1162.077  
C13  38345605.190    38345625.918    38345611.553   199675630.530   154401947.014   162252833.672          43.510          43.653          42.196       -1909.944       -1477.146       -1551.987  
C16  36759656.388    36759673.476    36759659.335   191417175.389   148015976.400   155542149.428          49.493          48.663          45.140         115.565          89.423          93.918  
C25  23702179.393           0.000    23702183.467   123423469.425           0.000   100291696.821          46.800           0.000          49.093       -2390.421           0.000       -1942.485  
C32  22623800.274           0.000    22623807.871   117808065.589           0.000    95728735.426          51.635           0.000          51.240        1632.933           0.000        1326.965  
> 2019 10 28 08 34 40.0000000  0 26
G10  20397111.376    20397112.638    20397166.701   107187545.859    83522790.104    80042863.519          52.070          44.737          54.424        1151.100         896.941         859.492  
G12  22070668.960    22070668.597           0.000   115982149.870    90375713.718           0.000          46.865          35.835           0.000         618.344         482.084           0.000  
G14  23819696.523    23819696.903           0.000   125173352.706    97537723.682           0.000          41.844          28.976           0.000        1859.929        1448.550           0.000  
G15  24824026.536    24824026.566           0.000   130451139.205   101650284.054           0.000          40.007          26.090           0.000       -2471.341       -1925.792           0.000  
G20  20117933.787    20117932.460           0.000   105720457.781    82379586.064           0.000          48.466          40.970           0.000       -1173.440        -914.267           0.000  
G21  23500267.351    23500269.390           0.000   123494728.307    96229716.841           0.000          41.465          30.401           0.000       -2681.371       -2089.574           0.000  
G24  22384833.878    22384834.686    22384892.264   117633092.608    91662164.324    87843124.622          43.932          34.071          52.861       -3028.473       -2358.768       -2261.481  
G25  22158436.654    22158439.821    22158496.158   116443371.794    90735121.501    86954701.731          44.494          34.137          51.029        2819.452        2197.124        2105.474  
G31  23461554.580    23461555.466           0.000   123291293.923    96071199.813           0.000          38.990          26.717           0.000        3219.272        2509.119           0.000  
G32  21986455.407    21986456.470    21986510.841   115539601.641    90030887.969    86279791.753          49.272          39.309          52.073        1519.154        1184.061        1134.360  
R01  23475375.783    23475396.928   125489336.646    97602920.405          44.937          37.356       -2660.829       -2069.531  
R02  19916959.760    19916978.004   106280717.813    82662849.707          54.142          46.201          77.193          60.097  
R03  21294563.316    21294582.509   113991453.984    88660101.213          50.135          49.726        2611.081        2030.748  
R10  22493774.703           0.000   119988888.283           0.000          47.143           0.000       -3846.498           0.000  
R12  20227313.989    20227333.576   108050680.302    84039494.774          53.676          49.700       -2295.163       -1785.094  
R13  19637331.771    19637350.481   104862245.668    81559607.662          46.463          40.230        2086.355        1622.788  
R14  23259071.223    23259094.337   123983952.014    96432062.629          47.040          43.415        4327.224        3365.525  
C06  36577169.173    36577181.577    36577169.340   190466921.205   147281152.011   154769973.506          48.204          48.921          46.858         144.729         111.962         117.741  
C07  38151727.833    38151739.887    38151726.263   198666057.465   153621249.058   161432443.919          43.980          46.088          44.048        1474.942        1140.591        1198.791  
C08  39786917.991    39786932.689    39786920.873   207180915.819   160205499.987   168351477.356          37.520          42.586          41.017       -1913.239       -1479.421       -1554.692  
C09  37115208.709    37115223.168    37115209.938   193268631.620   149447626.714   157046596.631          46.696          47.979          45.989         105.609          81.824          85.754  
C10  39639134.342    39639150.303    39639136.546   206411375.088   159610440.311   167726161.535          38.363          41.485          39.448        1430.695        1106.263        1162.590  
C13  38347422.548    38347442.664    38347428.025   199685091.162   154409262.577   162260521.208          43.268          43.221          42.267       -1909.925       -1476.851       -1551.835  
C16  36759527.522    36759545.263    36759530.756   191416506.036   148015458.819   155541605.521          49.370          48.262          44.926         116.457          90.134          94.696  
C25  23704457.820           0.000    23704462.260   123435334.935           0.000   100301338.517          46.738           0.000          49.290       -2391.225           0.000       -1943.158  
C32  22622215.579           0.000    22622223.077   117799813.064           0.000    95722029.587          51.434           0.000          51.276        1632.469           0.000        1326.541  
> 2019 10 28 08 34 45.0000000  0 26
G10  20396001.125    20396002.311    20396056.366   107181711.325    83518243.716    80038506.559          52.593          44.788          54.904        1149.655         895.791         858.538  
G12  22070065.605    22070065.217           0.000   115978979.664    90373243.442           0.000          46.508          35.941           0.000         616.454         480.348           0.000  
G14  23817910.763    23817911.139           0.000   125163968.235    97530411.108           0.000          42.889          29.908           0.000        1860.709        1449.421           0.000  
G15  24826362.079    24826362.271           0.000   130463410.887   101659846.387           0.000          40.062          26.714           0.000       -2470.410       -1924.622           0.000  
G20  20119035.348    20119033.692           0.000   105726246.070    82384096.406           0.000          48.212          40.960           0.000       -1174.963        -915.712           0.000  
G21  23502802.188    23502803.922           0.000   123508049.059    96240096.620           0.000          42.234          29.811           0.000       -2680.361       -2088.877           0.000  
G24  22387699.525    22387700.201    22387757.912   117648150.794    91673897.976    87854369.372          43.945          33.924          53.271       -3027.921       -2359.465       -2261.143  
G25  22155738.487    22155741.685    22155798.101   116429192.228    90724072.505    86944113.096          44.328          33.790          51.523        2819.073        2196.185        2105.085  
G31  23458475.289    23458476.672           0.000   123275114.450    96058592.526           0.000          38.625          28.590           0.000        3219.600        2508.657           0.000  
G32  21984993.581    21984994.885    21985049.449   115531920.901    90024902.998    86274056.146          48.998          39.588          52.950        1519.999        1184.186        1135.109  
R01  23477849.603    23477870.927   125502557.163    97613202.994          45.023          38.248       -2661.066       -2069.491  
R02  19916871.564    19916889.925   106280248.784    82662484.910          53.844          45.723          76.417          59.582  
R03  21292108.302    21292127.244   113978312.085    88649879.740          50.418          49.978        2611.619        2031.505  
R10  22497364.345           0.000   120008037.774           0.000          46.688           0.000       -3847.064           0.000  
R12  20229447.213    20229466.791   108062077.724    84048359.432          53.122          49.194       -2297.746       -1786.876  
R13  19635363.656    19635382.652   104851736.572    81551433.934          46.412          40.454        2083.551        1620.569  
R14  23254996.855    23255019.745   123962231.048    96415168.624          47.109          42.705        4327.580        3365.758  
C06  36577013.554    36577025.808    36577013.691   190466110.865   147280525.407   154769315.046          48.093          48.893          46.859         146.436         113.231         118.956  
C07  38150295.024    38150307.460    38150293.547   198658597.039   153615480.190   161426381.739          43.688          45.926          44.213        1476.237        1141.426        1199.595  
C08  39788738.254    39788753.473    39788741.305   207190395.403   160212830.192   168359180.285          36.689          42.807          41.375       -1911.711       -1478.240       -1553.512  
C09  37115090.832    37115105.300    37115092.249   193268017.174   149447151.579   157046097.345          46.945          48.398          46.127         107.253          82.988          87.155  
C10  39637743.848    39637760.379    39637746.888   206404135.918   159604842.520   167720279.102          39.023          42.309          39.758        1431.816        1107.260        1163.755  
C13  38349239.980    38349260.152    38349244.859   199694554.527   154416580.258   162268210.970          43.415          42.844          41.630       -1908.528       -1475.809       -1550.996  
C16  36759398.991    36759416.656    36759402.269   191415836.538   148014941.114   155541061.514          49.139          48.503          44.891         118.173          91.510          95.912  
C25  23706737.934           0.000    23706742.622   123447209.167           0.000   100310987.285          46.228           0.000          48.958       -2391.359           0.000       -1943.171  
C32  22620631.967           0.000    22620639.643   117791567.436           0.000    95715329.332          51.477           0.000          51.294        1632.727           0.000        1326.856  
> 2019 10 28 08 34 50.0000000  0 26
G10  20394893.311    20394894.487    20394948.654   107175889.625    83513707.323    80034159.192          52.839          44.799          54.648        1147.640         894.382         857.035  
G12  22069465.534    22069465.314           0.000   115975825.416    90370785.583           0.000          46.868          36.113           0.000         613.884         478.409           0.000  
G14  23816124.965    23816124.688           0.000   125154584.455    97523099.072           0.000          42.003          28.628           0.000        1861.148        1450.227           0.000  
G15  24828697.721    24828698.287           0.000   130475683.530   101669409.513           0.000          39.762          26.835           0.000       -2470.106       -1925.022           0.000  
G20  20120139.663    20120137.759           0.000   105732049.016    82388618.182           0.000          48.361          40.632           0.000       -1177.461        -917.058           0.000  
G21  23505337.751    23505339.304           0.000   123521371.605    96250477.758           0.000          43.024          31.060           0.000       -2680.125       -2087.776           0.000  
G24  22390565.811    22390566.128    22390624.239   117663213.218    91685634.922    87865617.288          44.075          33.545          53.347       -3028.354       -2360.678       -2261.333  
G25  22153042.092    22153044.705    22153101.392   116415021.133    90713030.083    86933530.791          44.349          33.839          51.327        2818.042        2195.687        2104.447  
G31  23455397.602    23455398.815           0.000   123258942.033    96045990.656           0.000          37.715          27.158           0.000        3218.235        2508.931           0.000  
G32  21983532.482    21983533.478    21983588.164   115524242.225    90018919.613    86268322.067          49.083          39.864          52.472        1520.131        1184.620        1135.178  
R01  23480324.245    23480345.560   125515784.754    97623491.148          44.965          37.007       -2661.799       -2070.512  
R02  19916785.469    19916803.481   106279789.746    82662127.891          53.452          46.229          75.046          58.421  
R03  21289653.777    21289672.693   113965171.917    88639659.621          50.987          49.848        2611.982        2031.689  
R10  22500956.142           0.000   120027195.614           0.000          46.794           0.000       -3848.012           0.000  
R12  20231584.068    20231604.031   108073492.719    84057237.770          52.801          48.814       -2300.615       -1789.261  
R13  19633399.263    19633418.393   104841247.051    81543275.421          45.996          40.221        2080.287        1618.075  
R14  23250922.387    23250946.011   123940514.236    96398277.838          47.319          42.802        4327.299        3365.585  
C06  36576857.703    36576869.588    36576857.694   190465298.825   147279897.478   154768655.198          48.231          48.659          46.860         147.320         114.015         119.709  
C07  38148862.530    38148874.780    38148861.539   198651138.120   153609712.488   161420320.749          43.323          45.548          44.505        1476.608        1141.779        1199.726  
C08  39790557.856    39790573.404    39790561.194   207199874.156   160220159.780   168366882.540          37.551          42.744          41.308       -1910.776       -1477.482       -1552.647  
C09  37114972.569    37114987.207    37114973.575   193267400.938   149446675.070   157045596.588          47.264          48.389          46.059         108.129          83.730          88.097  
C10  39636353.543    39636369.761    39636356.557   206396896.691   159599244.712   167714396.670          39.294          41.800          39.960        1432.653        1107.922        1164.337  
C13  38351057.624    38351077.939    38351062.808   199704019.217   154423898.961   162275901.831          43.801          42.469          42.016       -1908.189       -1475.536       -1550.794  
C16  36759270.113    36759287.948    36759273.261   191415165.358   148014422.119   155540516.132          49.502          48.562          44.767         119.323          92.273          96.791  
C25  23709019.817           0.000    23709024.029   123459090.525           0.000   100320641.854          46.177           0.000          49.253       -2392.186           0.000       -1943.742  
C32  22619049.653           0.000    22619057.229   117783327.157           0.000    95708633.436          51.742           0.000          51.567        1632.350           0.000        1326.479  
> 2019 10 28 08 34 55.0000000  0 26
G10  20393788.196    20393789.120    20393843.538   107170082.023    83509181.921    80029822.349          52.389          45.101          54.698        1145.079         892.116         854.980  
G12  22068868.802    22068867.884           0.000   115972688.361    90368341.127           0.000          47.505          36.450           0.000         610.631         475.383           0.000  
G14  23814339.724    23814339.117           0.000   125145202.589    97515788.530           0.000          40.876          28.762           0.000        1861.320        1449.568           0.000  
G15  24831033.254    24831034.077           0.000   130487958.319   101678974.285           0.000          38.901          26.602           0.000       -2470.176       -1924.270           0.000  
G20  20121246.850    20121245.292           0.000   105737867.870    82393152.352           0.000          48.178          41.164           0.000       -1180.450        -920.274           0.000  
G21  23507873.846    23507875.001           0.000   123534697.094    96260861.221           0.000          44.007          31.943           0.000       -2680.320       -2088.325           0.000  
G24  22393433.400    22393433.954    22393491.342   117678281.064    91697376.111    87876869.256          44.131          34.683          53.042       -3029.142       -2359.846       -2262.039  
G25  22150347.443    22150349.740    22150406.477   116400859.794    90701995.285    86922955.775          44.667          35.127          51.404        2816.438        2195.060        2103.095  
G31  23452321.445    23452323.088           0.000   123242777.771    96033395.148           0.000          37.365          27.381           0.000        3216.817        2506.538           0.000  
G32  21982071.948    21982072.568    21982127.515   115516566.843    90012938.780    86262590.449          49.282          40.323          52.217        1519.828        1184.164        1134.788  
R01  23482799.742    23482820.797   125529020.852    97633785.864          44.666          35.430       -2663.350       -2071.367  
R02  19916701.412    19916719.889   106279341.877    82661779.534          53.764          46.551          73.078          56.975  
R03  21287199.410    21287218.388   113952034.731    88629441.799          50.816          49.399        2611.636        2031.452  
R10  22504549.349           0.000   120046362.943           0.000          46.862           0.000       -3849.654           0.000  
R12  20233725.021    20233744.366   108084926.602    84066130.771          52.897          48.823       -2304.145       -1792.008  
R13  19631439.117    19631458.212   104830778.339    81535133.102          46.137          39.987        2076.388        1614.893  
R14  23246849.400    23246872.640   123918802.847    96381391.288          47.553          43.027        4326.557        3365.016  
C06  36576701.722    36576713.606    36576701.772   190464486.264   147279269.156   154767994.929          48.280          49.254          46.775         147.707         114.252         120.007  
C07  38147430.907    38147442.878    38147429.647   198643681.987   153603946.933   161414262.038          43.543          46.193          44.504        1476.083        1141.356        1199.529  
C08  39792378.751    39792393.903    39792382.148   207209353.381   160227489.702   168374585.182          37.373          43.096          41.246       -1911.041       -1477.575       -1552.726  
C09  37114853.938    37114868.386    37114855.153   193266784.233   149446198.201   157045095.478          46.815          48.554          45.656         108.532          83.913          88.163  
C10  39634963.862    39634979.951    39634966.487   206389658.686   159593647.858   167708515.227          39.657          42.098          40.134        1432.739        1107.604        1164.196  
C13  38352875.449    38352896.231    38352880.780   199713486.399   154431219.560   162283594.672          43.259          42.854          41.438       -1908.847       -1475.801       -1550.887  
C16  36759141.253    36759158.802    36759144.075   191414493.739   148013902.781   155539970.372          49.291          48.929          44.644         119.429          92.288          97.015  
C25  23711303.132           0.000    23711307.261   123470980.262           0.000   100330303.235          46.450           0.000          48.656       -2393.867           0.000       -1945.063  
C32  22617468.470           0.000    22617475.875   117775093.470           0.000    95701942.889          51.517           0.000          51.110        1631.117           0.000        1325.443  
> 2019 10 28 08 35  0.0000000  0 26
G10  20392685.810    20392686.864    20392741.267   107164288.922    83504667.807    80025496.326          52.137          45.089          54.780        1142.840         890.444         853.582  
G12  22068275.362    22068274.496           0.000   115969568.887    90365910.372           0.000          48.366          36.959           0.000         607.948         473.656           0.000  
G14  23812554.541    23812554.722           0.000   125135823.204    97508479.921           0.000          39.480          28.141           0.000        1861.099        1449.390           0.000  
G15  24833369.070    24833370.594           0.000   130500235.619   101688541.071           0.000          38.890          26.683           0.000       -2469.976       -1924.770           0.000  
G20  20122357.271    20122355.397           0.000   105743703.051    82397699.240           0.000          48.179          41.295           0.000       -1182.945        -921.815           0.000  
G21  23510410.701    23510411.505           0.000   123548025.920    96271247.284           0.000          44.104          30.910           0.000       -2680.399       -2088.889           0.000  
G24  22396301.765    22396302.691    22396359.842   117693354.697    91709121.801    87888125.542          44.061          34.812          52.933       -3029.719       -2361.171       -2262.220  
G25  22147654.483    22147656.246    22147713.421   116386708.629    90690968.410    86912388.358          44.458          33.816          51.471        2814.869        2193.303        2102.112  
G31  23449246.744    23449248.839           0.000   123226622.184    96020806.480           0.000          38.460          28.074           0.000        3215.957        2505.662           0.000  
G32  21980611.983    21980613.039    21980667.515   115508895.154    90006960.848    86256861.586          48.913          39.999          52.526        1519.684        1184.231        1134.958  
R01  23485276.710    23485297.693   125542265.638    97644087.376          43.874          34.719       -2664.370       -2072.289  
R02  19916619.443    19916638.081   106278905.482    82661440.105          54.323          47.012          72.064          55.712  
R03  21284745.914    21284765.232   113938900.944    88619226.646          50.991          50.049        2612.429        2031.470  
R10  22508144.538           0.000   120065540.086           0.000          46.420           0.000       -3850.826           0.000  
R12  20235869.475    20235888.812   108096379.715    84075038.755          53.203          49.556       -2306.614       -1794.393  
R13  19629482.430    19629501.256   104820330.842    81527007.273          46.303          40.404        2072.872        1612.259  
R14  23242777.383    23242800.784   123897097.326    96364509.306          47.844          43.105        4325.990        3364.646  
C06  36576545.363    36576557.600    36576545.603   190463673.613   147278640.773   154767334.586          48.281          49.017          46.850         148.544         114.816         120.673  
C07  38145999.357    38146011.920    38145998.654   198636228.961   153598183.792   161408205.847          43.993          45.985          44.487        1476.093        1141.409        1199.685  
C08  39794199.083    39794215.293    39794202.528   207218833.388   160234820.237   168382288.454          37.415          43.260          41.148       -1910.071       -1477.072       -1552.159  
C09  37114735.465    37114750.098    37114736.897   193266167.396   149445721.232   157044594.255          46.909          48.671          46.075         109.341          84.596          88.845  
C10  39633573.956    39633590.817    39633576.793   206382422.298   159588052.262   167702635.106          40.023          42.572          39.832        1433.162        1108.152        1164.354  
C13  38354693.996    38354714.480    38354699.935   199722956.412   154438542.384   162291289.830          43.620          42.748          41.585       -1908.175       -1475.881       -1550.710  
C16  36759011.717    36759029.881    36759014.916   191413822.051   148013383.398   155539424.575          49.413          48.831          44.671         120.294          92.918          97.702  
C25  23713588.063           0.000    23713592.356   123482878.712           0.000   100339971.708          46.711           0.000          48.537       -2394.565           0.000       -1945.787  
C32  22615888.414           0.000    22615896.056   117766866.770           0.000    95695258.028          51.752           0.000          51.447        1630.623           0.000        1325.033  
> 2019 10 28 08 35  5.0000000  0 26
G10  20391586.232    20391587.330    20391641.673   107158510.036    83500164.785    80021180.923          52.365          45.054          54.755        1140.456         888.539         851.577  
G12  22067684.666    22067683.808           0.000   115966466.741    90363493.130           0.000          48.571          36.696           0.000         604.795         471.193           0.000  
G14  23810770.330    23810769.920           0.000   125126445.912    97501172.956           0.000          40.728          28.590           0.000        1861.144        1450.009           0.000  
G15  24835705.677    24835707.061           0.000   130512515.248   101698109.525           0.000          36.895          26.225           0.000       -2470.044       -1925.101           0.000  
G20  20123470.721    20123468.823           0.000   105749554.237    82402258.607           0.000          47.864          41.175           0.000       -1185.760        -924.250           0.000  
G21  23512947.717    23512948.222           0.000   123561357.767    96281635.704           0.000          44.716          32.575           0.000       -2680.438       -2088.471           0.000  
G24  22399171.052    22399172.152    22399229.115   117708433.809    91720871.769    87899385.930          44.108          35.393          52.759       -3030.236       -2360.644       -2262.918  
G25  22144963.235    22144965.311    22145022.290   116372567.309    90679949.211    86901828.295          44.945          33.728          51.203        2813.460        2191.858        2100.931  
G31  23446174.019    23446175.610           0.000   123210474.999    96008224.249           0.000          38.928          27.370           0.000        3214.630        2504.610           0.000  
G32  21979152.719    21979153.507    21979208.289   115501226.881    90000985.567    86251135.281          48.999          39.838          52.086        1519.352        1183.614        1134.530  
R01  23487755.846    23487777.098   125555518.986    97654395.508          43.789          35.849       -2665.543       -2073.335  
R02  19916540.000    19916558.584   106278480.499    82661109.565          53.592          46.456          69.973          54.351  
R03  21282292.778    21282312.419   113925770.280    88609013.891          49.959          49.962        2611.662        2031.377  
R10  22511741.509           0.000   120084726.930           0.000          46.550           0.000       -3852.245           0.000  
R12  20238017.576    20238036.330   108107851.727    84083961.429          53.373          49.777       -2310.314       -1797.076  
R13  19627529.764    19627548.304   104809904.169    81518897.655          46.213          40.089        2069.188        1609.294  
R14  23238706.774    23238729.870   123875397.320    96347631.614          47.849          43.264        4325.396        3364.182  
C06  36576389.523    36576401.312    36576389.466   190462860.585   147278012.091   154766673.937          48.286          49.050          46.736         148.708         114.954         120.788  
C07  38144568.839    38144580.794    38144567.578   198628778.822   153592422.866   161402152.022          43.761          46.075          44.653        1475.736        1141.277        1199.191  
C08  39796019.539    39796035.593    39796023.317   207228313.872   160242151.158   168389992.099          37.988          43.449          41.154       -1910.191       -1477.269       -1551.981  
C09  37114616.826    37114631.802    37114618.493   193265550.170   149445243.972   157044092.721          46.580          48.587          45.964         109.748          84.728          88.944  
C10  39632184.404    39632201.345    39632187.950   206375187.200   159582457.611   167696755.981          39.256          42.412          40.224        1432.721        1107.836        1164.431  
C13  38356513.179    38356533.785    38356518.629   199732428.985   154445867.191   162298987.076          43.551          42.596          41.560       -1908.635       -1476.011       -1550.925  
C16  36758882.583    36758900.897    36758886.082   191413150.010   148012863.737   155538878.481          49.142          48.729          44.546         120.522          93.209          98.025  
C25  23715875.124           0.000    23715879.126   123494785.644           0.000   100349647.064          46.842           0.000          48.707       -2396.370           0.000       -1947.031  
C32  22614309.862           0.000    22614317.466   117758646.795           0.000    95688578.631          51.450           0.000          51.600        1629.438           0.000        1324.013  
> 2019 10 28 08 35 10.0000000  0 26
G10  20390489.044    20390490.291    20390544.494   107152744.409    83495672.088    80016875.427          52.527          45.193          54.720        1138.640         887.187         850.287  
G12  22067097.043    22067096.555           0.000   115963380.920    90361088.596           0.000          48.079          35.992           0.000         602.282         469.234           0.000  
G14  23808986.188    23808985.975           0.000   125117069.702    97493866.826           0.000          40.785          29.698           0.000        1861.966        1451.570           0.000  
G15  24838042.689    24838044.389           0.000   130524796.150   101707679.128           0.000          38.098          26.952           0.000       -2469.753       -1924.401           0.000  
G20  20124587.100    20124585.183           0.000   105755420.453    82406829.682           0.000          48.553          41.013           0.000       -1188.035        -925.983           0.000  
G21  23515485.064    23515485.660           0.000   123574691.674    96292025.756           0.000          44.670          31.094           0.000       -2680.267       -2088.296           0.000  
G24  22402041.443    22402042.544    22402099.552   117723517.517    91732625.307    87910649.733          43.818          34.657          52.798       -3030.521       -2361.021       -2262.884  
G25  22142273.733    22142275.901    22142332.786   116358434.933    90668936.980    86891274.929          44.719          33.786          51.248        2812.353        2191.088        2100.193  
G31  23443102.964    23443104.199           0.000   123194335.192    95995647.791           0.000          38.977          27.610           0.000        3213.884        2504.430           0.000  
G32  21977694.037    21977694.911    21977749.550   115493561.038    89995012.190    86245410.780          48.960          39.535          52.349        1519.680        1184.218        1135.042  
R01  23490236.981    23490258.224   125568779.902    97664709.552          44.571          36.242       -2666.518       -2073.698  
R02  19916462.430    19916480.612   106278065.573    82660786.852          53.062          46.154          68.035          53.260  
R03  21279840.280    21279859.992   113912641.826    88598802.880          49.791          49.812        2611.663        2031.540  
R10  22515339.773           0.000   120103922.343           0.000          46.573           0.000       -3853.437           0.000  
R12  20240168.910    20240187.378   108119341.672    84092898.066          53.583          49.359       -2313.482       -1799.200  
R13  19625581.219    19625599.937   104799497.500    81510803.570          46.605          39.730        2065.916        1606.813  
R14  23234636.892    23234659.209   123853701.957    96330757.532          47.847          43.649        4325.174        3363.875  
C06  36576233.258    36576244.856    36576232.985   190462046.222   147277382.378   154766012.210          48.451          49.377          46.710         149.964         115.891         121.778  
C07  38143138.544    38143150.741    38143137.653   198621330.626   153586663.454   161396099.740          43.808          46.793          44.578        1476.397        1141.670        1199.815  
C08  39797840.338    39797856.532    39797843.336   207237793.921   160249481.728   168397695.413          38.380          43.842          40.877       -1909.095       -1476.284       -1551.114  
C09  37114498.412    37114512.920    37114499.410   193264931.633   149444765.678   157043590.092          46.552          48.999          45.875         110.820          85.537          90.044  
C10  39630794.719    39630812.422    39630798.563   206367952.437   159576863.266   167690877.194          38.392          42.968          40.157        1433.968        1108.758        1164.875  
C13  38358332.433    38358353.329    38358338.445   199741903.247   154453193.271   162306685.682          43.214          43.285          41.949       -1907.969       -1475.505       -1550.599  
C16  36758753.681    36758771.339    36758756.649   191412476.671   148012343.071   155538331.346          49.180          48.922          44.610         121.825          94.117          98.972  
C25  23718163.407           0.000    23718167.250   123506700.053           0.000   100359328.503          47.292           0.000          48.625       -2396.682           0.000       -1947.604  
C32  22612732.583           0.000    22612740.094   117750432.567           0.000    95681903.906          51.726           0.000          51.459        1629.207           0.000        1323.832  
> 2019 10 28 08 35 15.0000000  0 26
G10  20389394.143    20389395.471    20389449.577   107146991.290    83491189.150    80012579.279          52.192          45.405          54.832        1137.212         885.569         848.980  
G12  22066512.723    22066511.861           0.000   115960310.735    90358696.233           0.000          48.303          36.152           0.000         600.261         467.216           0.000  
G14  23807202.281    23807201.776           0.000   125107693.833    97486560.988           0.000          41.501          30.910           0.000        1862.735        1451.354           0.000  
G15  24840379.951    24840381.914           0.000   130537077.540   101717249.023           0.000          39.614          27.498           0.000       -2468.474       -1923.525           0.000  
G20  20125706.077    20125704.128           0.000   105761300.945    82411411.890           0.000          48.587          41.135           0.000       -1189.679        -927.465           0.000  
G21  23518022.495    23518022.694           0.000   123588026.852    96302416.766           0.000          44.062          32.093           0.000       -2679.287       -2088.414           0.000  
G24  22404912.230    22404913.878    22404970.172   117738604.956    91744381.773    87921916.348          43.799          34.933          52.841       -3030.130       -2362.177       -2262.907  
G25  22139585.844    22139588.446    22139644.846   116344310.742    90657931.140    86880727.682          44.296          34.262          51.166        2811.988        2190.649        2099.527  
G31  23440032.981    23440033.750           0.000   123178201.988    95983076.472           0.000          39.911          28.162           0.000        3213.783        2503.032           0.000  
G32  21976235.417    21976236.464    21976291.076   115485896.845    89989040.107    86239687.536          49.092          40.408          52.571        1520.553        1184.317        1135.348  
R01  23492719.184    23492740.928   125582047.481    97675028.767          45.327          35.997       -2666.734       -2073.879  
R02  19916386.744    19916404.603   106277660.313    82660471.645          53.528          46.890          67.191          52.834  
R03  21277388.367    21277407.345   113899514.629    88588592.853          50.334          50.113        2612.577        2032.306  
R10  22518939.686           0.000   120123125.495           0.000          46.296           0.000       -3853.753           0.000  
R12  20242323.649    20242341.625   108130848.818    84101848.058          53.936          48.918       -2316.025       -1800.964  
R13  19623635.738    19623654.501   104789110.034    81502724.408          46.226          39.144        2063.053        1604.861  
R14  23230567.630    23230590.297   123832010.508    96313886.452          48.324          43.395        4325.463        3364.318  
C06  36576076.770    36576088.573    36576076.197   190461229.767   147276751.051   154765348.781          48.575          49.576          46.630         151.289         116.889         122.878  
C07  38141707.355    38141720.617    38141707.029   198613883.551   153580904.911   161390048.389          43.746          46.847          44.821        1476.803        1142.075        1200.335  
C08  39799660.161    39799676.787    39799663.651   207247272.814   160256811.394   168405397.780          37.286          43.769          40.948       -1908.373       -1475.359       -1550.295  
C09  37114379.279    37114393.615    37114379.972   193264310.954   149444285.728   157043085.756          46.672          49.297          45.846         112.149          86.693          90.920  
C10  39629405.285    39629423.114    39629408.704   206360717.298   159571268.594   167684998.034          38.880          43.635          40.310        1434.525        1109.720        1165.894  
C13  38360152.086    38360172.953    38360158.293   199751378.314   154460520.004   162314384.954          43.432          43.108          41.793       -1907.664       -1475.074       -1549.976  
C16  36758623.760    36758641.781    36758627.096   191411801.290   148011820.819   155537782.547          49.229          49.202          44.754         122.985          95.155          99.931  
C25  23720452.576           0.000    23720456.352   123518621.176           0.000   100369015.401          47.470           0.000          48.525       -2397.363           0.000       -1948.024  
C32  22611156.343           0.000    22611163.573   117742223.358           0.000    95675233.244          51.998           0.000          51.611        1628.989           0.000        1323.801  
> 2019 10 28 08 35 20.0000000  0 26
G10  20388302.185    20388303.528    20388357.602   107141253.181    83486717.895    80008294.320          52.104          45.039          54.591        1133.816         883.857         846.989  
G12  22065931.877    22065931.325           0.000   115957258.608    90356317.953           0.000          48.355          36.561           0.000         596.380         465.061           0.000  
G14  23805418.608    23805418.370           0.000   125098320.797    97479257.319           0.000          41.050          29.492           0.000        1862.074        1450.962           0.000  
G15  24842717.541    24842719.194           0.000   130549361.968   101726821.329           0.000          39.437          25.493           0.000       -2469.500       -1923.660           0.000  
G20  20126828.215    20126826.338           0.000   105767198.215    82416007.165           0.000          48.122          41.450           0.000       -1193.374        -929.507           0.000  
G21  23520560.760    23520561.266           0.000   123601365.836    96312810.749           0.000          43.780          30.979           0.000       -2680.401       -2088.501           0.000  
G24  22407784.310    22407786.172    22407842.428   117753698.770    91756143.168    87933187.691          43.900          34.605          52.387       -3031.542       -2360.997       -2263.592  
G25  22136900.427    22136902.483    22136959.178   116330197.256    90646933.627    86870188.377          44.112          34.580          50.713        2809.210        2189.343        2098.206  
G31  23436964.703    23436965.676           0.000   123162077.944    95970512.373           0.000          38.794          28.042           0.000        3211.451        2502.398           0.000  
G32  21974777.585    21974779.057    21974833.491   115478236.851    89983071.266    86233967.391          48.691          39.685          51.824        1519.245        1184.235        1134.853  
R01  23495203.233    23495224.969   125595324.367    97685355.220          45.823          35.809       -2668.831       -2075.746  
R02  19916313.343    19916331.318   106277267.013    82660165.778          53.860          47.464          65.557          50.454  
R03  21274936.850    21274956.276   113886391.396    88578385.914          50.474          50.160        2612.349        2031.308  
R10  22522541.142           0.000   120142338.980           0.000          44.864           0.000       -3856.194           0.000  
R12  20244481.667    20244499.347   108142375.544    84110813.296          53.827          49.130       -2319.240       -1804.286  
R13  19621695.075    19621712.693   104778744.197    81494662.116          46.621          39.268        2058.516        1601.008  
R14  23226499.454    23226522.121   123810325.425    96297020.372          48.876          43.502        4323.950        3363.071  
C06  36575920.002    36575931.805    36575919.639   190460413.665   147276120.004   154764685.636          48.503          49.477          46.838         151.640         116.937         123.038  
C07  38140278.746    38140291.199    38140277.687   198606440.068   153575149.145   161383999.970          43.681          47.014          44.837        1476.741        1141.834        1199.833  
C08  39801480.922    39801497.724    39801484.392   207256752.889   160264142.024   168413101.142          38.131          44.067          41.226       -1907.349       -1475.441       -1550.282  
C09  37114259.715    37114274.677    37114261.130   193263690.612   149443806.036   157042581.659          46.503          49.184          45.810         112.263          86.694          91.250  
C10  39628016.183    39628034.468    39628020.151   206353484.166   159565675.543   167679120.562          38.727          43.560          40.364        1434.740        1109.304        1165.966  
C13  38361972.196    38361993.121    38361978.775   199760856.637   154467849.240   162322086.882          43.591          42.901          41.555       -1907.828       -1475.103       -1550.134  
C16  36758493.988    36758511.662    36758497.438   191411126.272   148011298.862   155537234.036          49.080          49.075          44.848         123.271          95.206         100.233  
C25  23722743.547           0.000    23722747.093   123530551.444           0.000   100378709.714          47.519           0.000          48.192       -2398.792           0.000       -1949.028  
C32  22609581.094           0.000    22609588.726   117734021.612           0.000    95668568.666          51.980           0.000          51.366        1627.876           0.000        1322.771  
> 2019 10 28 08 35 25.0000000  0 26
G10  20387213.195    20387214.724    20387268.544   107135529.815    83482258.117    80004020.377          52.277          45.183          54.729        1131.703         881.496         845.024  
G12  22065354.681    22065353.579           0.000   115954224.296    90353953.543           0.000          48.709          36.311           0.000         593.552         462.016           0.000  
G14  23803635.339    23803635.455           0.000   125088950.346    97471955.685           0.000          40.429          29.453           0.000        1862.324        1449.758           0.000  
G15  24845055.784    24845057.422           0.000   130561649.183   101736395.779           0.000          37.510          25.838           0.000       -2469.086       -1923.486           0.000  
G20  20127953.549    20127951.985           0.000   105773111.980    82420615.280           0.000          48.319          41.047           0.000       -1195.981        -932.114           0.000  
G21  23523099.632    23523100.771           0.000   123614708.264    96323207.447           0.000          43.661          31.545           0.000       -2680.266       -2089.188           0.000  
G24  22410657.442    22410659.263    22410715.943   117768798.517    91767909.193    87944463.483          43.872          34.072          52.470       -3032.106       -2363.380       -2264.260  
G25  22134216.851    22134219.404    22134275.422   116316094.185    90635944.237    86859656.874          44.528          33.864          50.827        2807.991        2187.810        2096.836  
G31  23433897.884    23433898.845           0.000   123145962.821    95957955.174           0.000          39.736          26.807           0.000        3210.632        2501.498           0.000  
G32  21973320.578    21973321.808    21973376.801   115470580.701    89977105.436    86228250.159          48.370          39.483          52.150        1519.438        1183.677        1134.523  
R01  23497687.930    23497710.284   125608610.210    97695688.668          45.756          35.666       -2669.773       -2076.405  
R02  19916241.896    19916259.880   106276885.360    82659868.917          53.883          47.119          63.682          49.315  
R03  21272486.159    21272504.735   113873271.836    88568181.793          51.252          49.392        2611.742        2031.432  
R10  22526145.134           0.000   120161562.386           0.000          44.302           0.000       -3857.405           0.000  
R12  20246643.099    20246660.985   108153921.686    84119793.611          53.786          48.797       -2322.893       -1806.586  
R13  19619757.961    19619776.089   104768399.778    81486616.466          46.687          39.587        2055.041        1598.433  
R14  23222432.526    23222454.897   123788646.450    96280159.026          49.463          43.741        4323.268        3362.742  
C06  36575763.299    36575775.171    36575762.940   190459597.693   147275489.024   154764022.571          48.678          49.434          47.072         151.720         117.353         123.455  
C07  38138850.044    38138862.444    38138848.631   198598999.992   153569396.011   161377954.308          43.525          46.681          44.942        1476.122        1141.536        1199.462  
C08  39803301.389    39803318.320    39803305.008   207266233.973   160271473.363   168420805.279          38.358          44.137          41.071       -1907.522       -1475.145       -1550.141  
C09  37114140.991    37114155.321    37114141.884   193263070.366   149443326.417   157042077.670          46.520          49.057          46.010         112.593          87.086          91.456  
C10  39626627.975    39626646.040    39626631.373   206346252.859   159560083.851   167673244.577          38.931          43.488          40.383        1434.666        1109.408        1165.617  
C13  38363792.652    38363813.291    38363799.512   199770338.045   154475180.853   162329791.278          43.379          42.989          41.436       -1908.112       -1475.657       -1550.428  
C16  36758364.628    36758382.399    36758367.833   191410451.428   148010777.022   155536685.679          49.171          48.926          44.863         123.488          95.475         100.282  
C25  23725036.358           0.000    23725040.090   123542490.624           0.000   100388411.297          47.579           0.000          48.327       -2400.260           0.000       -1950.414  
C32  22608007.570           0.000    22608015.301   117725827.110           0.000    95661909.962          52.082           0.000          51.605        1626.693           0.000        1321.891  
> 2019 10 28 08 35 30.0000000  0 26
G10  20386126.574    20386127.894    20386182.109   107129819.807    83477808.763    79999756.406          52.371          44.306          54.876        1129.123         880.262         843.287  
G12  22064780.630    22064779.694           0.000   115951206.430    90351601.957           0.000          48.807          35.474           0.000         590.335         460.809           0.000  
G14  23801852.177    23801851.938           0.000   125079581.049    97464654.951           0.000          40.608          29.561           0.000        1862.091        1450.814           0.000  
G15  24847394.355    24847395.414           0.000   130573937.806   101745971.309           0.000          37.369          27.777           0.000       -2469.413       -1923.327           0.000  
G20  20129081.847    20129080.201           0.000   105779040.831    82425235.171           0.000          48.452          40.389           0.000       -1198.861        -933.366           0.000  
G21  23525639.010    23525640.288           0.000   123628052.756    96333605.737           0.000          43.353          30.475           0.000       -2680.549       -2088.578           0.000  
G24  22413531.632    22413533.706    22413589.925   117783902.820    91779678.780    87955742.662          43.496          34.196          52.331       -3032.916       -2362.604       -2264.676  
G25  22131534.927    22131537.040    22131593.676   116302000.157    90624961.887    86849132.131          44.147          34.008          50.920        2806.440        2186.860        2095.794  
G31  23430832.974    23430833.481           0.000   123129855.209    95945403.775           0.000          41.201          28.195           0.000        3209.169        2501.636           0.000  
G32  21971864.113    21971865.633    21971920.369   115462927.093    89971141.580    86222534.780          48.325          39.213          52.105        1518.909        1183.935        1134.378  
R01  23500174.968    23500197.903   125621903.640    97706028.014          45.706          36.657       -2671.183       -2077.694  
R02  19916172.324    19916190.183   106276514.247    82659580.263          53.609          46.601          61.682          47.935  
R03  21270035.464    21270054.165   113860154.529    88557979.468          50.693          49.041        2611.803        2031.107  
R10  22529749.900           0.000   120180794.358           0.000          44.630           0.000       -3859.015           0.000  
R12  20248807.408    20248826.028   108165485.661    84128787.819          53.385          48.752       -2325.972       -1809.281  
R13  19617824.181    19617842.819   104758075.506    81478586.472          46.087          39.846        2051.065        1595.364  
R14  23218366.443    23218388.599   123766972.231    96263301.384          49.485          43.524        4322.978        3362.010  
C06  36575606.273    36575618.407    36575606.077   190458780.421   147274857.053   154763358.466          48.702          48.950          47.023         152.232         117.876         123.683  
C07  38137421.276    38137433.931    38137420.146   198591561.912   153563644.444   161371910.264          43.763          46.763          44.700        1476.074        1141.568        1199.367  
C08  39805122.005    39805139.176    39805125.676   207275714.721   160278804.453   168428509.147          38.120          43.921          41.070       -1907.371       -1475.037       -1550.052  
C09  37114021.395    37114035.962    37114022.496   193262448.796   149442845.784   157041572.589          46.554          48.705          45.574         113.208          87.490          91.868  
C10  39625240.086    39625256.640    39625242.708   206339021.999   159554492.513   167667368.892          38.766          43.667          40.563        1434.805        1109.452        1166.062  
C13  38365614.386    38365634.734    38365620.660   199779821.050   154482513.682   162337496.998          43.578          42.293          41.487       -1908.134       -1475.148       -1550.518  
C16  36758234.786    36758252.095    36758237.993   191409775.322   148010254.220   155536136.284          49.058          48.762          44.727         123.952          95.864         100.827  
C25  23727330.493           0.000    23727334.584   123554437.297           0.000   100398118.949          47.331           0.000          48.067       -2401.402           0.000       -1951.286  
C32  22606435.041           0.000    22606442.604   117717638.446           0.000    95655256.006          52.120           0.000          51.506        1625.826           0.000        1321.145  
> 2019 10 28 08 35 35.0000000  0 26
G10  20385042.639    20385043.923    20385098.150   107124123.553    83473370.132    79995502.712          52.451          45.299          55.101        1127.742         878.672         842.238  
G12  22064209.714    22064208.406           0.000   115948205.394    90349263.479           0.000          49.165          36.581           0.000         588.463         458.508           0.000  
G14  23800069.619    23800069.886           0.000   125070213.335    97457355.425           0.000          41.744          30.880           0.000        1863.202        1451.394           0.000  
G15  24849733.148    24849733.961           0.000   130586228.218   101755548.262           0.000          37.905          26.766           0.000       -2468.331       -1923.421           0.000  
G20  20130212.999    20130211.578           0.000   105784985.170    82429867.128           0.000          48.716          40.899           0.000       -1200.547        -935.784           0.000  
G21  23528178.937    23528180.119           0.000   123641399.719    96344005.919           0.000          43.719          30.002           0.000       -2679.661       -2088.270           0.000  
G24  22416406.835    22416408.829    22416465.158   117799012.046    91791452.184    87967025.516          43.777          34.450          52.427       -3032.498       -2363.527       -2264.429  
G25  22128854.478    22128857.282    22128913.308   116287915.638    90613986.934    86838614.467          44.049          34.763          50.999        2805.927        2186.312        2095.386  
G31  23427769.376    23427770.334           0.000   123113755.445    95932858.569           0.000          40.255          27.487           0.000        3209.048        2500.704           0.000  
G32  21970408.088    21970409.598    21970464.552   115455276.351    89965179.976    86216821.570          48.263          39.973          52.696        1519.784        1184.359        1135.072  
R01  23502663.942    23502684.988   125635205.168    97716373.635          44.955          37.275       -2671.405       -2077.718  
R02  19916105.396    19916122.870   106276153.852    82659299.972          54.250          46.234          60.696          47.266  
R03  21267585.103    21267604.233   113847039.854    88547779.155          50.579          49.674        2612.451        2031.939  
R10  22533356.880           0.000   120200035.354           0.000          44.336           0.000       -3859.266           0.000  
R12  20250974.961    20250993.581   108177068.057    84137796.346          53.294          48.940       -2328.526       -1811.022  
R13  19615894.602    19615912.121   104747771.663    81470572.380          46.594          39.627        2048.497        1593.210  
R14  23214301.357    23214323.943   123745303.133    96246447.717          49.684          42.710        4323.074        3362.290  
C06  36575449.215    36575461.541    36575448.891   190457962.270   147274224.422   154762693.670          48.551          49.362          47.118         153.808         118.879         124.917  
C07  38135993.625    38136005.870    38135992.377   198584126.162   153557894.644   161365868.096          43.558          46.851          44.418        1477.058        1142.107        1200.276  
C08  39806942.523    39806960.094    39806946.255   207285195.413   160286135.505   168436212.966          38.222          44.289          41.088       -1906.345       -1473.979       -1548.887  
C09  37113901.801    37113916.598    37113902.851   193261826.316   149442364.443   157041066.766          46.340          49.121          45.826         114.706          88.770          93.294  
C10  39623850.477    39623868.797    39623854.348   206331791.907   159548901.778   167661493.901          39.029          44.084          40.540        1436.027        1110.569        1166.656  
C13  38367436.026    38367455.592    38367442.216   199789306.156   154489848.205   162345204.421          43.695          42.931          41.139       -1907.098       -1474.558       -1549.658  
C16  36758105.065    36758122.319    36758107.890   191409098.367   148009730.762   155535586.207          49.130          48.913          44.485         125.583          97.193         102.091  
C25  23729626.346           0.000    23729630.249   123566391.867           0.000   100407833.042          47.188           0.000          47.971       -2401.565           0.000       -1951.507  
C32  22604864.076           0.000    22604871.211   117709456.039           0.000    95648607.135          52.165           0.000          51.558        1626.005           0.000        1321.274  
> 2019 10 28 08 35 40.0000000  0 26
G10  20383961.308    20383962.728    20384016.999   107118441.740    83468942.750    79991259.810          51.891          45.025          54.944        1124.971         876.861         840.013  
G12  22063641.920    22063640.883           0.000   115945221.840    90346938.640           0.000          48.701          36.643           0.000         585.086         455.733           0.000  
G14  23798287.423    23798287.730           0.000   125060847.822    97450057.622           0.000          41.303          30.613           0.000        1862.994        1451.436           0.000  
G15  24852072.382    24852073.311           0.000   130598521.073   101765127.053           0.000          37.762          25.514           0.000       -2468.954       -1923.682           0.000  
G20  20131347.245    20131345.677           0.000   105790945.682    82434511.670           0.000          48.782          40.718           0.000       -1203.623        -937.717           0.000  
G21  23530719.506    23530720.693           0.000   123654749.763    96354408.532           0.000          43.889          30.743           0.000       -2680.102       -2087.820           0.000  
G24  22419283.219    22419285.112    22419341.409   117814126.845    91803229.953    87978312.532          44.226          33.920          52.330       -3033.480       -2363.635       -2265.201  
G25  22126176.456    22126178.995    22126235.076   116273841.237    90603019.880    86828104.359          43.825          34.157          50.788        2803.864        2184.703        2093.876  
G31  23424707.040    23424708.039           0.000   123097664.185    95920319.924           0.000          39.625          27.252           0.000        3207.681        2500.220           0.000  
G32  21968952.706    21968953.992    21969009.572   115447629.156    89959221.133    86211111.025          48.160          39.204          52.608        1519.219        1184.070        1134.441  
R01  23505153.233    23505174.951   125648515.171    97726725.883          44.828          36.977       -2672.799       -2078.950  
R02  19916040.280    19916056.931   106275805.053    82659028.689          54.045          46.401          58.090          45.550  
R03  21265135.641    21265155.380   113833928.497    88537581.426          50.520          49.713        2611.485        2031.561  
R10  22536966.003           0.000   120219285.944           0.000          43.615           0.000       -3860.865           0.000  
R12  20253146.286    20253165.371   108188669.336    84146819.576          53.160          48.974       -2332.577       -1813.908  
R13  19613968.894    19613987.344   104737488.895    81462574.677          46.380          39.355        2044.420        1590.189  
R14  23210237.339    23210259.630   123723639.891    96229598.592          49.758          42.250        4321.264        3361.542  
C06  36575292.099    36575304.206    36575291.980   190457143.905   147273591.614   154762028.674          48.676          49.355          46.985         153.724         118.791         124.891  
C07  38134566.472    38134577.961    38134564.459   198576693.456   153552147.222   161359828.440          43.618          47.054          44.605        1476.537        1141.652        1199.796  
C08  39808763.663    39808781.286    39808766.968   207294676.743   160293467.087   168443917.360          38.495          44.701          40.479       -1906.152       -1473.997       -1549.091  
C09  37113782.669    37113796.788    37113783.448   193261203.602   149441882.917   157040560.776          46.669          49.290          46.150         114.609          88.695          93.070  
C10  39622462.345    39622479.116    39622465.925   206324563.260   159543312.187   167655620.082          38.756          43.776          40.768        1435.889        1110.133        1166.389  
C13  38369257.569    38369278.009    38369263.872   199798793.949   154497184.791   162352914.050          43.220          43.005          41.196       -1907.507       -1475.387       -1550.305  
C16  36757975.085    36757992.042    36757977.704   191408421.230   148009207.163   155535035.969          49.093          48.975          44.791         125.577          96.995         102.199  
C25  23731923.594           0.000    23731927.673   123578354.980           0.000   100417554.062          46.771           0.000          48.277       -2403.238           0.000       -1952.899  
C32  22603293.778           0.000    22603300.748   117701280.565           0.000    95641963.890          52.171           0.000          51.575        1624.592           0.000        1320.056  
> 2019 10 28 08 35 45.0000000  0 26
G10  20382882.842    20382884.104    20382938.627   107112773.994    83464526.314    79987027.398          51.805          45.050          54.730        1123.301         875.157         838.875  
G12  22063077.540    22063076.376           0.000   115942255.421    90344627.148           0.000          47.975          35.833           0.000         582.719         454.040           0.000  
G14  23796505.675    23796505.087           0.000   125051484.164    97442761.286           0.000          40.859          30.165           0.000        1863.720        1453.611           0.000  
G15  24854411.845    24854413.139           0.000   130610815.938   101774707.464           0.000          37.398          26.454           0.000       -2468.091       -1924.204           0.000  
G20  20132484.491    20132483.273           0.000   105796921.959    82439168.512           0.000          48.642          40.736           0.000       -1205.783        -939.613           0.000  
G21  23533260.588    23533260.977           0.000   123668102.503    96364813.216           0.000          44.225          30.849           0.000       -2679.810       -2087.977           0.000  
G24  22422160.510    22422162.358    22422218.844   117829246.915    91815011.823    87989603.505          44.293          35.225          52.324       -3033.354       -2363.526       -2265.271  
G25  22123499.710    22123502.489    22123558.692   116259776.575    90592060.423    86817601.557          44.207          33.869          50.950        2803.061        2183.715        2093.269  
G31  23421646.408    23421647.877           0.000   123081581.112    95907787.745           0.000          38.724          26.111           0.000        3206.806        2497.676           0.000  
G32  21967498.058    21967499.393    21967554.936   115439985.158    89953264.768    86205402.842          48.169          39.147          52.216        1519.577        1183.928        1134.848  
R01  23507644.395    23507665.316   125661833.520    97737084.577          44.522          36.660       -2673.558       -2079.276  
R02  19915977.195    19915993.882   106275467.264    82658765.962          53.799          47.209          57.473          44.631  
R03  21262687.225    21262706.400   113820820.119    88527386.033          50.248          49.579        2612.289        2031.828  
R10  22540576.307           0.000   120238545.678           0.000          42.447           0.000       -3862.057           0.000  
R12  20255321.048    20255340.653   108200289.182    84155857.238          52.929          48.662       -2334.995       -1815.950  
R13  19612046.874    19612065.396   104727226.977    81454593.181          46.275          39.208        2041.244        1587.762  
R14  23206174.369    23206196.337   123701982.163    96212753.771          50.142          42.763        4321.734        3361.547  
C06  36575134.428    36575146.886    36575134.717   190456324.901   147272958.292   154761363.171          48.631          49.001          47.021         155.047         120.097         125.973  
C07  38133139.047    38133151.427    38133137.615   198569263.395   153546401.830   161353790.935          43.757          46.787          44.575        1477.128        1142.140        1200.016  
C08  39810585.020    39810601.590    39810587.706   207304158.331   160300798.832   168451621.893          38.001          44.672          40.936       -1905.110       -1472.887       -1547.804  
C09  37113662.691    37113677.524    37113663.794   193260580.264   149441400.921   157040054.258          46.620          49.240          46.231         116.030          89.748          94.332  
C10  39621074.213    39621091.630    39621077.971   206317335.744   159537723.452   167649747.156          38.450          43.604          40.602        1436.780        1110.717        1167.283  
C13  38371079.966    38371100.878    38371086.422   199808284.117   154504523.151   162360625.549          43.270          42.398          41.390       -1907.027       -1474.479       -1549.466  
C16  36757844.820    36757861.989    36757847.412   191407743.510   148008683.104   155534485.294          49.005          48.863          44.729         126.981          98.015         102.935  
C25  23734222.115           0.000    23734227.058   123590326.234           0.000   100427281.685          46.404           0.000          48.349       -2403.832           0.000       -1953.249  
C32  22601725.222           0.000    22601731.899   117693111.621           0.000    95635325.940          52.332           0.000          51.597        1624.325           0.000        1320.015  
> 2019 10 28 08 35 50.0000000  0 26
G10  20381806.846    20381808.149    20381862.402   107107119.943    83460120.565    79982805.219          51.874          45.037          55.048        1120.620         873.138         836.772  
G12  22062516.487    22062515.254           0.000   115939305.816    90342328.753           0.000          48.025          36.396           0.000         579.525         451.632           0.000  
G14  23794724.294    23794723.591           0.000   125042121.982    97435466.088           0.000          41.956          29.232           0.000        1863.430        1452.826           0.000  
G15  24856751.637    24856753.174           0.000   130623112.539   101784289.175           0.000          37.174          24.930           0.000       -2468.385       -1924.828           0.000  
G20  20133624.691    20133623.167           0.000   105802913.646    82443837.357           0.000          48.674          41.231           0.000       -1208.669        -941.897           0.000  
G21  23535801.856    23535803.182           0.000   123681457.534    96375219.700           0.000          43.998          30.523           0.000       -2679.950       -2087.489           0.000  
G24  22425038.919    22425040.739    22425096.896   117844371.980    91826797.587    88000898.173          44.013          34.567          52.911       -3034.400       -2364.753       -2265.714  
G25  22120825.102    22120827.773    22120884.076   116245721.365    90581108.309    86807105.781          43.768          34.095          51.222        2801.335        2183.135        2091.942  
G31  23418587.255    23418588.455           0.000   123065505.895    95895261.568           0.000          39.780          28.639           0.000        3205.649        2496.906           0.000  
G32  21966043.884    21966045.178    21966100.680   115432343.955    89947310.614    86199696.768          47.913          39.668          52.694        1519.189        1183.581        1134.364  
R01  23510137.472    23510158.411   125675159.803    97747449.455          44.984          35.624       -2675.011       -2080.743  
R02  19915915.964    19915932.525   106275140.289    82658511.636          53.504          47.488          55.826          43.150  
R03  21260239.463    21260258.477   113807714.330    88517192.647          51.289          49.756        2612.405        2031.607  
R10  22544188.519           0.000   120257814.220           0.000          42.838           0.000       -3863.457           0.000  
R12  20257499.543    20257519.381   108211927.203    84164909.028          53.288          48.269       -2337.801       -1818.671  
R13  19610128.999    19610147.664   104716985.480    81446627.595          46.652          39.380        2037.280        1584.585  
R14  23202111.953    23202134.924   123680329.426    96195912.842          50.207          43.230        4321.508        3360.903  
C06  36574976.934    36574989.475    36574976.946   190455504.923   147272324.243   154760696.874          48.608          48.429          47.007         155.370         120.240         126.290  
C07  38131712.673    38131724.972    38131710.857   198561835.632   153540658.205   161347755.240          44.232          46.023          44.562        1476.530        1141.804        1199.994  
C08  39812406.338    39812422.539    39812408.645   207313639.808   160308130.516   168459326.372          38.646          43.983          40.835       -1904.773       -1473.034       -1547.885  
C09  37113542.623    37113557.514    37113543.640   193259955.876   149440918.118   157039546.891          46.945          48.466          46.114         116.328          89.996          94.532  
C10  39619686.295    39619703.479    39619689.843   206310108.960   159532135.252   167643874.791          38.919          43.151          40.660        1436.564        1110.940        1167.301  
C13  38372903.068    38372922.942    38372908.925   199817776.187   154511863.041   162368338.651          43.141          41.963          41.046       -1907.142       -1474.703       -1549.875  
C16  36757714.548    36757731.985    36757717.374   191407064.868   148008158.346   155533933.809          49.204          48.229          44.948         127.120          98.148         103.461  
C25  23736522.306           0.000    23736527.669   123602305.265           0.000   100437015.616          45.923           0.000          48.237       -2405.150           0.000       -1954.370  
C32  22600157.352           0.000    22600164.578   117684948.859           0.000    95628693.043          52.111           0.000          51.657        1623.244           0.000        1318.940  
> 2019 10 28 08 35 55.0000000  0 26
G10  20380733.494    20380734.836    20380789.167   107101479.910    83455725.739    79978593.511          52.000          44.213          54.712        1118.730         871.746         835.423  
G12  22061958.575    22061957.252           0.000   115936373.302    90340043.687           0.000          47.895          36.626           0.000         576.939         449.322           0.000  
G14  23792943.234    23792942.471           0.000   125032761.551    97428172.241           0.000          42.058          29.801           0.000        1864.003        1452.290           0.000  
G15  24859092.024    24859094.044           0.000   130635411.130   101793872.568           0.000          36.725          26.833           0.000       -2467.949       -1923.346           0.000  
G20  20134767.816    20134766.447           0.000   105808921.029    82448518.433           0.000          48.595          41.035           0.000       -1210.922        -943.378           0.000  
G21  23538343.678    23538345.292           0.000   123694815.173    96385628.236           0.000          44.277          31.583           0.000       -2679.687       -2088.256           0.000  
G24  22427918.095    22427919.799    22427976.256   117859502.031    91838587.234    88012196.591          43.831          33.853          52.562       -3034.440       -2364.803       -2265.917  
G25  22118152.480    22118154.648    22118211.065   116231675.879    90570163.800    86796617.319          44.029          34.347          50.915        2800.428        2182.164        2091.086  
G31  23415530.050    23415531.356           0.000   123049438.852    95882741.802           0.000          41.532          28.573           0.000        3204.734        2496.777           0.000  
G32  21964590.472    21964591.825    21964647.342   115424705.874    89941358.858    86193993.005          47.792          39.464          52.670        1519.429        1184.199        1134.740  
R01  23512632.480    23512652.944   125688494.294    97757820.697          45.006          36.037       -2675.793       -2081.150  
R02  19915856.994    19915873.447   106274824.159    82658265.751          53.758          46.552          54.374          41.964  
R03  21257792.002    21257810.524   113794611.426    88507001.495          51.477          49.945        2612.685        2031.752  
R10  22547801.944           0.000   120277091.864           0.000          42.782           0.000       -3864.535           0.000  
R12  20259682.296    20259701.838   108223583.764    84173975.236          52.995          48.215       -2340.593       -1821.035  
R13  19608215.220    19608233.258   104706764.617    81438678.050          45.918          39.499        2034.052        1581.860  
R14  23198051.155    23198073.123   123658682.218    96179076.196          50.155          43.207        4321.308        3360.645  
C06  36574819.303    36574831.752    36574819.115   190454684.298   147271689.695   154760030.049          48.420          47.861          46.833         156.370         120.993         127.077  
C07  38130287.149    38130299.111    38130284.659   198554410.489   153534916.638   161341721.709          44.329          45.751          44.171        1476.907        1142.015        1200.383  
C08  39814227.387    39814243.094    39814229.562   207323121.516   160315462.356   168467031.015          38.046          43.150          40.595       -1904.117       -1472.215       -1547.060  
C09  37113422.444    37113437.561    37113423.604   193259330.843   149440434.807   157039039.015          47.028          47.907          45.982         117.289          90.818          95.192  
C10  39618298.283    39618316.089    39618301.961   206302883.269   159526547.918   167638003.345          38.290          42.447          40.559        1437.320        1111.299        1167.824  
C13  38374726.261    38374746.797    38374732.016   199827270.507   154519204.679   162376053.546          42.797          41.169          41.019       -1906.712       -1474.696       -1549.464  
C16  36757583.903    36757601.233    36757586.773   191406385.579   148007633.065   155533381.844          49.134          47.274          44.839         128.212          99.099         104.253  
C25  23738824.075           0.000    23738829.701   123614292.370           0.000   100446756.122          45.650           0.000          48.356       -2406.032           0.000       -1955.107  
C32  22598591.028           0.000    22598598.177   117676792.602           0.000    95622065.412          52.084           0.000          51.670        1622.836           0.000        1318.649  
> 2019 10 28 08 36  0.0000000  0 26
G10  20379662.729    20379664.037    20379718.438   107095853.129    83451341.238    79974391.687          52.126          44.704          55.024        1116.378         870.231         833.644  
G12  22061403.605    22061402.237           0.000   115933457.096    90337771.323           0.000          47.926          35.778           0.000         573.998         447.351           0.000  
G14  23791162.199    23791161.173           0.000   125023402.114    97420879.191           0.000          42.223          28.844           0.000        1864.233        1453.658           0.000  
G15  24861432.622    24861434.699           0.000   130647710.899   101803456.750           0.000          36.315          26.685           0.000       -2467.449       -1921.342           0.000  
G20  20135913.691    20135912.366           0.000   105814943.321    82453211.128           0.000          48.110          41.050           0.000       -1213.603        -945.431           0.000  
G21  23540886.110    23540887.068           0.000   123708174.662    96396038.199           0.000          44.584          31.674           0.000       -2679.701       -2087.935           0.000  
G24  22430798.488    22430799.752    22430856.220   117874636.436    91850380.262    88023498.245          43.939          34.920          53.077       -3035.023       -2364.608       -2266.394  
G25  22115481.438    22115484.026    22115539.831   116217639.393    90559226.291    86786135.522          44.766          33.533          51.095        2798.715        2181.097        2089.928  
G31  23412474.284    23412474.423           0.000   123033379.155    95870227.800           0.000          41.804          27.253           0.000        3203.421        2495.896           0.000  
G32  21963137.375    21963138.800    21963194.333   115417070.130    89935408.932    86188290.994          47.642          39.471          52.965        1519.294        1183.863        1134.470  
R01  23515128.489    23515148.443   125701836.019    97768197.583          45.330          34.924       -2676.732       -2081.862  
R02  19915799.679    19915815.739   106274518.433    82658027.973          53.876          46.187          52.167          40.782  
R03  21255344.442    21255363.420   113781510.659    88496812.006          51.296          49.731        2611.826        2031.689  
R10  22551417.221           0.000   120296377.796           0.000          42.241           0.000       -3865.642           0.000  
R12  20261867.743    20261887.348   108235257.894    84183055.117          52.664          48.822       -2344.539       -1823.377  
R13  19606304.824    19606323.498   104696563.767    81430744.040          45.980          39.620        2030.449        1579.303  
R14  23193990.874    23194013.657   123637039.660    96162243.169          49.370          43.545        4320.102        3360.238  
C06  36574661.540    36574673.886    36574661.557   190453862.194   147271053.992   154759362.036          48.225          48.035          46.931         157.047         121.292         127.536  
C07  38128861.473    38128873.217    38128859.174   198546987.164   153529176.453   161335689.660          44.297          46.078          44.503        1477.065        1142.010        1200.188  
C08  39816048.191    39816063.871    39816049.942   207332602.595   160322793.730   168474735.193          38.274          43.749          40.315       -1903.385       -1472.099       -1546.903  
C09  37113302.166    37113317.180    37113303.207   193258704.308   149439950.329   157038529.902          46.881          48.363          46.003         117.965          91.137          95.784  
C10  39616909.905    39616928.272    39616914.265   206295657.824   159520960.738   167632132.072          38.463          42.870          40.205        1437.280        1111.458        1168.114  
C13  38376549.818    38376570.197    38376555.740   199836766.325   154526547.430   162383769.697          42.615          41.331          40.914       -1906.853       -1474.592       -1549.585  
C16  36757453.180    36757470.883    36757456.132   191405704.885   148007106.725   155532828.732          49.040          47.954          44.920         128.659          99.419         104.546  
C25  23741127.407           0.000    23741132.986   123626286.723           0.000   100456502.516          45.207           0.000          48.477       -2407.095           0.000       -1955.947  
C32  22597025.542           0.000    22597033.090   117668642.068           0.000    95615442.435          51.826           0.000          51.603        1621.946           0.000        1317.969  
> 2019 10 28 08 36  5.0000000  0 26
G10  20378594.781    20378596.032    20378650.538   107090241.114    83446968.233    79970200.898          51.888          44.932          55.170        1114.515         868.287         832.229  
G12  22060851.808    22060850.638           0.000   115930558.728    90335512.852           0.000          47.880          35.802           0.000         571.346         445.300           0.000  
G14  23789381.683    23789381.014           0.000   125014045.167    97413588.056           0.000          41.676          30.389           0.000        1864.568        1452.228           0.000  
G15  24863773.758    24863775.947           0.000   130660013.422   101813043.221           0.000          37.609          23.390           0.000       -2467.359       -1922.457           0.000  
G20  20137062.958    20137061.639           0.000   105820982.033    82457916.616           0.000          48.068          41.244           0.000       -1215.894        -947.150           0.000  
G21  23543428.814    23543430.077           0.000   123721537.440    96406450.706           0.000          45.071          32.271           0.000       -2679.446       -2088.140           0.000  
G24  22433679.725    22433681.281    22433737.496   117889776.749    91862177.906    88034804.324          44.080          34.368          53.371       -3035.107       -2365.174       -2266.578  
G25  22112812.562    22112814.876    22112870.938   116203613.401    90548296.959    86775661.580          44.858          35.717          51.196        2797.649        2179.443        2089.235  
G31  23409419.940    23409419.636           0.000   123017328.360    95857720.669           0.000          41.387          28.145           0.000        3202.735        2495.677           0.000  
G32  21961685.018    21961686.316    21961742.116   115409438.241    89929462.002    86182591.846          47.837          39.090          52.805        1519.555        1184.365        1134.798  
R01  23517625.861    23517646.522   125715186.824    97778581.580          44.500          34.309       -2677.781       -2082.784  
R02  19915744.828    19915761.067   106274224.491    82657799.357          53.764          46.377          50.850          39.597  
R03  21252897.859    21252916.175   113768413.602    88486625.401          51.172          48.881        2612.337        2031.884  
R10  22555034.183           0.000   120315673.444           0.000          42.877           0.000       -3866.637           0.000  
R12  20264057.211    20264076.144   108246951.229    84192149.935          52.815          49.158       -2347.350       -1825.597  
R13  19604398.449    19604417.320   104686384.536    81422826.882          45.583          39.052        2027.002        1576.574  
R14  23189931.643    23189954.954   123615403.317    96145414.974          49.295          43.064        4319.725        3359.969  
C06  36574503.547    36574515.967    36574503.609   190453040.189   147270418.356   154758694.090          48.356          47.904          46.915         157.915         122.268         128.235  
C07  38127436.456    38127448.928    38127434.093   198539567.158   153523438.825   161329660.307          44.064          45.925          44.331        1477.068        1142.405        1200.211  
C08  39817868.768    39817884.320    39817871.145   207342084.631   160330125.817   168482440.105          38.614          43.344          41.038       -1903.037       -1471.585       -1546.204  
C09  37113181.900    37113196.748    37113182.707   193258077.847   149439465.895   157038020.847          46.743          47.948          45.690         118.748          91.998          96.529  
C10  39615522.794    39615541.021    39615527.193   206288434.071   159515374.916   167626262.246          38.259          42.318          40.523        1438.327        1112.120        1168.411  
C13  38378374.200    38378394.823    38378379.764   199846265.138   154533892.497   162391488.256          42.138          41.404          40.645       -1906.494       -1474.220       -1549.163  
C16  36757322.452    36757339.959    36757325.142   191405024.292   148006580.425   155532275.703          49.100          47.537          44.572         129.721         100.421         105.382  
C25  23743432.764           0.000    23743438.154   123638289.874           0.000   100466256.068          45.452           0.000          48.528       -2407.925           0.000       -1956.726  
C32  22595461.722           0.000    22595468.825   117660498.772           0.000    95608825.351          51.690           0.000          51.475        1621.601           0.000        1317.633  
> 2019 10 28 08 36 10.0000000  0 26
G10  20377529.620    20377530.674    20377585.184   107084642.995    83442606.061    79966020.485          52.086          45.366          55.140        1111.623         866.614         830.182  
G12  22060303.247    22060302.871           0.000   115927677.273    90333267.579           0.000          47.579          36.763           0.000         567.916         442.761           0.000  
G14  23787600.974    23787600.947           0.000   125004689.798    97406298.202           0.000          41.374          28.879           0.000        1864.377        1453.154           0.000  
G15  24866115.346    24866117.398           0.000   130672317.740   101822630.938           0.000          37.997          27.991           0.000       -2467.525       -1923.256           0.000  
G20  20138215.116    20138213.737           0.000   105827036.278    82462634.208           0.000          48.224          41.590           0.000       -1219.053        -949.466           0.000  
G21  23545972.203    23545973.114           0.000   123734902.624    96416865.099           0.000          45.280          32.853           0.000       -2679.913       -2088.327           0.000  
G24  22436561.751    22436562.800    22436619.316   117904921.898    91873979.325    88046114.008          44.187          35.329          53.341       -3036.103       -2364.594       -2267.077  
G25  22110145.491    22110147.677    22110203.617   116189597.066    90537375.149    86765194.843          45.508          35.330          51.214        2795.653        2179.515        2087.729  
G31  23406367.063    23406366.714           0.000   123001285.539    95845219.828           0.000          40.258          28.032           0.000        3201.121        2494.344           0.000  
G32  21960233.396    21960234.867    21960290.188   115401809.292    89923517.368    86176894.914          47.851          39.813          52.697        1518.792        1183.406        1134.255  
R01  23520123.967    23520145.657   125728545.580    97788971.741          43.915          35.595       -2679.266       -2084.188  
R02  19915691.463    19915708.292   106273941.438    82657579.187          53.461          47.131          49.286          37.912  
R03  21250451.670    21250470.237   113755319.277    88476440.929          50.936          49.263        2612.268        2031.373  
R10  22558653.813           0.000   120334978.014           0.000          43.386           0.000       -3868.652           0.000  
R12  20266250.000    20266268.342   108258662.792    84201258.935          53.086          49.041       -2350.402       -1828.540  
R13  19602496.336    19602514.616   104676225.751    81414925.596          45.450          39.849        2022.871        1573.316  
R14  23185873.674    23185896.905   123593772.278    96128590.918          49.790          43.033        4319.345        3359.051  
C06  36574345.703    36574357.636    36574345.506   190452217.342   147269782.094   154758025.453          48.570          48.332          46.731         158.199         122.291         128.532  
C07  38126011.831    38126023.978    38126009.610   198532149.599   153517703.126   161323632.937          44.433          46.249          44.346        1476.766        1142.068        1199.888  
C08  39819689.595    39819705.472    39819691.507   207351566.695   160337457.941   168490145.054          38.159          44.079          40.746       -1902.880       -1471.362       -1546.344  
C09  37113061.755    37113076.621    37113062.421   193257450.489   149438980.817   157037511.073          46.867          48.415          45.926         119.167          91.852          96.704  
C10  39614135.483    39614153.823    39614139.506   206281211.261   159509789.819   167620393.119          38.824          42.500          39.642        1437.840        1111.736        1168.395  
C13  38380199.020    38380219.482    38380204.184   199855765.989   154541239.147   162399208.462          42.643          41.612          40.306       -1906.822       -1474.489       -1549.429  
C16  36757191.499    36757209.459    36757194.027   191404342.897   148006053.543   155531722.007          49.191          47.914          44.659         129.943         100.300         105.575  
C25  23745739.565           0.000    23745744.433   123650300.893           0.000   100476016.001          45.907           0.000          48.609       -2409.461           0.000       -1957.961  
C32  22593898.998           0.000    22593906.127   117652361.842           0.000    95602213.421          51.850           0.000          51.242        1620.282           0.000        1316.618  
> 2019 10 28 08 36 15.0000000  0 26
G10  20376466.935    20376468.108    20376522.499   107079058.624    83438254.612    79961850.353          52.082          44.978          54.849        1109.599         864.096         828.371  
G12  22059758.124    22059757.194           0.000   115924812.645    90331035.411           0.000          47.969          36.758           0.000         565.459         439.834           0.000  
G14  23785820.790    23785820.581           0.000   124995335.935    97399009.504           0.000          40.766          28.061           0.000        1864.870        1453.740           0.000  
G15  24868457.243    24868459.324           0.000   130684623.817   101832220.073           0.000          36.899          27.877           0.000       -2466.997       -1923.680           0.000  
G20  20139370.206    20139368.683           0.000   105833105.912    82467363.792           0.000          48.081          41.193           0.000       -1221.297        -952.275           0.000  
G21  23548516.077    23548516.701           0.000   123748270.081    96427281.277           0.000          45.711          32.775           0.000       -2679.471       -2088.749           0.000  
G24  22439444.677    22439445.867    22439502.224   117920071.800    91885784.455    88057427.254          44.504          35.209          52.842       -3036.351       -2366.714       -2267.500  
G25  22107479.925    22107482.493    22107538.373   116175590.203    90526460.743    86754735.205          45.589          35.140          50.761        2794.642        2177.227        2086.556  
G31  23403315.268    23403314.903           0.000   122985250.665    95832725.140           0.000          41.123          27.441           0.000        3200.311        2493.512           0.000  
G32  21958782.310    21958783.474    21958839.059   115394183.161    89917574.942    86171200.092          48.791          38.802          52.209        1519.207        1183.530        1134.349  
R01  23522624.340    23522645.861   125741912.302    97799368.036          43.523          36.299       -2679.928       -2084.287  
R02  19915639.998    19915657.454   106273669.318    82657367.528          53.421          46.443          47.165          36.952  
R03  21248006.272    21248024.722   113742227.763    88466258.624          50.737          50.010        2611.868        2031.802  
R10  22562274.376           0.000   120354291.322           0.000          42.938           0.000       -3869.405           0.000  
R12  20268446.014    20268464.796   108270392.496    84210382.022          52.852          49.042       -2353.882       -1830.518  
R13  19600597.761    19600616.399   104666087.400    81407040.209          45.346          39.848        2019.816        1570.922  
R14  23181816.827    23181839.762   123572146.445    96111770.902          50.349          42.878        4318.554        3359.055  
C06  36574187.448    36574199.331    36574187.265   190451393.560   147269145.090   154757356.067          48.444          48.588          46.776         158.916         122.943         129.097  
C07  38124587.722    38124600.066    38124586.046   198524734.355   153511969.195   161317607.451          44.321          46.351          44.398        1476.893        1141.893        1199.996  
C08  39821509.543    39821526.137    39821512.332   207361048.620   160344789.980   168497849.890          38.568          44.632          40.576       -1902.361       -1471.119       -1545.747  
C09  37112940.752    37112955.831    37112941.845   193256822.199   149438494.959   157037000.537          46.825          49.050          46.073         119.677          92.717          97.319  
C10  39612749.181    39612768.112    39612752.451   206273989.170   159504205.261   167614524.608          39.084          43.211          39.806        1438.357        1112.324        1168.785  
C13  38382023.676    38382044.042    38382028.941   199865268.844   154548587.364   162406930.318          42.323          41.575          40.125       -1906.589       -1474.333       -1549.428  
C16  36757060.261    36757078.543    36757063.196   191403660.598   148005525.931   155531167.582          49.041          48.203          44.705         130.524         101.149         106.225  
C25  23748048.370           0.000    23748052.341   123662319.660           0.000   100485782.228          46.225           0.000          48.399       -2410.607           0.000       -1958.830  
C32  22592337.585           0.000    22592344.791   117644231.158           0.000    95595606.573          51.849           0.000          51.515        1619.523           0.000        1315.970  
> 2019 10 28 08 36 20.0000000  0 26
G10  20375407.164    20375408.144    20375462.570   107073489.629    83433915.137    79957691.678          52.142          44.517          55.062        1106.984         862.449         826.753  
G12  22059216.616    22059215.190           0.000   115921966.479    90328817.619           0.000          48.153          35.753           0.000         562.081         438.042           0.000  
G14  23784041.337    23784040.956           0.000   124985985.149    97391723.156           0.000          40.483          29.315           0.000        1864.333        1452.922           0.000  
G15  24870799.523    24870801.953           0.000   130696933.214   101841811.765           0.000          36.948          27.389           0.000       -2467.615       -1922.137           0.000  
G20  20140528.386    20140526.976           0.000   105839192.533    82472106.608           0.000          47.904          40.829           0.000       -1224.292        -953.680           0.000  
G21  23551060.553    23551061.216           0.000   123761641.420    96437700.473           0.000          45.988          31.856           0.000       -2679.931       -2087.920           0.000  
G24  22442328.747    22442329.824    22442386.500   117935228.190    91897594.624    88068745.324          44.297          34.837          53.248       -3037.284       -2366.734       -2267.920  
G25  22104816.607    22104819.051    22104875.388   116161594.500    90515555.005    86744283.850          45.382          35.097          51.189        2792.710        2175.924        2085.627  
G31  23400265.774    23400266.189           0.000   122969225.283    95820237.867           0.000          41.787          27.349           0.000        3198.768        2492.513           0.000  
G32  21957331.963    21957333.204    21957388.869   115386561.502    89911635.969    86165508.567          48.308          39.197          52.595        1518.502        1183.213        1134.094  
R01  23525127.166    23525147.934   125755288.460    97809771.726          43.878          35.260       -2681.656       -2085.938  
R02  19915591.039    19915608.898   106273409.444    82657165.412          53.361          46.524          45.397          35.242  
R03  21245561.329    21245580.137   113729140.463    88456079.620          50.726          49.527        2611.479        2031.197  
R10  22565897.508           0.000   120373614.971           0.000          43.307           0.000       -3871.324           0.000  
R12  20270645.591    20270663.835   108282141.873    84219520.442          52.434          48.372       -2357.136       -1833.511  
R13  19598703.035    19598721.262   104655971.119    81399171.993          45.507          39.530        2015.653        1567.644  
R14  23177761.107    23177783.944   123550527.534    96094956.300          50.712          42.637        4317.738        3358.068  
C06  36574029.578    36574041.099    36574029.078   190450570.421   147268508.586   154756687.187          48.343          48.199          46.678         159.292         123.312         129.683  
C07  38123164.305    38123176.841    38123162.770   198517323.031   153506238.286   161311585.140          44.321          45.956          44.427        1476.706        1142.013        1199.969  
C08  39823331.522    39823347.506    39823333.225   207370532.006   160352123.140   168505555.928          38.404          44.313          40.598       -1901.749       -1470.580       -1545.510  
C09  37112820.143    37112835.111    37112821.031   193256194.472   149438009.564   157036490.455          47.114          48.377          45.938         120.307          93.120          97.721  
C10  39611363.290    39611381.049    39611365.911   206266769.435   159498622.543   167608658.022          39.178          42.958          39.605        1438.459        1112.436        1168.754  
C13  38383848.976    38383870.183    38383854.328   199874775.238   154555938.283   162414655.036          42.193          41.384          40.242       -1906.909       -1474.225       -1549.317  
C16  36756929.579    36756947.539    36756932.237   191402978.943   148004998.851   155530613.694          49.044          47.710          44.609         131.162         101.429         106.540  
C25  23750358.125           0.000    23750361.967   123674347.727           0.000   100495556.020          46.644           0.000          48.195       -2411.761           0.000       -1959.654  
C32  22590777.638           0.000    22590784.795   117636108.290           0.000    95589006.085          51.818           0.000          51.439        1618.651           0.000        1315.292  
> 2019 10 28 08 36 25.0000000  0 26
G10  20374349.912    20374350.827    20374405.320   107067933.838    83429585.950    79953542.868          52.167          44.376          54.814        1104.634         861.027         824.918  
G12  22058678.015    22058677.070           0.000   115919136.548    90326612.480           0.000          48.663          36.049           0.000         559.340         436.001           0.000  
G14  23782262.186    23782261.823           0.000   124976635.195    97384437.499           0.000          41.807          29.599           0.000        1864.744        1453.577           0.000  
G15  24873142.254           0.000           0.000   130709243.668           0.000           0.000          36.261           0.000           0.000       -2467.035           0.000           0.000  
G20  20141689.302    20141688.026           0.000   105845293.941    82476860.961           0.000          47.919          41.108           0.000       -1226.902        -955.845           0.000  
G21  23553605.646    23553606.222           0.000   123775014.410    96448120.968           0.000          46.074          33.675           0.000       -2679.913       -2087.973           0.000  
G24  22445213.883    22445214.900    22445271.566   117950388.759    91909408.049    88080066.524          44.629          35.121          52.818       -3037.923       -2367.965       -2268.398  
G25  22102154.701    22102157.657    22102213.685   116147607.724    90504656.231    86733839.221          45.017          34.838          50.998        2791.419        2175.257        2084.313  
G31  23397217.545    23397217.838           0.000   122953207.124    95807756.210           0.000          42.186          27.469           0.000        3197.689        2491.618           0.000  
G32  21955882.323    21955883.180    21955938.653   115378942.021    89905698.737    86159818.727          48.869          40.087          52.333        1518.413        1183.186        1133.912  
R01  23527630.907    23527652.732   125768671.985    97820181.103          44.471          36.167       -2682.630       -2086.323  
R02  19915543.739    19915562.019   106273159.937    82656971.351          53.433          46.401          43.711          33.941  
R03  21243116.846    21243135.708   113716055.247    88445902.237          50.606          49.358        2611.427        2031.237  
R10  22569522.013           0.000   120392946.696           0.000          43.826           0.000       -3872.329           0.000  
R12  20272848.456    20272866.843   108293908.713    84228672.418          53.019          48.168       -2360.348       -1835.852  
R13  19596812.107    19596831.122   104645874.682    81391319.228          45.995          39.815        2012.127        1564.784  
R14  23173706.419    23173728.808   123528913.263    96078145.271          50.675          42.526        4317.226        3357.833  
C06  36573871.305    36573882.909    36573870.804   190449745.724   147267870.878   154756017.069          48.385          48.218          46.852         160.009         123.867         130.161  
C07  38121741.748    38121753.707    38121740.053   198509913.444   153500508.744   161305564.263          44.289          46.195          44.416        1476.791        1141.866        1199.968  
C08  39825151.983    39825168.516    39825154.746   207380014.708   160359455.721   168513261.376          38.491          44.583          40.729       -1901.546       -1470.376       -1545.016  
C09  37112699.413    37112714.418    37112700.153   193255565.208   149437522.971   157035979.128          46.713          48.476          45.678         120.795          93.633          98.210  
C10  39609976.836    39609994.571    39609979.443   206259549.873   159493039.960   167602791.541          38.940          42.384          39.669        1438.824        1112.627        1169.362  
C13  38385674.753    38385695.410    38385680.536   199884282.961   154563290.295   162422380.858          42.467          41.503          40.341       -1906.491       -1474.304       -1549.168  
C16  36756798.097    36756816.348    36756801.178   191402295.805   148004470.594   155530058.584          48.968          47.789          44.639         131.652         101.887         107.048  
C25  23752669.784           0.000    23752672.993   123686382.937           0.000   100505335.617          46.926           0.000          48.275       -2412.864           0.000       -1960.612  
C32  22589219.112           0.000    22589225.911   117627991.111           0.000    95582410.214          51.806           0.000          51.455        1617.782           0.000        1314.695  
> 2019 10 28 08 36 30.0000000  0 26
G10  20373295.339    20373296.235    20373350.558   107062391.344    83425267.121    79949404.003          52.483          44.958          54.799        1102.236         858.866         823.158  
G12  22058142.445    22058141.254           0.000   115916322.956    90324420.078           0.000          47.635          36.696           0.000         556.147         433.447           0.000  
G14  23780482.915    23780482.866           0.000   124967286.247    97377152.609           0.000          40.233          30.105           0.000        1864.751        1452.512           0.000  
G15  24875484.654           0.000           0.000   130721555.324           0.000           0.000          36.121           0.000           0.000       -2467.348           0.000           0.000  
G20  20142853.116    20142851.725           0.000   105851410.292    82481626.948           0.000          47.865          40.988           0.000       -1229.716        -958.166           0.000  
G21  23556150.745    23556150.723           0.000   123788389.174    96458542.853           0.000          45.719          32.532           0.000       -2680.010       -2087.894           0.000  
G24  22448099.475    22448100.768    22448157.020   117965553.574    91921224.795    88091390.903          44.155          34.511          52.685       -3038.285       -2367.640       -2268.820  
G25  22099494.621    22099497.419    22099554.178   116133630.065    90493764.554    86723401.353          44.564          34.505          51.559        2789.656        2173.830        2083.237  
G31  23394170.915    23394171.153           0.000   122937196.345    95795280.299           0.000          42.993          28.960           0.000        3196.484        2490.604           0.000  
G32  21954432.759    21954433.870    21954489.246   115371324.904    89899763.322    86154130.607          48.804          39.781          52.246        1518.207        1183.187        1133.891  
R01  23530136.145    23530156.994   125782062.933    97830596.278          44.499          36.646       -2683.870       -2087.499  
R02  19915498.571    19915516.654   106272920.677    82656785.277          53.507          47.020          42.060          32.388  
R03  21240673.009    21240691.665   113702972.330    88435726.636          50.719          49.582        2611.411        2031.094  
R10  22573147.056           0.000   120412286.498           0.000          43.387           0.000       -3873.878           0.000  
R12  20275054.258    20275072.771   108305693.116    84237838.055          53.323          48.303       -2363.645       -1838.418  
R13  19594925.532    19594943.964   104635798.258    81383481.992          46.588          40.022        2008.195        1561.852  
R14  23169652.610    23169674.847   123507303.643    96061337.859          50.178          43.153        4316.419        3357.081  
C06  36573712.656    36573723.781    36573712.021   190448919.621   147267232.096   154755345.793          48.200          48.100          46.666         160.499         124.175         130.460  
C07  38120319.293    38120330.961    38120317.389   198502505.691   153494780.612   161299544.862          44.395          45.842          44.436        1476.753        1141.755        1199.828  
C08  39826972.724    39826989.609    39826975.471   207389496.822   160366787.905   168520966.379          38.140          44.439          40.941       -1900.844       -1470.201       -1545.009  
C09  37112578.261    37112593.426    37112579.041   193254934.434   149437035.227   157035466.566          46.820          48.631          45.478         121.507          94.054          98.858  
C10  39608590.443    39608608.537    39608593.262   206252330.652   159487457.597   167596925.353          39.270          42.674          39.443        1438.694        1112.743        1169.295  
C13  38387500.721    38387522.047    38387506.522   199893792.171   154570643.392   162430107.882          41.979          41.640          39.959       -1906.701       -1474.459       -1549.714  
C16  36756667.027    36756684.667    36756669.838   191401611.272   148003941.282   155529502.339          48.821          47.538          44.611         132.210         102.177         107.537  
C25  23754982.359           0.000    23754986.223   123698425.385           0.000   100515121.091          46.901           0.000          48.691       -2414.026           0.000       -1961.583  
C32  22587661.303           0.000    22587668.406   117619879.710           0.000    95575819.041          51.957           0.000          51.592        1616.909           0.000        1313.923  
> 2019 10 28 08 36 35.0000000  0 26
G10  20372243.440    20372244.315    20372298.610   107056863.431    83420959.653    79945276.006          52.823          45.113          55.090        1100.632         857.228         821.840  
G12  22057610.140    22057609.270           0.000   115913526.974    90322241.406           0.000          47.806          36.636           0.000         553.939         431.613           0.000  
G14  23778704.440    23778704.686           0.000   124957939.538    97369869.466           0.000          40.504          29.035           0.000        1865.443        1453.135           0.000  
G15  24877827.594           0.000           0.000   130733869.440           0.000           0.000          34.690           0.000           0.000       -2466.607           0.000           0.000  
G20  20144020.212    20144018.927           0.000   105857542.818    82486405.538           0.000          48.176          41.350           0.000       -1231.630        -959.988           0.000  
G21  23558696.134    23558697.170           0.000   123801766.919    96468967.036           0.000          45.670          31.171           0.000       -2679.353       -2088.488           0.000  
G24  22450986.352    22450987.825    22451043.686   117980723.844    91933045.783    88102719.352          44.153          34.236          52.755       -3038.085       -2367.467       -2268.694  
G25  22096836.767    22096839.545    22096896.455   116119662.725    90482880.915    86712971.203          44.527          33.715          51.802        2788.994        2173.007        2082.623  
G31  23391125.753    23391125.845           0.000   122921194.250    95782811.173           0.000          42.321          28.416           0.000        3195.999        2490.021           0.000  
G32  21952983.982    21952985.490    21953040.260   115363711.395    89893830.699    86148445.196          48.298          39.633          52.371        1518.864        1183.433        1134.149  
R01  23532642.835    23532664.571   125795462.506    97841018.181          44.724          36.715       -2684.170       -2087.852  
R02  19915455.590    19915474.372   106272693.050    82656608.235          53.490          47.336          41.094          31.716  
R03  21238229.639    21238248.403   113689892.811    88425553.683          51.210          49.931        2612.089        2031.598  
R10  22576774.849           0.000   120431635.724           0.000          44.306           0.000       -3874.574           0.000  
R12  20277263.044    20277282.264   108317496.316    84247018.337          53.870          48.860       -2365.957       -1840.241  
R13  19593042.379    19593060.784   104625743.154    81375661.365          46.711          39.884        2005.291        1559.643  
R14  23165600.129    23165621.461   123485700.219    96044535.272          50.738          43.362        4316.634        3357.275  
C06  36573553.670    36573565.428    36573553.348   190448093.316   147266593.147   154754674.358          48.412          48.791          46.860         161.837         125.103         131.472  
C07  38118896.944    38118908.897    38118895.604   198495101.045   153489054.874   161293527.980          44.311          46.714          44.669        1476.941        1142.201        1200.239  
C08  39828793.576    39828810.827    39828796.726   207398979.604   160374120.584   168528671.885          37.471          45.027          40.604       -1900.300       -1469.509       -1544.000  
C09  37112457.170    37112472.224    37112457.942   193254303.463   149436547.323   157034953.854          46.892          49.219          45.662         122.785          94.857          99.706  
C10  39607204.647    39607222.447    39607207.460   206245112.876   159481876.392   167591060.329          40.081          43.115          39.313        1439.885        1113.454        1170.143  
C13  38389328.042    38389348.524    38389333.126   199903304.066   154577998.610   162437837.050          42.363          42.089          39.881       -1906.092       -1473.923       -1549.055  
C16  36756535.698    36756553.173    36756538.277   191400926.572   148003411.832   155528945.980          48.925          48.318          44.488         133.519         103.143         108.354  
C25  23757296.646           0.000    23757300.331   123710476.264           0.000   100524913.431          47.016           0.000          48.711       -2414.585           0.000       -1962.078  
C32  22586105.101           0.000    22586112.023   117611775.347           0.000    95569233.587          52.234           0.000          51.652        1616.723           0.000        1313.622  
> 2019 10 28 08 36 40.0000000  0 26
G10  20371194.114    20371194.979    20371249.291   107051348.530    83416662.330    79941157.748          52.403          44.704          55.090        1098.213         855.238         819.863  
G12  22057081.314    22057080.580           0.000   115910747.022    90320075.202           0.000          48.344          36.306           0.000         550.897         429.362           0.000  
G14  23776925.899    23776926.060           0.000   124948593.466    97362586.824           0.000          40.797          29.299           0.000        1865.550        1452.986           0.000  
G15  24880171.169           0.000           0.000   130746184.531           0.000           0.000          35.738           0.000           0.000       -2466.563           0.000           0.000  
G20  20145190.037    20145188.351           0.000   105863689.932    82491195.493           0.000          48.028          41.112           0.000       -1234.396        -962.075           0.000  
G21  23561242.016    23561242.639           0.000   123815146.090    96479392.352           0.000          45.663          31.775           0.000       -2679.496       -2088.096           0.000  
G24  22453873.727    22453874.938    22453931.200   117995898.017    91944869.826    88114050.729          44.215          34.252          52.710       -3038.768       -2368.684       -2269.405  
G25  22094180.509    22094183.256    22094240.228   116105704.177    90472004.142    86702547.640          44.709          34.426          52.141        2787.248        2171.489        2081.209  
G31  23388081.782    23388081.964           0.000   122905199.251    95770347.531           0.000          42.274          29.363           0.000        3194.705        2488.882           0.000  
G32  21951535.338    21951536.850    21951591.926   115356099.901    89887899.679    86142761.297          47.884          39.785          52.975        1518.621        1182.487        1133.927  
R01  23535150.709    23535172.847   125808869.109    97851445.550          44.578          37.346       -2685.533       -2088.931  
R02  19915414.562    19915433.558   106272475.368    82656438.902          53.116          47.388          38.318          30.350  
R03  21235786.281    21235806.181   113676815.152    88415382.158          51.013          50.231        2611.115        2031.378  
R10  22580403.442           0.000   120450992.758           0.000          45.333           0.000       -3875.655           0.000  
R12  20279475.323    20279495.071   108329316.751    84256212.008          53.742          49.354       -2369.859       -1842.833  
R13  19591163.193    19591181.455   104615707.801    81367856.100          46.293          40.465        2001.603        1556.730  
R14  23161547.828    23161569.483   123464101.224    96027736.093          50.776          43.618        4315.112        3356.714  
C06  36573394.791    36573406.339    36573394.331   190447265.306   147265952.877   154754001.530          48.620          48.013          46.663         162.138         125.320         131.779  
C07  38117475.334    38117487.636    38117474.565   198487697.922   153483330.298   161287512.356          44.343          46.301          44.406        1476.824        1142.079        1199.853  
C08  39830614.995    39830631.925    39830617.127   207408461.439   160381452.528   168536376.650          38.802          44.695          40.622       -1899.754       -1469.224       -1543.934  
C09  37112335.951    37112350.571    37112336.560   193253670.730   149436058.039   157034439.710          47.178          49.139          45.823         123.082          95.108          99.888  
C10  39605818.795    39605835.754    39605821.493   206237895.188   159476295.250   167585195.389          39.860          42.513          39.531        1439.829        1113.079        1170.044  
C13  38391154.713    38391175.372    38391160.300   199912817.108   154585354.716   162445567.185          42.343          41.540          39.799       -1906.350       -1474.297       -1549.298  
C16  36756403.942    36756421.421    36756406.303   191400240.188   148002881.065   155528388.232          49.037          47.884          44.881         133.777         103.430         108.831  
C25  23759612.121           0.000    23759616.076   123722534.062           0.000   100534711.386          47.122           0.000          48.811       -2415.878           0.000       -1963.167  
C32  22584549.654           0.000    22584557.089   117603676.486           0.000    95562652.596          52.158           0.000          51.791        1615.569           0.000        1312.727  
> 2019 10 28 08 36 45.0000000  0 26
G10  20370147.313    20370148.057    20370202.612   107045847.621    83412375.903    79937049.918          52.027          44.712          54.916        1095.829         853.723         818.057  
G12  22056555.759    22056554.712           0.000   115907984.093    90317922.277           0.000          47.911          36.627           0.000         548.016         426.711           0.000  
G14  23775148.071    23775148.242           0.000   124939249.010    97355305.443           0.000          40.136          29.477           0.000        1865.626        1453.116           0.000  
G15  24882514.938           0.000           0.000   130758501.440           0.000           0.000          36.522           0.000           0.000       -2466.434           0.000           0.000  
G20  20146362.625    20146361.067           0.000   105869852.607    82495997.576           0.000          48.253          41.137           0.000       -1237.065        -964.097           0.000  
G21  23563788.639    23563789.573           0.000   123828527.656    96489819.499           0.000          45.766          32.260           0.000       -2679.531       -2088.199           0.000  
G24  22456761.974    22456763.803    22456820.071   118011077.248    91956697.786    88125385.853          43.924          34.199          52.792       -3039.292       -2367.700       -2269.888  
G25  22091526.300    22091528.418    22091585.858   116091755.400    90461134.987    86692131.368          45.052          34.856          52.084        2785.915        2170.627        2080.139  
G31  23385039.522    23385039.909           0.000   122889212.329    95757890.219           0.000          41.649          28.996           0.000        3193.651        2489.029           0.000  
G32  21950087.500    21950088.912    21950143.934   115348491.408    89881970.988    86137079.649          48.453          39.699          52.470        1518.412        1183.128        1133.611  
R01  23537659.798    23537680.791   125822283.799    97861879.176          44.798          36.856       -2686.698       -2089.553  
R02  19915375.967    19915395.124   106272268.916    82656278.317          52.911          46.459          36.807          29.093  
R03  21233343.340    21233363.411   113663740.365    88405212.900          51.179          49.972        2611.301        2031.407  
R10  22584034.332           0.000   120470358.589           0.000          46.570           0.000       -3876.902           0.000  
R12  20281691.154    20281711.197   108341155.356    84265419.806          53.624          48.762       -2372.788       -1845.254  
R13  19589287.308    19589306.590   104605693.189    81360066.940          46.818          41.011        1997.940        1553.966  
R14  23157497.109    23157519.051   123442507.693    96010941.204          51.133          43.851        4314.756        3356.288  
C06  36573235.798    36573247.491    36573235.003   190446436.486   147265311.986   154753328.050          48.641          48.392          46.602         162.656         125.688         132.096  
C07  38116053.821    38116065.855    38116053.098   198480297.302   153477607.697   161281498.742          44.235          46.273          44.556        1476.770        1141.846        1199.968  
C08  39832436.110    39832453.015    39832438.174   207417943.349   160388784.518   168544081.460          39.157          44.138          40.573       -1899.586       -1468.992       -1543.353  
C09  37112213.891    37112228.757    37112214.533   193253037.154   149435568.130   157033924.878          46.821          49.070          45.554         123.575          95.548         100.382  
C10  39604432.843    39604449.661    39604435.552   206230678.337   159470714.766   167579331.155          40.154          42.470          39.659        1440.725        1113.368        1170.310  
C13  38392982.013    38393002.370    38392987.512   199922332.288   154592712.400   162453299.019          42.169          41.028          39.873       -1906.698       -1473.874       -1549.411  
C16  36756271.636    36756289.298    36756274.321   191399553.034   148002349.717   155527829.859          49.089          48.009          44.628         134.273         103.774         109.152  
C25  23761929.330           0.000    23761933.137   123734599.708           0.000   100544515.704          47.222           0.000          48.703       -2417.169           0.000       -1964.009  
C32  22582995.629           0.000    22583003.375   117595584.057           0.000    95556076.840          51.919           0.000          51.837        1614.609           0.000        1312.044  
> 2019 10 28 08 36 50.0000000  0 26
G10  20369103.346    20369104.150    20369158.461   107040361.432    83408100.957    79932953.086          52.369          44.830          54.872        1092.821         851.534         816.107  
G12  22056033.452    22056032.545           0.000   115905238.954    90315783.226           0.000          48.199          36.330           0.000         544.324         424.351           0.000  
G14  23773370.352    23773370.273           0.000   124929906.912    97348025.895           0.000          40.769          28.970           0.000        1865.165        1453.487           0.000  
G15  24884859.445           0.000           0.000   130770821.012           0.000           0.000          36.466           0.000           0.000       -2467.140           0.000           0.000  
G20  20147538.420    20147536.846           0.000   105876031.552    82500812.344           0.000          48.564          40.506           0.000       -1240.439        -966.438           0.000  
G21  23566335.750    23566336.834           0.000   123841912.251    96500249.030           0.000          45.849          31.865           0.000       -2680.183       -2088.792           0.000  
G24  22459651.289    22459653.703    22459709.445   118026261.982    91968530.045    88136725.083          43.540          33.907          52.649       -3040.531       -2368.437       -2270.516  
G25  22088874.015    22088876.227    22088933.560   116077817.141    90450274.019    86681722.952          45.128          34.304          51.993        2783.695        2169.453        2078.715  
G31  23381999.234    23381999.565           0.000   122873234.263    95745439.793           0.000          41.202          28.436           0.000        3191.741        2486.909           0.000  
G32  21948640.440    21948641.807    21948696.974   115340886.649    89876045.200    86131400.758          48.285          39.014          52.513        1517.665        1182.646        1133.240  
R01  23540171.194    23540193.333   125835707.311    97872319.668          44.530          37.663       -2688.495       -2091.265  
R02  19915339.616    19915358.281   106272073.937    82656126.686          53.563          45.692          34.828          27.057  
R03  21230901.606    21230921.533   113650669.294    88395046.526          50.749          49.816        2610.964        2030.664  
R10  22587666.339           0.000   120489733.898           0.000          46.104           0.000       -3878.956           0.000  
R12  20283910.858    20283931.224   108353012.868    84274642.322          53.618          48.703       -2376.488       -1848.280  
R13  19587416.048    19587435.223   104595699.963    81352294.432          46.401          40.920        1993.511        1550.576  
R14  23153447.149    23153469.430   123420920.326    95994151.101          51.116          43.256        4313.846        3355.247  
C06  36573076.345    36573088.353    36573075.701   190445607.615   147264671.048   154752654.519          48.619          48.233          46.787         162.826         125.948         132.277  
C07  38114633.834    38114645.518    38114632.833   198472899.900   153471887.546   161275487.736          44.290          46.360          44.608        1476.055        1141.515        1199.511  
C08  39834256.842    39834273.416    39834259.742   207427425.980   160396117.051   168551786.863          39.169          44.327          41.103       -1899.817       -1468.607       -1543.526  
C09  37112092.018    37112107.619    37112092.843   193252403.474   149435078.122   157033409.959          46.652          48.940          45.686         123.814          95.806         100.598  
C10  39603046.783    39603064.516    39603049.783   206223463.238   159465135.571   167573468.279          39.644          42.303          39.794        1439.921        1113.760        1170.219  
C13  38394809.871    38394830.593    38394815.846   199931850.242   154600072.315   162461033.146          42.024          41.293          39.673       -1906.760       -1474.117       -1549.562  
C16  36756139.976    36756156.932    36756142.282   191398865.851   148001818.333   155527271.472          49.293          47.675          44.539         134.493         104.273         109.257  
C25  23764248.081           0.000    23764251.918   123746673.908           0.000   100554326.983          46.720           0.000          48.495       -2418.697           0.000       -1965.262  
C32  22581442.653           0.000    22581450.783   117587498.813           0.000    95549506.919          51.942           0.000          51.769        1613.375           0.000        1310.976  
> 2019 10 28 08 36 55.0000000  0 26
G10  20368062.339    20368063.128    20368117.562   107034890.653    83403838.006    79928867.763          52.783          45.027          55.218        1090.030         849.630         813.943  
G12  22055514.618    22055513.354           0.000   115902512.241    90313658.508           0.000          47.824          35.792           0.000         540.866         421.528           0.000  
G14  23771593.200    23771593.007           0.000   124920567.849    97340748.701           0.000          40.290          29.026           0.000        1864.953        1453.137           0.000  
G15  24887204.732           0.000           0.000   130783143.863           0.000           0.000          37.012           0.000           0.000       -2467.469           0.000           0.000  
G20  20148717.558    20148715.920           0.000   105882227.440    82505640.301           0.000          48.476          40.584           0.000       -1243.414        -968.853           0.000  
G21  23568883.670    23568884.307           0.000   123855300.623    96510681.491           0.000          45.269          31.555           0.000       -2680.602       -2088.673           0.000  
G24  22462541.969    22462544.280    22462600.102   118041452.972    91980367.169    88148069.006          42.941          33.462          53.045       -3041.389       -2369.866       -2271.175  
G25  22086223.789    22086226.338    22086283.105   116063890.095    90439421.778    86671322.905          45.016          34.760          52.151        2781.756        2167.672        2077.109  
G31  23378960.390    23378960.592           0.000   122857265.687    95732996.769           0.000          41.667          28.297           0.000        3190.217        2485.226           0.000  
G32  21947194.327    21947195.701    21947250.721   115333286.294    89870122.837    86125725.161          48.654          39.590          52.833        1517.051        1182.708        1132.799  
R01  23542684.251    23542706.202   125849140.314    97882767.530          44.111          37.548       -2690.258       -2092.278  
R02  19915305.293    19915323.815   106271891.706    82655984.964          54.152          46.409          32.772          25.259  
R03  21228460.683    21228480.574   113637602.507    88384883.462          50.638          49.557        2610.644        2030.307  
R10  22591300.392           0.000   120509119.263           0.000          45.795           0.000       -3880.808           0.000  
R12  20286134.739    20286155.051   108364889.955    84283880.041          53.658          48.182       -2380.083       -1851.190  
R13  19585548.983    19585568.168   104585728.712    81344539.022          46.148          41.061        1989.445        1547.362  
R14  23149398.697    23149421.346   123399339.949    95977366.447          50.322          42.425        4312.774        3354.255  
C06  36572917.271    36572929.266    36572916.890   190444779.332   147264030.567   154751981.459          48.630          47.586          46.682         162.945         125.953         132.529  
C07  38113213.706    38113225.766    38113212.677   198465506.384   153466170.409   161269479.914          44.265          45.503          44.625        1475.534        1141.208        1199.025  
C08  39836078.399    39836094.615    39836080.923   207436910.051   160403450.755   168559493.441          38.672          43.751          41.440       -1899.846       -1469.087       -1543.449  
C09  37111970.530    37111985.769    37111970.893   193251770.360   149434588.567   157032895.509          46.487          48.313          45.491         123.931          95.838         100.577  
C10  39601661.854    39601678.330    39601664.597   206216250.386   159459558.199   167567607.291          40.399          41.543          39.145        1439.891        1113.162        1169.763  
C13  38396638.615    38396659.010    38396644.435   199941371.688   154607434.911   162468770.114          41.828          40.576          39.497       -1907.257       -1474.960       -1550.033  
C16  36756008.129    36756025.048    36756010.501   191398179.309   148001287.474   155526713.610          49.228          47.001          44.547         134.411         103.987         109.198  
C25  23766568.376           0.000    23766572.447   123758757.327           0.000   100564145.740          46.508           0.000          48.554       -2420.342           0.000       -1966.666  
C32  22579891.558           0.000    22579899.742   117579421.440           0.000    95542943.388          51.807           0.000          51.708        1611.990           0.000        1309.848  
> 2019 10 28 08 37  0.0000000  0 26
G10  20367023.967    20367024.816    20367079.145   107029434.369    83399586.361    79924793.255          52.747          44.955          54.939        1087.254         847.610         812.073  
G12  22054999.090    22054998.166           0.000   115899803.027    90311547.453           0.000          48.407          36.648           0.000         537.519         419.556           0.000  
G14  23769816.631    23769815.921           0.000   124911230.940    97333473.195           0.000          41.530          28.621           0.000        1864.656        1453.577           0.000  
G15  24889550.288           0.000           0.000   130795469.038           0.000           0.000          37.393           0.000           0.000       -2467.607           0.000           0.000  
G20  20149899.704    20149897.987           0.000   105888439.405    82510480.792           0.000          48.389          40.922           0.000       -1246.553        -971.013           0.000  
G21  23571431.783    23571432.105           0.000   123868691.854    96521116.181           0.000          45.500          32.098           0.000       -2681.159       -2088.932           0.000  
G24  22465433.672    22465435.834    22465491.885   118056649.378    91992208.521    88159416.954          42.982          34.162          52.814       -3042.467       -2370.318       -2271.767  
G25  22083575.383    22083578.096    22083634.923   116049973.369    90428577.595    86660930.546          44.415          35.050          51.848        2779.734        2165.953        2075.909  
G31  23375923.368    23375923.944           0.000   122841305.736    95720560.463           0.000          41.827          28.971           0.000        3188.578        2484.967           0.000  
G32  21945748.715    21945749.928    21945804.960   115325689.399    89864203.188    86120052.154          48.770          40.144          52.901        1516.448        1181.950        1132.547  
R01  23545198.529    23545219.279   125862581.827    97893222.058          43.639          37.320       -2691.809       -2093.744  
R02  19915273.515    19915291.670   106271720.732    82655851.971          53.899          47.101          31.048          23.638  
R03  21226020.710    21226039.742   113624539.189    88374723.110          50.841          49.663        2610.391        2029.807  
R10  22594936.282           0.000   120528513.921           0.000          45.677           0.000       -3882.434           0.000  
R12  20288361.890    20288382.255   108376785.666    84293132.270          52.915          48.369       -2382.822       -1853.969  
R13  19583685.976    19583704.399   104575778.701    81336800.123          45.818          41.145        1985.292        1544.097  
R14  23145351.350    23145373.551   123377765.638    95960586.522          49.626          42.188        4312.263        3353.466  
C06  36572758.090    36572770.299    36572757.484   190443950.767   147263389.870   154751308.189          48.726          48.363          46.876         163.228         126.313         132.766  
C07  38111794.384    38111806.788    38111792.997   198458115.858   153460455.628   161263474.533          44.035          46.475          44.519        1475.559        1140.907        1198.903  
C08  39837899.952    39837916.665    39837902.415   207446394.604   160410784.806   168567200.419          38.457          44.204          41.361       -1899.435       -1468.675       -1543.218  
C09  37111848.845    37111864.170    37111849.360   193251136.870   149434098.725   157032380.762          46.636          49.582          45.836         124.439          96.143         100.939  
C10  39600276.796    39600293.866    39600279.845   206209039.054   159453981.944   167561747.501          40.248          42.640          39.414        1439.761        1113.333        1169.817  
C13  38398467.304    38398487.726    38398472.966   199950895.674   154614799.459   162476509.112          41.369          41.368          39.555       -1907.332       -1474.940       -1549.991  
C16  36755875.937    36755893.018    36755878.933   191397492.486   148000756.388   155526155.501          49.315          48.291          44.529         135.043         104.230         109.636  
C25  23768889.776           0.000    23768894.122   123770849.036           0.000   100573971.257          46.214           0.000          48.589       -2421.544           0.000       -1967.655  
C32  22578341.760           0.000    22578349.686   117571351.011           0.000    95536385.512          51.978           0.000          51.996        1611.062           0.000        1309.053  
> 2019 10 28 08 37  5.0000000  0 26
G10  20365988.554    20365989.420    20366043.832   107023992.831    83395346.208    79920729.790          52.686          44.883          54.922        1085.160         845.120         810.126  
G12  22054486.822    22054485.851           0.000   115897111.608    90309450.246           0.000          47.781          35.594           0.000         534.739         416.501           0.000  
G14  23768040.591    23768039.604           0.000   124901896.348    97326199.497           0.000          41.609          29.598           0.000        1865.051        1452.537           0.000  
G15  24891896.217           0.000           0.000   130807796.928           0.000           0.000          37.075           0.000           0.000       -2467.477           0.000           0.000  
G20  20151084.791    20151083.274           0.000   105894667.652    82515333.968           0.000          48.592          40.933           0.000       -1249.013        -973.582           0.000  
G21  23573980.873    23573981.587           0.000   123882086.099    96531553.227           0.000          45.926          32.117           0.000       -2680.938       -2089.425           0.000  
G24  22468326.420    22468328.527    22468384.898   118071851.417    92004054.260    88170769.128          43.047          33.879          52.660       -3042.646       -2370.740       -2272.174  
G25  22080928.931    22080931.518    22080988.485   116036067.211    90417741.633    86650546.083          43.900          34.193          51.548        2778.409        2164.568        2074.786  
G31  23372888.202    23372888.507           0.000   122825354.579    95708130.994           0.000          42.050          28.778           0.000        3187.782        2483.546           0.000  
G32  21944303.936    21944305.096    21944359.821   115318096.259    89858286.448    86114381.966          49.312          39.876          52.362        1516.632        1181.465        1132.349  
R01  23547714.659    23547735.508   125876032.153    97903683.445          44.046          37.116       -2692.681       -2094.474  
R02  19915244.065    19915261.915   106271561.836    82655728.369          53.721          47.032          28.511          22.477  
R03  21223581.383    21223599.976   113611479.540    88364565.603          51.474          49.632        2609.388        2029.940  
R10  22598573.838           0.000   120547918.081           0.000          45.432           0.000       -3883.642           0.000  
R12  20290592.335    20290612.271   108388700.250    84302399.169          52.459          48.464       -2386.923       -1856.150  
R13  19581826.290    19581845.233   104565850.297    81329078.037          45.407          41.334        1981.765        1541.328  
R14  23141305.130    23141327.080   123356197.537    95943811.408          48.822          42.688        4311.247        3353.144  
C06  36572599.032    36572611.364    36572598.395   190443122.136   147262749.128   154750634.871          48.960          48.379          46.666         163.940         126.812         133.220  
C07  38110376.012    38110387.723    38110374.612   198450728.619   153454743.333   161257471.777          44.216          46.494          44.743        1475.250        1140.725        1198.933  
C08  39839721.905    39839737.896    39839723.863   207455879.955   160418119.474   168574908.050          39.541          44.316          41.227       -1899.227       -1468.464       -1543.272  
C09  37111727.208    37111742.649    37111727.598   193250503.363   149433608.849   157031865.970          46.708          49.116          45.552         124.916          96.658         101.417  
C10  39598891.789    39598909.154    39598895.409   206201829.388   159448406.986   167555889.075          40.864          42.272          39.671        1439.861        1113.438        1169.723  
C13  38400296.797    38400317.223    38400302.407   199960422.529   154622166.231   162484250.478          41.553          41.278          39.306       -1907.166       -1474.909       -1549.993  
C16  36755744.160    36755761.257    36755746.892   191396805.664   148000225.285   155525597.406          49.426          47.985          44.346         135.630         104.837         110.200  
C25  23771213.242           0.000    23771217.798   123782949.303           0.000   100583803.714          46.048           0.000          48.533       -2422.722           0.000       -1968.658  
C32  22576793.224           0.000    22576800.888   117563287.817           0.000    95529833.512          51.971           0.000          51.543        1610.131           0.000        1308.313  
> 2019 10 28 08 37 10.0000000  0 26
G10  20364955.683    20364956.597    20365010.956   107018565.319    83391116.974    79916676.770          52.564          44.511          54.998        1082.866         843.580         808.550  
G12  22053978.011    22053977.132           0.000   115894437.215    90307366.308           0.000          48.148          35.775           0.000         531.983         414.032           0.000  
G14  23766264.127    23766264.028           0.000   124892563.383    97318927.068           0.000          41.008          30.314           0.000        1865.302        1453.240           0.000  
G15  24894242.890    24894254.650           0.000   130820126.591   101937810.933           0.000          37.099          25.121           0.000       -2467.261       -1922.558           0.000  
G20  20152272.900    20152271.356           0.000   105900911.396    82520199.220           0.000          48.398          40.651           0.000       -1251.475        -975.717           0.000  
G21  23576529.892    23576530.550           0.000   123895482.606    96541992.025           0.000          45.888          31.837           0.000       -2680.640       -2089.411           0.000  
G24  22471220.259    22471221.974    22471278.713   118087058.247    92015903.732    88182124.890          43.159          33.762          53.023       -3042.963       -2371.430       -2272.478  
G25  22078284.345    22078287.303    22078344.095   116022170.852    90406913.320    86640168.960          44.262          34.325          51.602        2777.030        2163.816        2073.737  
G31  23369854.407    23369854.524           0.000   122809411.547    95695707.890           0.000          42.860          29.075           0.000        3186.692        2482.632           0.000  
G32  21942859.561    21942860.903    21942915.433   115310506.079    89852372.021    86108713.980          49.045          39.492          52.560        1516.597        1181.376        1132.357  
R01  23550232.749    23550252.587   125889490.460    97914151.004          44.430          35.895       -2693.718       -2095.078  
R02  19915216.593    19915233.986   106271413.842    82655613.248          54.196          46.395          27.413          21.259  
R03  21221142.225    21221160.979   113598422.749    88354410.322          51.424          50.387        2609.759        2029.909  
R10  22602212.861           0.000   120567330.800           0.000          45.778           0.000       -3884.648           0.000  
R12  20292826.145    20292845.652   108400632.879    84311680.101          52.058          48.344       -2389.528       -1858.481  
R13  19579971.259    19579989.700   104555942.532    81321371.996          45.805          41.321        1978.281        1538.680  
R14  23137259.876    23137281.764   123334634.939    95927040.576          48.546          42.875        4310.734        3352.805  
C06  36572439.596    36572452.007    36572438.939   190442292.707   147262107.772   154749960.902          48.603          48.577          46.843         164.795         127.315         133.679  
C07  38108957.380    38108969.331    38108956.167   198443343.841   153449032.973   161251471.067          44.225          46.955          44.520        1475.527        1140.988        1198.819  
C08  39841543.602    39841559.487    39841545.361   207465365.236   160425454.087   168582615.607          39.350          44.486          41.384       -1898.229       -1467.764       -1542.452  
C09  37111605.558    37111620.578    37111605.928   193249868.964   149433118.300   157031350.476          46.805          49.430          45.520         125.645          97.213         102.101  
C10  39597507.488    39597524.532    39597511.138   206194620.643   159442832.769   167550031.410          40.685          42.919          40.130        1440.415        1113.684        1170.319  
C13  38402126.681    38402146.656    38402132.463   199969951.452   154629534.589   162491993.502          41.712          41.136          39.256       -1907.312       -1474.810       -1549.941  
C16  36755611.979    36755629.467    36755614.879   191396118.076   147999693.591   155525038.676          49.464          48.550          44.517         136.272         105.511         110.816  
C25  23773538.151           0.000    23773542.749   123795057.341           0.000   100593642.467          45.920           0.000          48.297       -2423.631           0.000       -1969.552  
C32  22575246.063           0.000    22575253.751   117555231.079           0.000    95523286.746          52.032           0.000          51.645        1609.425           0.000        1307.797  
> 2019 10 28 08 37 15.0000000  0 26
G10  20363925.605    20363926.513    20363980.914   107013152.622    83386899.294    79912634.818          52.001          44.666          55.166        1080.866         842.138         807.340  
G12  22053472.530    22053471.670           0.000   115891780.683    90305296.291           0.000          47.688          35.410           0.000         529.256         412.132           0.000  
G14  23764488.530    23764488.692           0.000   124883232.794    97311656.506           0.000          41.004          29.160           0.000        1865.653        1453.813           0.000  
G15  24896589.722           0.000           0.000   130832458.884           0.000           0.000          37.428           0.000           0.000       -2466.989           0.000           0.000  
G20  20153464.128    20153462.545           0.000   105907171.468    82525077.196           0.000          47.727          40.993           0.000       -1253.855        -977.007           0.000  
G21  23579079.797    23579080.267           0.000   123908882.221    96552433.268           0.000          45.901          31.978           0.000       -2680.434       -2088.890           0.000  
G24  22474115.179    22474117.039    22474173.335   118102270.770    92027757.633    88193484.858          43.713          33.990          52.742       -3043.290       -2371.308       -2272.320  
G25  22075642.047    22075644.641    22075701.754   116008285.148    90396093.310    86629799.770          44.513          33.986          51.767        2775.824        2162.555        2073.083  
G31  23366822.275    23366822.951           0.000   122793477.436    95683291.710           0.000          43.362          29.373           0.000        3185.679        2482.446           0.000  
G32  21941415.945    21941417.265    21941471.489   115302919.682    89846460.543    86103048.799          48.684          40.142          52.432        1516.712        1181.722        1132.806  
R01  23552751.931    23552772.682   125902957.699    97924625.480          44.060          35.034       -2694.485       -2095.623  
R02  19915191.412    19915209.155   106271277.550    82655507.259          54.313          45.359          25.935          20.105  
R03  21218703.711    21218722.573   113585369.699    88344257.950          51.249          49.993        2609.985        2030.052  
R10  22605853.863           0.000   120586753.068           0.000          45.968           0.000       -3885.611           0.000  
R12  20295064.038    20295082.757   108412584.349    84320975.710          52.746          48.210       -2392.303       -1860.813  
R13  19578119.791    19578138.062   104546056.173    81313682.600          46.002          41.246        1974.866        1536.029  
R14  23133216.118    23133238.319   123313078.739    95910274.731          48.766          42.701        4310.379        3352.486  
C06  36572280.442    36572292.668    36572279.690   190441463.270   147261466.390   154749286.918          48.679          48.390          46.732         166.006         128.466         134.797  
C07  38107540.605    38107552.075    38107538.654   198435962.341   153443325.105   161245472.974          44.104          47.025          44.841        1476.091        1141.507        1199.515  
C08  39843365.145    39843381.497    39843367.261   207474851.371   160432789.347   168590323.825          39.434          45.154          41.734       -1897.418       -1467.059       -1541.426  
C09  37111483.836    37111499.026    37111483.981   193249234.535   149432627.720   157030834.943          46.714          49.161          45.308         126.954          98.264         103.238  
C10  39596124.044    39596140.610    39596127.178   206187413.617   159437259.850   167544175.116          40.846          42.956          39.819        1441.331        1114.725        1171.429  
C13  38403957.124    38403977.549    38403962.620   199979483.243   154636905.175   162499738.853          41.172          40.862          38.802       -1906.682       -1474.302       -1549.295  
C16  36755479.952    36755497.369    36755482.786   191395430.481   147999161.923   155524479.962          49.348          48.319          45.028         137.605         106.291         111.915  
C25  23775864.978           0.000    23775869.409   123807173.942           0.000   100603488.190          45.334           0.000          48.314       -2424.099           0.000       -1969.794  
C32  22573700.272           0.000    22573707.704   117547181.595           0.000    95516745.890          51.817           0.000          51.644        1609.274           0.000        1307.625  
> 2019 10 28 08 37 20.0000000  0 26
G10  20362898.003    20362899.014    20362953.415   107007752.715    83382691.578    79908602.422          52.093          44.834          55.136        1077.451         839.773         804.753  
G12  22052969.945    22052969.368           0.000   115889139.951    90303238.592           0.000          48.131          35.925           0.000         525.360         409.885           0.000  
G14  23762713.106    23762713.041           0.000   124873902.571    97304386.189           0.000          42.298          28.115           0.000        1864.716        1452.938           0.000  
G15  24898936.461           0.000           0.000   130844791.753           0.000           0.000          37.826           0.000           0.000       -2467.894           0.000           0.000  
G20  20154658.165    20154656.718           0.000   105913445.783    82529966.285           0.000          47.662          41.069           0.000       -1257.538        -979.685           0.000  
G21  23581629.854    23581630.072           0.000   123922282.842    96562875.285           0.000          45.926          31.170           0.000       -2681.387       -2088.821           0.000  
G24  22477010.901    22477012.349    22477069.054   118117486.802    92039614.295    88204847.484          43.763          33.591          53.106       -3044.675       -2372.206       -2273.584  
G25  22073001.453    22073004.409    22073060.959   115994408.068    90385280.019    86619437.034          45.133          35.118          51.667        2773.479        2161.232        2071.016  
G31  23363791.397    23363791.488           0.000   122777550.170    95670880.893           0.000          43.600          29.188           0.000        3183.637        2481.152           0.000  
G32  21939972.733    21939973.967    21940028.039   115295335.027    89840550.428    86097384.938          49.209          40.177          52.419        1515.504        1180.996        1131.973  
R01  23555272.206    23555293.270   125916431.679    97935105.249          43.715          36.059       -2696.886       -2097.455  
R02  19915168.236    19915184.932   106271151.163    82655408.961          54.347          46.060          23.317          17.894  
R03  21216265.287    21216284.328   113572318.368    88334106.923          50.775          49.991        2609.304        2029.166  
R10  22609496.252           0.000   120606182.597           0.000          45.898           0.000       -3888.030           0.000  
R12  20297304.849    20297323.031   108424552.647    84330284.375          53.124          47.600       -2396.262       -1863.916  
R13  19576272.037    19576290.541   104536189.317    81306008.388          46.482          41.273        1970.164        1532.445  
R14  23129172.601    23129194.560   123291526.867    95893512.263          49.177          42.408        4308.660        3351.148  
C06  36572120.669    36572133.134    36572120.110   190440631.782   147260823.442   154748611.267          48.525          48.532          46.649         165.673         127.992         134.380  
C07  38106122.569    38106135.094    38106121.281   198428582.105   153437618.275   161239475.957          43.698          47.216          44.693        1475.087        1140.540        1198.613  
C08  39845186.265    39845202.430    39845188.647   207484336.202   160440123.635   168598031.069          39.387          45.248          41.872       -1897.703       -1467.452       -1541.998  
C09  37111361.535    37111376.859    37111361.654   193248598.036   149432135.542   157030317.747          46.723          49.095          45.406         126.612          97.937         102.687  
C10  39594739.830    39594756.916    39594742.252   206180206.316   159431686.758   167538318.636          40.981          43.130          39.599        1440.732        1113.918        1170.195  
C13  38405788.015    38405807.934    38405793.036   199989015.862   154644276.428   162507484.871          41.104          40.863          38.666       -1907.479       -1474.960       -1549.795  
C16  36755347.767    36755365.045    36755350.779   191394740.917   147998628.705   155523919.645          49.700          48.558          44.968         137.172         106.101         111.291  
C25  23778192.820           0.000    23778197.535   123819297.049           0.000   100613339.225          44.982           0.000          48.225       -2426.054           0.000       -1971.545  
C32  22572155.682           0.000    22572162.511   117539137.391           0.000    95510209.318          51.808           0.000          51.363        1607.386           0.000        1306.107  
> 2019 10 28 08 37 25.0000000  0 26
G10  20361873.413    20361874.220    20361928.977   107002368.504    83378496.085    79904581.751          52.161          44.888          55.073        1075.280         837.988         803.111  
G12  22052470.961    22052469.726           0.000   115886517.918    90301195.437           0.000          48.679          36.087           0.000         522.739         407.503           0.000  
G14  23760938.135    23760938.111           0.000   124864575.611    97297118.455           0.000          41.667          29.261           0.000        1865.214        1453.380           0.000  
G15  24901283.810           0.000           0.000   130857128.177           0.000           0.000          38.533           0.000           0.000       -2467.676           0.000           0.000  
G20  20155855.446    20155854.046           0.000   105919737.258    82534868.723           0.000          47.837          40.927           0.000       -1259.969        -981.513           0.000  
G21  23584180.531    23584181.071           0.000   123935687.375    96573320.347           0.000          45.378          31.091           0.000       -2681.190       -2089.033           0.000  
G24  22479907.770    22479908.699    22479965.775   118132709.101    92051475.796    88216214.793          43.470          34.432          52.901       -3045.024       -2372.719       -2273.885  
G25  22070363.378    22070365.705    22070422.754   115980542.512    90374475.701    86609082.900          45.721          34.258          51.859        2772.097        2159.829        2070.064  
G31  23360762.444    23360763.073           0.000   122761632.710    95658477.699           0.000          43.660          29.837           0.000        3182.637        2480.026           0.000  
G32  21938530.221    21938531.896    21938585.506   115287754.997    89834643.917    86091724.530          48.619          39.832          52.321        1515.484        1181.176        1131.784  
R01  23557794.602    23557815.989   125929915.376    97945592.553          43.708          35.707       -2697.638       -2098.089  
R02  19915147.174    19915163.878   106271037.630    82655320.650          53.837          46.858          21.797          16.719  
R03  21213828.162    21213847.077   113559271.692    88323959.523          50.913          50.210        2609.112        2029.087  
R10  22613140.603           0.000   120625622.378           0.000          45.797           0.000       -3889.026           0.000  
R12  20299548.669    20299567.137   108436540.668    84339608.407          52.898          47.144       -2399.261       -1866.336  
R13  19574428.124    19574447.335   104526344.999    81298351.718          46.226          40.945        1966.626        1529.486  
R14  23125131.340    23125153.192   123269982.255    95876755.435          48.680          41.467        4308.217        3350.816  
C06  36571961.252    36571973.391    36571960.806   190439801.163   147260181.156   154747936.322          48.499          48.180          46.843         166.221         128.397         134.959  
C07  38104706.629    38104718.422    38104704.686   198421206.027   153431914.616   161233482.282          43.995          47.067          44.846        1474.946        1140.671        1198.527  
C08  39847007.584    39847024.346    39847010.793   207493822.730   160447459.217   168605739.668          39.646          44.795          41.987       -1897.122       -1466.864       -1541.778  
C09  37111239.530    37111254.660    37111239.594   193247962.322   149431643.964   157029801.174          46.825          48.776          45.512         127.151          98.432         103.416  
C10  39593357.138    39593373.622    39593359.103   206173001.598   159426115.625   167532464.216          40.423          42.724          39.999        1440.773        1113.932        1170.572  
C13  38407619.045    38407639.791    38407623.952   199998552.147   154651650.453   162515233.904          40.935          40.423          38.494       -1907.442       -1474.768       -1549.855  
C16  36755215.403    36755233.048    36755218.311   191394052.220   147998096.151   155523360.019          49.568          48.094          45.040         137.786         106.746         111.955  
C25  23780522.990           0.000    23780527.409   123831429.586           0.000   100623197.876          44.950           0.000          48.118       -2427.428           0.000       -1972.399  
C32  22570612.511           0.000    22570619.484   117531101.327           0.000    95503679.345          51.909           0.000          51.566        1606.516           0.000        1305.483  
> 2019 10 28 08 37 30.0000000  0 26
G10  20360851.551    20360852.287    20360907.098   106996998.944    83374312.015    79900572.018          52.051          44.924          54.838        1072.295         835.420         800.844  
G12  22051975.192    22051974.419           0.000   115883913.614    90299166.109           0.000          48.193          36.105           0.000         518.825         404.616           0.000  
G14  23759163.849    23759164.128           0.000   124855250.898    97289852.443           0.000          41.639          28.594           0.000        1864.435        1452.594           0.000  
G15  24903631.689           0.000           0.000   130869467.107           0.000           0.000          37.368           0.000           0.000       -2468.216           0.000           0.000  
G20  20157055.714    20157054.327           0.000   105926044.868    82539783.745           0.000          47.883          41.194           0.000       -1263.347        -984.471           0.000  
G21  23586732.278    23586732.503           0.000   123949094.768    96583767.641           0.000          45.684          32.104           0.000       -2681.968       -2089.621           0.000  
G24  22482805.591    22482806.716    22482863.555   118147936.904    92063341.619    88227586.184          43.607          34.318          52.651       -3046.368       -2373.572       -2274.720  
G25  22067727.271    22067729.070    22067786.157   115966687.468    90363679.568    86598736.606          46.112          35.542          51.961        2769.836        2158.334        2068.499  
G31  23357735.379    23357735.124           0.000   122745724.030    95646081.319           0.000          43.743          29.454           0.000        3180.752        2478.838           0.000  
G32  21937088.595    21937090.069    21937143.610   115280178.546    89828740.177    86086066.792          48.530          40.572          51.950        1514.852        1180.554        1131.124  
R01  23560318.728    23560340.687   125943407.736    97956086.573          43.965          35.668       -2699.556       -2099.399  
R02  19915128.163    19915145.118   106270935.789    82655241.421          53.850          46.891          18.641          14.762  
R03  21211391.790    21211410.723   113546228.549    88313814.859          50.735          50.380        2607.699        2028.483  
R10  22616786.378           0.000   120645071.409           0.000          45.621           0.000       -3890.851           0.000  
R12  20301796.026    20301815.004   108448547.324    84348946.891          52.535          47.156       -2403.932       -1869.192  
R13  19572588.654    19572606.835   104516522.046    81290711.625          45.843          40.865        1962.266        1526.291  
R14  23121090.708    23121112.220   123248443.833    95860003.410          47.961          41.873        4306.989        3349.771  
C06  36571802.084    36571813.696    36571800.970   190438970.364   147259538.733   154747261.227          48.482          47.821          46.954         166.111         128.206         134.868  
C07  38103290.388    38103302.714    38103288.992   198413833.035   153426213.367   161227491.129          43.785          46.785          44.811        1474.223        1139.847        1197.908  
C08  39848829.646    39848846.661    39848832.989   207503309.834   160454795.222   168613448.675          39.800          44.755          41.866       -1897.660       -1467.200       -1541.828  
C09  37111117.208    37111132.288    37111117.163   193247326.374   149431152.225   157029284.405          46.940          48.241          45.414         127.189          98.155         103.370  
C10  39591973.319    39591990.736    39591975.835   206165798.423   159420545.663   167526611.044          40.902          42.801          39.976        1440.290        1113.946        1170.377  
C13  38409450.444    38409471.836    38409456.270   200008091.132   154659026.600   162522985.084          41.281          39.845          38.494       -1908.192       -1475.200       -1550.412  
C16  36755083.006    36755100.696    36755086.282   191393363.369   147997563.483   155522800.259          49.727          47.618          45.109         137.662         106.557         111.888  
C25  23782855.316           0.000    23782858.909   123843570.427           0.000   100633063.297          45.139           0.000          48.248       -2429.019           0.000       -1973.746  
C32  22569070.560           0.000    22569077.453   117523072.362           0.000    95497155.162          51.993           0.000          51.669        1605.026           0.000        1304.167  
> 2019 10 28 08 37 35.0000000  0 26
G10  20359832.343    20359833.093    20359887.900   106991642.510    83370138.174    79896572.092          52.052          45.301          54.949        1070.106         833.646         798.864  
G12  22051482.480    22051481.803           0.000   115881325.390    90297149.301           0.000          47.944          36.539           0.000         516.214         401.993           0.000  
G14  23757389.528    23757389.292           0.000   124845926.804    97282586.919           0.000          41.110          30.337           0.000        1864.847        1453.377           0.000  
G15  24905979.841           0.000           0.000   130881806.976           0.000           0.000          36.070           0.000           0.000       -2468.025           0.000           0.000  
G20  20158258.855    20158257.334           0.000   105932367.035    82544710.110           0.000          47.870          41.105           0.000       -1265.671        -986.451           0.000  
G21  23589283.946    23589284.236           0.000   123962503.457    96594215.943           0.000          45.378          32.489           0.000       -2681.813       -2089.109           0.000  
G24  22485704.123    22485704.844    22485762.407   118163168.606    92075210.478    88238960.505          43.967          34.928          52.821       -3046.520       -2373.870       -2275.074  
G25  22065092.039    22065094.025    22065151.389   115952841.396    90352890.434    86588397.024          45.205          34.935          51.873        2768.460        2157.091        2067.266  
G31  23354709.643    23354709.688           0.000   122729822.485    95633690.558           0.000          44.543          30.512           0.000        3179.724        2476.897           0.000  
G32  21935647.074    21935648.879    21935701.996   115272604.141    89822838.052    86080410.591          48.657          40.680          51.972        1514.900        1180.124        1131.044  
R01  23562843.804    23562866.300   125956907.097    97966586.084          43.408          34.992       -2700.380       -2099.984  
R02  19915111.095    19915127.737   106270843.905    82655169.944          53.831          46.284          17.111          13.551  
R03  21208955.150    21208974.343   113533187.561    88303671.873          50.221          50.625        2607.793        2028.424  
R10  22620433.559           0.000   120664528.066           0.000          45.880           0.000       -3891.962           0.000  
R12  20304046.740    20304065.996   108460571.000    84358298.649          53.047          47.731       -2406.424       -1871.572  
R13  19570753.033    19570771.510   104506718.915    81283086.982          45.615          41.162        1958.707        1523.401  
R14  23117050.855    23117072.546   123226910.144    95843255.014          47.354          41.681        4306.361        3349.621  
C06  36571642.071    36571653.641    36571641.161   190438137.801   147258894.936   154746584.716          48.391          48.311          46.864         166.758         128.997         135.297  
C07  38101874.628    38101886.730    38101873.285   198406461.589   153420513.286   161221501.235          43.529          47.178          44.838        1474.052        1139.736        1197.809  
C08  39850651.691    39850667.887    39850654.217   207512795.895   160462130.472   168621156.903          39.541          44.918          41.484       -1896.579       -1467.159       -1541.708  
C09  37110994.850    37111009.964    37110994.711   193246688.647   149430659.097   157028766.194          47.066          48.862          45.322         127.618          98.562         103.994  
C10  39590589.951    39590607.200    39590592.911   206158595.176   159414975.700   167520757.848          40.309          43.215          40.477        1440.881        1114.123        1170.572  
C13  38411283.252    38411303.671    38411288.080   200017631.210   154666403.602   162530737.211          41.401          39.930          38.442       -1908.092       -1475.691       -1550.900  
C16  36754950.552    36754968.472    36754953.335   191392672.797   147997029.518   155522239.113          49.831          48.514          44.660         138.269         106.789         112.454  
C25  23785188.127           0.000    23785191.731   123855718.095           0.000   100642934.281          45.810           0.000          48.124       -2430.191           0.000       -1974.922  
C32  22567529.683           0.000    22567536.830   117515048.992           0.000    95490635.517          52.012           0.000          51.651        1603.992           0.000        1303.393  
> 2019 10 28 08 37 40.0000000  0 26
G10  20358815.839    20358816.453    20358871.264   106986300.494    83365975.551    79892582.912          52.036          43.826          55.310        1067.585         831.637         797.185  
G12  22050993.322    22050992.401           0.000   115878754.547    90295146.046           0.000          47.742          35.909           0.000         513.163         400.023           0.000  
G14  23755615.447    23755615.211           0.000   124836604.648    97275322.912           0.000          41.281          29.945           0.000        1864.893        1453.211           0.000  
G15  24908328.608           0.000           0.000   130894149.066           0.000           0.000          37.801           0.000           0.000       -2467.904           0.000           0.000  
G20  20159464.796    20159463.429           0.000   105938705.079    82549648.849           0.000          48.099          40.406           0.000       -1268.489        -988.569           0.000  
G21  23591836.028    23591836.025           0.000   123975914.649    96604666.190           0.000          46.240          32.704           0.000       -2681.883       -2089.840           0.000  
G24  22488603.610    22488604.370    22488661.903   118178405.285    92087083.210    88250338.571          43.424          33.425          52.804       -3047.108       -2374.750       -2275.616  
G25  22062458.912    22062461.291    22062518.612   115939005.579    90342109.276    86578065.091          45.091          35.269          51.945        2766.771        2155.765        2066.015  
G31  23351685.101    23351684.584           0.000   122713929.395    95621306.353           0.000          45.241          29.780           0.000        3178.486        2476.685           0.000  
G32  21934206.027    21934208.222    21934261.124   115265033.067    89816938.529    86074756.864          48.976          39.547          52.008        1514.548        1179.844        1130.943  
R01  23565371.271    23565393.006   125970414.827    97977092.094          43.771          35.315       -2701.719       -2101.357  
R02  19915096.043    19915112.694   106270763.622    82655107.518          53.989          45.409          15.546          12.127  
R03  21206519.451    21206538.456   113520149.786    88293531.397          50.733          49.956        2607.936        2028.348  
R10  22624082.613           0.000   120683993.707           0.000          45.704           0.000       -3893.250           0.000  
R12  20306300.894    20306320.132   108472612.921    84367664.608          53.188          48.317       -2409.561       -1874.073  
R13  19568920.994    19568939.480   104496936.921    81275478.766          45.614          40.860        1954.923        1520.526  
R14  23113012.078    23113034.082   123205382.401    95826511.326          48.560          41.335        4305.579        3348.552  
C06  36571482.138    36571493.616    36571481.099   190437304.790   147258250.806   154745907.823          48.228          47.792          46.828         167.260         129.337         135.864  
C07  38100459.519    38100471.802    38100458.467   198399092.975   153414815.420   161215513.623          43.785          46.242          44.990        1473.995        1139.870        1197.956  
C08  39852473.358    39852489.786    39852475.196   207522282.455   160469466.047   168628865.454          40.300          44.619          41.741       -1897.045       -1466.596       -1541.221  
C09  37110871.774    37110887.253    37110872.564   193246050.405   149430165.559   157028247.595          46.675          48.281          45.637         128.364          99.325         104.144  
C10  39589206.658    39589224.620    39589209.017   206151393.312   159409406.780   167514905.746          40.109          42.158          40.190        1440.827        1114.338        1170.673  
C13  38413115.511    38413136.137    38413120.647   200027173.609   154673782.402   162538491.197          41.346          40.000          37.736       -1907.905       -1475.443       -1550.712  
C16  36754818.084    36754835.878    36754820.934   191391981.800   147996495.188   155521677.636          49.475          47.907          45.001         138.919         107.398         112.803  
C25  23787523.055           0.000    23787525.999   123867873.788           0.000   100652811.781          46.338           0.000          48.214       -2431.211           0.000       -1975.666  
C32  22565990.076           0.000    22565997.481   117507032.455           0.000    95484121.423          51.922           0.000          51.757        1603.266           0.000        1302.652  
> 2019 10 28 08 37 45.0000000  0 26
G10  20357801.885    20357802.446    20357857.341   106980971.988    83361823.476    79888603.837          52.388          44.749          55.187        1065.410         829.998         795.561  
G12  22050507.288    22050506.018           0.000   115876200.285    90293155.712           0.000          48.063          36.070           0.000         510.240         397.580           0.000  
G14  23753841.716    23753841.242           0.000   124827283.497    97268059.672           0.000          41.636          30.070           0.000        1865.365        1453.223           0.000  
G15  24910677.486           0.000           0.000   130906492.467           0.000           0.000          38.025           0.000           0.000       -2467.724           0.000           0.000  
G20  20160673.761    20160672.550           0.000   105945058.095    82554599.245           0.000          48.227          40.904           0.000       -1270.985        -990.377           0.000  
G21  23594388.402    23594388.650           0.000   123989327.479    96615117.718           0.000          46.595          32.797           0.000       -2681.633       -2089.297           0.000  
G24  22491503.954    22491504.421    22491562.602   118193646.362    92098959.374    88261719.874          43.171          33.721          52.718       -3047.431       -2375.052       -2275.867  
G25  22059827.813    22059830.192    22059887.199   115925179.148    90331335.453    86567740.171          44.460          34.506          51.704        2765.533        2155.193        2065.003  
G31  23348662.004    23348661.928           0.000   122698043.935    95608928.122           0.000          45.534          30.715           0.000        3177.355        2475.995           0.000  
G32  21932765.691    21932768.166    21932820.906   115257464.412    89811040.876    86069104.948          48.725          40.475          51.931        1514.634        1179.991        1130.971  
R01  23567899.644    23567921.442   125983929.977    97987603.883          43.739          36.622       -2702.580       -2101.911  
R02  19915082.605    19915099.327   106270693.839    82655053.234          53.330          46.647          13.918          11.043  
R03  21204084.292    21204103.351   113507114.548    88283392.874          50.529          49.645        2608.048        2028.460  
R10  22627732.850           0.000   120703467.301           0.000          45.710           0.000       -3894.347           0.000  
R12  20308558.514    20308577.179   108484672.256    84377044.100          53.134          47.665       -2412.627       -1876.375  
R13  19567092.995    19567111.373   104487175.230    81267886.349          45.774          40.906        1951.472        1517.860  
R14  23108974.502    23108996.659   123183859.820    95809771.575          49.159          41.130        4304.403        3348.395  
C06  36571322.276    36571333.543    36571320.926   190436470.444   147257605.642   154745229.851          48.337          48.587          46.637         168.115         129.839         136.485  
C07  38099045.262    38099057.139    38099043.541   198391726.392   153409119.110   161209527.690          43.957          46.833          44.990        1474.237        1140.015        1197.915  
C08  39854294.913    39854311.281    39854297.788   207531768.357   160476801.130   168636573.539          40.422          45.334          42.095       -1896.096       -1466.047       -1540.701  
C09  37110749.421    37110764.414    37110749.202   193245410.771   149429670.956   157027727.845          46.866          48.781          45.623         129.293          99.772         104.952  
C10  39587823.767    39587841.359    39587826.831   206144191.806   159403838.143   167509053.961          40.095          43.638          40.274        1441.329        1114.599        1171.207  
C13  38414948.489    38414969.262    38414953.346   200036717.542   154681162.357   162546246.412          41.153          40.894          37.943       -1907.629       -1475.260       -1550.140  
C16  36754684.942    36754702.585    36754687.945   191391289.500   147995959.863   155521115.087          49.378          48.624          44.811         139.710         108.004         113.500  
C25  23789858.590           0.000    23789861.912   123880036.679           0.000   100662695.118          46.461           0.000          48.347       -2432.276           0.000       -1976.392  
C32  22564451.933           0.000    22564459.130   117499021.894           0.000    95477612.192          51.745           0.000          51.608        1602.662           0.000        1302.224  
> 2019 10 28 08 37 50.0000000  0 26
G10  20356790.433    20356791.180    20356845.872   106975657.187    83357682.077    79884634.990          52.590          44.044          55.254        1062.460         828.070         793.522  
G12  22050024.448    22050023.482           0.000   115873662.675    90291178.366           0.000          48.150          35.312           0.000         506.687         394.955           0.000  
G14  23752068.080    23752067.503           0.000   124817963.602    97260797.398           0.000          41.582          29.241           0.000        1864.601        1453.536           0.000  
G15  24913026.731           0.000           0.000   130918837.306           0.000           0.000          37.546           0.000           0.000       -2467.971           0.000           0.000  
G20  20161885.665    20161884.196           0.000   105951426.185    82559561.393           0.000          48.217          40.685           0.000       -1274.228        -992.704           0.000  
G21  23596941.162    23596941.148           0.000   124002742.098    96625570.666           0.000          46.335          31.101           0.000       -2682.256       -2089.867           0.000  
G24  22494404.694    22494405.653    22494463.597   118208891.686    92110838.859    88273104.366          42.734          32.945          52.987       -3048.619       -2374.617       -2276.496  
G25  22057198.277    22057200.414    22057257.937   115911362.312    90320569.092    86557422.408          43.829          33.942          51.740        2763.280        2152.846        2063.488  
G31  23345640.706    23345640.156           0.000   122682166.283    95596555.926           0.000          46.009          30.420           0.000        3175.699        2475.258           0.000  
G32  21931326.060    21931328.056    21931381.388   115249898.377    89805145.271    86063454.997          48.811          39.825          52.107        1513.782        1179.646        1130.408  
R01  23570429.048    23570451.670   125997452.891    97998121.714          43.236          36.786       -2704.366       -2103.376  
R02  19915071.262    19915088.871   106270634.856    82655007.361          53.015          47.313          12.136           9.070  
R03  21201650.101    21201668.470   113494081.909    88273256.357          50.811          49.543        2607.613        2027.893  
R10  22631385.326           0.000   120722949.011           0.000          45.868           0.000       -3896.264           0.000  
R12  20310819.707    20310838.659   108496749.161    84386437.244          53.274          47.739       -2415.650       -1879.203  
R13  19565268.739    19565287.529   104477433.955    81260309.788          45.676          41.411        1947.040        1514.500  
R14  23104937.653    23104959.353   123162342.418    95793035.921          49.319          40.881        4304.281        3347.524  
C06  36571161.480    36571172.981    36571160.341   190435634.914   147256959.557   154744550.913          48.380          48.974          46.629         168.204         129.937         136.601  
C07  38097631.213    38097642.571    38097629.480   198384361.893   153403424.427   161203543.433          43.856          47.244          44.981        1473.408        1139.400        1197.466  
C08  39856116.518    39856132.656    39856119.546   207541253.907   160484135.966   168644281.295          40.153          45.778          41.850       -1896.429       -1466.384       -1540.657  
C09  37110626.316    37110641.036    37110626.347   193244769.934   149429175.424   157027207.100          47.100          49.061          45.384         129.201          99.824         104.962  
C10  39586441.084    39586458.416    39586443.893   206136990.870   159398269.957   167503202.632          39.870          44.160          40.337        1441.209        1114.370        1170.976  
C13  38416781.446    38416802.802    38416786.822   200046263.208   154688543.666   162554003.013          41.402          41.169          38.279       -1908.370       -1475.686       -1550.744  
C16  36754551.747    36754569.501    36754554.782   191390596.074   147995423.664   155520551.620          49.572          48.803          44.980         139.691         107.901         113.456  
C25  23792195.753           0.000    23792198.960   123892206.887           0.000   100672584.413          46.841           0.000          48.338       -2433.986           0.000       -1977.776  
C32  22562914.735           0.000    22562922.140   117491017.512           0.000    95471107.979          51.877           0.000          51.674        1601.146           0.000        1300.973  
> 2019 10 28 08 37 55.0000000  0 26
G10  20355781.973    20355782.786    20355837.526   106970357.802    83353552.689    79880677.662          52.316          43.434          55.219        1059.957         826.114         791.529  
G12  22049544.816    22049543.749           0.000   115871143.466    90289215.369           0.000          47.856          35.315           0.000         503.655         392.160           0.000  
G14  23750294.986    23750294.872           0.000   124808646.577    97253537.413           0.000          41.634          30.299           0.000        1864.710        1453.262           0.000  
G15  24915376.501           0.000           0.000   130931185.397           0.000           0.000          35.959           0.000           0.000       -2468.442           0.000           0.000  
G20  20163100.678    20163099.274           0.000   105957811.102    82564536.648           0.000          48.072          39.883           0.000       -1276.897        -995.173           0.000  
G21  23599494.491    23599495.166           0.000   124016160.205    96636026.300           0.000          45.770          31.311           0.000       -2682.271       -2090.146           0.000  
G24  22497306.886    22497307.492    22497365.860   118224142.894    92122722.926    88284493.269          42.200          33.008          52.974       -3049.129       -2376.809       -2276.960  
G25  22054571.219    22054573.157    22054630.678   115897556.732    90309811.521    86547113.061          44.644          33.494          51.541        2761.507        2151.455        2062.222  
G31  23342621.058    23342619.819           0.000   122666298.122    95584191.165           0.000          46.162          30.401           0.000        3174.210        2473.050           0.000  
G32  21929887.105    21929889.257    21929942.525   115242336.626    89799253.004    86057808.229          49.120          38.983          52.144        1513.576        1179.010        1130.355  
R01  23572960.343    23572981.980   126010985.044    98008646.733          43.364          36.836       -2705.532       -2104.487  
R02  19915062.035    19915080.001   106270588.245    82654971.100          53.299          47.359           9.910           7.683  
R03  21199216.547    21199234.934   113481053.579    88263123.206          51.282          49.334        2607.112        2027.673  
R10  22635039.390           0.000   120742440.513           0.000          45.415           0.000       -3897.526           0.000  
R12  20313084.483    20313103.005   108508845.363    84395845.387          53.144          47.559       -2419.199       -1881.698  
R13  19563448.737    19563467.304   104467714.845    81252750.494          45.983          40.989        1943.478        1511.424  
R14  23100902.418    23100923.607   123140832.030    95776305.689          49.267          41.137        4303.107        3346.904  
C06  36571000.712    36571012.397    36571000.200   190434799.915   147256313.871   154743872.414          48.453          47.864          46.972         168.667         130.445         136.877  
C07  38096216.994    38096229.215    38096215.929   198377001.211   153397732.700   161197562.278          44.091          46.191          45.112        1473.421        1139.257        1197.321  
C08  39857937.858    39857954.481    39857940.722   207550740.719   160491471.765   168651990.110          40.216          44.017          41.632       -1895.826       -1465.839       -1540.292  
C09  37110503.376    37110518.448    37110503.075   193244129.536   149428680.219   157026686.719          47.199          47.853          45.431         129.743         100.369         105.415  
C10  39585058.099    39585075.668    39585061.246   206129792.219   159392703.539   167497353.147          40.193          42.450          40.203        1441.248        1114.281        1171.187  
C13  38418615.829    38418636.750    38418620.822   200055812.140   154695927.503   162561762.319          41.063          39.761          38.490       -1908.356       -1475.747       -1550.798  
C16  36754418.672    36754436.798    36754421.986   191389903.191   147994887.874   155519988.578          49.348          47.371          45.137         140.078         108.449         114.033  
C25  23794534.556           0.000    23794537.749   123904386.097           0.000   100682481.006          46.845           0.000          48.298       -2435.160           0.000       -1978.730  
C32  22561378.975           0.000    22561386.395   117483020.978           0.000    95464610.131          51.922           0.000          51.861        1600.192           0.000        1300.355  
> 2019 10 28 08 38  0.0000000  0 26
G10  20354776.078    20354777.174    20354831.531   106965071.528    83349433.510    79876730.108          52.416          43.258          54.965        1057.166         824.385         789.508  
G12  22049068.554    22049067.358           0.000   115868640.349    90287264.900           0.000          48.371          34.595           0.000         500.287         390.512           0.000  
G14  23748522.163    23748521.794           0.000   124799330.126    97246277.842           0.000          41.852          28.906           0.000        1864.472        1452.852           0.000  
G15  24917726.133           0.000           0.000   130943534.301           0.000           0.000          34.742           0.000           0.000       -2468.705           0.000           0.000  
G20  20164318.389    20164317.377           0.000   105964210.522    82569523.204           0.000          48.101          40.142           0.000       -1280.054        -996.787           0.000  
G21  23602047.644    23602048.395           0.000   124029579.514    96646482.876           0.000          44.797          30.273           0.000       -2682.720       -2090.027           0.000  
G24  22500209.603    22500210.971    22500268.796   118239397.926    92134609.972    88295885.012          42.095          32.037          52.705       -3050.115       -2377.093       -2277.597  
G25  22051946.006    22051948.162    22052005.287   115883760.120    90299060.927    86536810.415          45.268          32.817          51.397        2759.778        2150.600        2060.876  
G31  23339602.661    23339601.972           0.000   122650437.141    95571832.000           0.000          46.056          29.966           0.000        3172.811        2472.816           0.000  
G32  21928448.426    21928450.596    21928503.844   115234776.856    89793362.275    86052162.954          48.822          39.340          51.934        1512.995        1179.240        1129.878  
R01  23575493.618    23575513.984   126024524.236    98019177.183          43.377          35.691       -2707.169       -2105.362  
R02  19915054.904    19915073.112   106270551.913    82654942.854          53.101          46.894           7.972           5.853  
R03  21196783.166    21196801.311   113468027.218    88252991.611          51.238          49.340        2606.678        2027.275  
R10  22638694.332           0.000   120761939.462           0.000          43.718           0.000       -3899.277           0.000  
R12  20315352.261    20315371.069   108520958.443    84405266.668          53.312          47.978       -2422.735       -1884.522  
R13  19561632.435    19561650.706   104458015.524    81245206.570          46.029          41.055        1939.140        1508.333  
R14  23096867.632    23096889.161   123119326.348    95759579.117          49.619          40.903        4302.128        3346.009  
C06  36570840.008    36570851.878    36570839.364   190433963.106   147255666.809   154743192.424          48.360          47.603          46.942         168.889         130.622         137.271  
C07  38094803.993    38094815.624    38094802.419   198369642.052   153392042.123   161191582.376          44.138          45.535          45.091        1473.228        1139.106        1197.000  
C08  39859759.982    39859775.980    39859762.668   207560226.464   160498806.732   168659698.075          40.775          43.391          41.620       -1895.717       -1465.701       -1540.563  
C09  37110379.915    37110394.833    37110379.717   193243487.311   149428183.624   157026164.868          47.186          47.433          45.461         129.965         100.466         105.695  
C10  39583675.582    39583693.582    39583678.611   206122593.530   159387137.077   167491503.651          39.519          42.241          39.991        1441.135        1114.313        1170.952  
C13  38420449.714    38420470.554    38420454.877   200065362.184   154703312.191   162569522.496          40.734          39.421          38.043       -1908.789       -1475.819       -1550.850  
C16  36754285.642    36754303.006    36754288.319   191389208.530   147994350.735   155519424.115          49.250          47.102          45.123         140.488         108.579         114.224  
C25  23796874.610           0.000    23796877.879   123916571.995           0.000   100692383.043          46.886           0.000          48.413       -2436.646           0.000       -1979.832  
C32  22559844.393           0.000    22559851.775   117475029.996           0.000    95458116.811          52.155           0.000          51.755        1598.965           0.000        1299.350  
> 2019 10 28 08 38  5.0000000  0 26
G10  20353772.885    20353773.951    20353828.246   106959799.455    83345325.393    79872793.169          52.610          43.538          55.027        1055.124         822.197         787.881  
G12  22048595.298    22048594.526           0.000   115866154.444    90285327.832           0.000          48.515          35.361           0.000         497.592         388.038           0.000  
G14  23746749.658    23746749.345           0.000   124790015.381    97239019.622           0.000          42.238          27.981           0.000        1864.850        1452.720           0.000  
G15  24920076.388           0.000           0.000   130955885.129           0.000           0.000          35.199           0.000           0.000       -2468.230           0.000           0.000  
G20  20165539.108    20165538.001           0.000   105970625.513    82574521.895           0.000          47.934          40.121           0.000       -1282.475        -999.463           0.000  
G21  23604601.597    23604603.173           0.000   124043001.090    96656941.197           0.000          44.567          29.489           0.000       -2682.384       -2090.123           0.000  
G24  22503113.124    22503115.097    22503172.632   118254657.811    92146500.777    88307280.380          42.096          31.587          52.710       -3050.171       -2376.972       -2277.763  
G25  22049322.370    22049324.770    22049381.766   115869973.629    90288318.212    86526515.313          45.386          33.418          51.496        2758.241        2149.231        2059.839  
G31  23336586.008    23336585.946           0.000   122634584.451    95559479.255           0.000          45.170          30.712           0.000        3171.883        2471.906           0.000  
G32  21927010.545    21927012.330    21927065.786   115227220.183    89787473.953    86046519.966          48.290          39.390          51.837        1513.036        1178.727        1129.964  
R01  23578027.416    23578048.847   126038071.607    98029714.064          42.839          35.856       -2708.161       -2106.516  
R02  19915049.870    19915068.589   106270526.639    82654923.201          52.696          46.405           6.637           4.737  
R03  21194350.181    21194368.631   113455004.096    88242862.528          51.371          49.949        2606.885        2027.278  
R10  22642351.310           0.000   120781446.854           0.000          43.234           0.000       -3900.261           0.000  
R12  20317623.603    20317642.107   108533089.514    84414701.946          53.069          48.433       -2425.438       -1886.863  
R13  19559819.671    19559837.871   104448337.076    81237678.884          45.760          40.775        1935.720        1505.537  
R14  23092834.424    23092856.437   123097826.521    95742857.094          49.902          41.220        4301.932        3345.497  
C06  36570679.277    36570690.988    36570678.738   190433125.637   147255019.231   154742511.921          48.430          48.541          46.822         169.689         131.059         137.766  
C07  38093391.043    38093403.098    38093389.692   198362285.536   153386353.613   161185604.620          44.283          46.084          45.144        1473.300        1139.152        1197.104  
C08  39861581.859    39861597.228    39861584.420   207569712.287   160506141.767   168667406.084          40.847          44.137          42.097       -1895.081       -1465.385       -1540.043  
C09  37110256.178    37110271.599    37110256.283   193242844.322   149427686.427   157025642.392          47.055          48.155          45.588         130.838         101.232         106.297  
C10  39582293.479    39582310.656    39582296.079   206115395.851   159381571.430   167485654.992          39.602          42.923          40.028        1441.662        1114.661        1171.390  
C13  38422283.823    38422304.757    38422289.619   200074914.288   154710698.488   162577284.373          40.311          40.461          38.751       -1908.409       -1475.597       -1550.786  
C16  36754151.963    36754169.348    36754154.796   191388513.208   147993813.064   155518859.135          49.154          47.824          45.140         141.372         109.171         114.620  
C25  23799215.833           0.000    23799219.364   123928765.647           0.000   100702291.390          46.633           0.000          48.272       -2437.501           0.000       -1980.661  
C32  22558311.239           0.000    22558318.507   117467045.666           0.000    95451628.898          52.420           0.000          51.723        1598.359           0.000        1298.740  
> 2019 10 28 08 38 10.0000000  0 30
G10  20352772.177    20352773.178    20352827.809   106954541.366    83341228.187    79868866.690          52.707          43.429          55.315        1052.135         819.828         785.427  
G12  22048125.743    22048124.380           0.000   115863685.529    90283404.011           0.000          47.942          34.906           0.000         493.867         384.897           0.000  
G14  23744977.256    23744976.807           0.000   124780702.131    97231762.544           0.000          42.313          28.746           0.000        1864.461        1453.439           0.000  
G15  24922426.872           0.000           0.000   130968237.768           0.000           0.000          35.763           0.000           0.000       -2468.900           0.000           0.000  
G20  20166762.624    20166761.494           0.000   105977055.855    82579532.557           0.000          47.775          39.633           0.000       -1285.682       -1001.635           0.000  
G21  23607155.888    23607157.238           0.000   124056424.675    96667401.108           0.000          44.212          29.640           0.000       -2683.061       -2090.305           0.000  
G24  22506017.988    22506019.307    22506077.280   118269922.297    92158395.173    88318679.164          42.529          31.585          52.875       -3051.411       -2377.526       -2278.838  
G25  22046701.026    22046703.193    22046760.290   115856197.014    90277583.198    86516227.615          45.216          33.596          51.746        2756.281        2147.655        2058.046  
G31  23333570.770    23333570.155           0.000   122618739.811    95547132.814           0.000          45.170          29.912           0.000        3169.980        2469.953           0.000  
G32  21925573.007    21925574.917    21925628.131   115219666.351    89781587.847    86040879.131          48.126          38.791          51.862        1512.419        1178.943        1129.144  
R01  23580563.573    23580583.984   126051626.769    98040256.947          42.136          33.960       -2709.790       -2107.723  
R02  19915047.099    19915065.612   106270512.470    82654912.174          53.143          46.444           3.543           2.917  
R03  21191917.435    21191936.261   113441983.898    88232735.697          51.114          49.791        2605.604        2026.691  
R10  22646010.379           0.000   120800962.720           0.000          44.193           0.000       -3902.084           0.000  
R12  20319897.853    20319916.356   108545238.252    84424150.957          52.907          48.744       -2429.545       -1889.625  
R13  19558010.978    19558030.413   104438679.252    81230167.247          46.083          40.191        1931.485        1502.260  
R14  23088801.786    23088823.781   123076332.317    95726139.419          49.954          40.969        4300.001        3344.616  
C01  37495153.179    37495162.089    37495151.881   195247097.517   150977486.125   158654261.357          45.372          48.148          44.642          19.414          14.906          15.705  
C03  36765682.471    36765695.191    36765684.387   191448549.793   148040222.255   155567642.412          47.214          47.557          45.123          -5.835          -4.444          -4.823  
C04  38833839.006    38833851.969    38833839.903   202217990.530   156367834.231   164318687.570          42.013          44.107          41.563           5.863           4.595           4.725  
C05  39433317.068    39433331.938    39433321.080   205339628.612   158781694.302   166855289.111          40.582          44.838          43.406         -21.261         -16.486         -17.373  
C06  36570518.022    36570530.046    36570517.672   190432287.230   147254370.915   154741830.633          48.516          48.609          46.711         169.344         130.995         137.692  
C07  38091979.243    38091990.350    38091977.305   198354931.425   153380666.949   161179628.799          44.166          46.154          45.020        1472.091        1138.340        1196.183  
C08  39863403.684    39863419.574    39863406.002   207579197.993   160513476.723   168675113.978          41.143          44.441          41.705       -1895.572       -1465.868       -1540.296  
C09  37110132.498    37110147.689    37110132.437   193242200.365   149427188.486   157025119.123          47.115          48.471          45.486         130.441         101.014         106.157  
C10  39580911.057    39580928.734    39580914.097   206108199.088   159376006.442   167479807.044          39.708          43.317          39.851        1440.776        1114.281        1170.959  
C13  38424118.477    38424139.207    38424124.272   200084468.310   154718086.263   162585047.791          39.811          40.246          37.958       -1909.767       -1476.635       -1551.514  
C16  36754017.886    36754035.493    36754021.460   191387817.022   147993274.718   155518293.424          49.225          47.695          45.033         140.916         109.029         114.340  
C25  23801559.500           0.000    23801562.407   123940966.855           0.000   100712205.879          46.505           0.000          48.105       -2439.331           0.000       -1982.128  
C32  22556779.201           0.000    22556786.128   117459067.798           0.000    95445146.222          52.777           0.000          51.593        1596.441           0.000        1297.395  
> 2019 10 28 08 38 15.0000000  0 30
G10  20351774.130    20351775.309    20351829.792   106949297.104    83337141.753    79864950.509          52.234          43.374          55.263        1049.250         817.989         783.603  
G12  22047659.128    22047657.893           0.000   115861233.384    90281493.271           0.000          48.294          34.743           0.000         490.568         382.065           0.000  
G14  23743205.402    23743204.848           0.000   124771390.104    97224506.438           0.000          42.245          28.617           0.000        1864.179        1452.652           0.000  
G15  24924777.940           0.000           0.000   130980591.878           0.000           0.000          37.535           0.000           0.000       -2469.086           0.000           0.000  
G20  20167989.132    20167988.057           0.000   105983501.348    82584555.018           0.000          47.853          39.511           0.000       -1288.856       -1004.562           0.000  
G21  23609711.050    23609711.718           0.000   124069850.031    96677862.383           0.000          44.687          28.773           0.000       -2683.347       -2090.499           0.000  
G24  22508923.337    22508925.615    22508982.788   118285191.105    92170292.955    88330081.184          42.665          31.675          52.988       -3052.389       -2378.443       -2279.189  
G25  22044081.226    22044083.602    22044140.386   115842430.113    90266855.758    86505947.138          44.923          32.809          51.933        2754.150        2145.679        2056.741  
G31  23330557.158    23330557.208           0.000   122602903.049    95534792.516           0.000          45.576          30.441           0.000        3168.309        2469.021           0.000  
G32  21924136.138    21924138.187    21924191.226   115212115.187    89775703.824    86035240.262          48.325          38.728          52.010        1511.761        1177.950        1129.006  
R01  23583100.966    23583121.386   126065189.599    98050805.780          42.719          34.896       -2711.367       -2108.829  
R02  19915046.046    19915065.078   106270508.999    82654909.479          53.905          47.128           1.288           1.153  
R03  21189485.673    21189504.571   113428966.410    88222610.991          50.568          49.699        2605.253        2026.255  
R10  22649670.146           0.000   120820486.735           0.000          44.651           0.000       -3903.765           0.000  
R12  20322175.253    20322194.061   108557404.553    84433613.644          52.604          48.875       -2433.261       -1892.384  
R13  19556206.492    19556224.942   104429041.912    81222671.537          45.646          40.127        1927.296        1499.090  
R14  23084770.544    23084792.181   123054843.531    95709425.971          50.142          41.411        4298.783        3343.697  
C01  37495136.474    37495145.075    37495134.924   195247009.148   150977417.792   158654189.555          45.241          47.831          44.656          19.550          15.053          15.829  
C03  36765689.721    36765702.583    36765691.640   191448587.723   148040251.585   155567673.230          47.059          47.424          45.019          -5.590          -4.373          -4.722  
C04  38833835.118    38833847.798    38833835.828   202217969.516   156367818.011   164318670.501          42.107          43.817          42.094           6.143           4.608           4.936  
C05  39433338.973    39433353.944    39433343.104   205339743.781   158781783.350   166855382.681          40.049          44.521          43.374         -21.131         -16.496         -17.247  
C06  36570357.094    36570368.878    36570356.667   190431447.707   147253721.745   154741148.469          48.491          48.208          46.728         169.915         131.304         137.962  
C07  38090566.607    38090578.816    38090565.417   198347579.420   153374981.919   161173654.718          44.388          45.721          44.982        1472.176        1138.322        1196.119  
C08  39865224.957    39865241.140    39865227.667   207588683.314   160520811.373   168682821.548          41.036          44.101          42.192       -1895.035       -1465.745       -1539.613  
C09  37110008.951    37110024.013    37110008.681   193241555.251   149426689.644   157024594.915          46.818          48.159          45.441         130.972         101.114         106.515  
C10  39579528.305    39579546.661    39579531.882   206101002.894   159370441.947   167473959.567          39.772          42.547          39.848        1441.164        1114.045        1171.086  
C13  38425953.276    38425974.027    38425959.649   200094023.997   154725475.328   162592812.573          39.318          40.334          38.305       -1909.298       -1476.754       -1551.363  
C16  36753884.172    36753901.406    36753887.359   191387119.717   147992735.534   155517726.806          49.002          47.652          45.069         141.487         109.268         114.814  
C25  23803904.089           0.000    23803906.799   123953175.383           0.000   100722126.305          46.482           0.000          48.090       -2440.352           0.000       -1983.167  
C32  22555248.503           0.000    22555255.053   117451096.142           0.000    95438668.598          52.643           0.000          51.621        1595.573           0.000        1296.600  
> 2019 10 28 08 38 20.0000000  0 30
G10  20350778.797    20350780.158    20350834.651   106944067.204    83333066.507    79861045.069          51.701          43.286          55.141        1047.725         816.530         782.457  
G12  22047196.081    22047194.959           0.000   115858798.590    90279596.032           0.000          48.961          34.777           0.000         488.438         380.585           0.000  
G14  23741433.733    23741433.523           0.000   124762079.926    97217251.743           0.000          41.947          28.068           0.000        1865.021        1452.941           0.000  
G15  24927129.007           0.000           0.000   130992948.135           0.000           0.000          37.520           0.000           0.000       -2468.268           0.000           0.000  
G20  20169218.607    20169217.856           0.000   105989962.556    82589589.722           0.000          48.010          39.506           0.000       -1290.596       -1005.469           0.000  
G21  23612266.387    23612267.688           0.000   124083277.745    96688325.524           0.000          44.434          29.371           0.000       -2682.568       -2089.906           0.000  
G24  22511829.760    22511832.325    22511889.266   118300464.911    92182194.608    88341486.955          42.632          32.254          52.703       -3052.134       -2377.858       -2279.111  
G25  22041463.239    22041465.625    22041522.571   115828673.469    90256136.302    86495674.348          44.530          33.428          51.805        2753.691        2145.503        2056.201  
G31  23327545.069    23327545.218           0.000   122587074.682    95522458.741           0.000          45.831          30.502           0.000        3167.952        2468.721           0.000  
G32  21922699.630    21922701.423    21922754.860   115204567.238    89769822.312    86029603.817          48.048          38.522          51.722        1512.495        1178.704        1129.479  
R01  23585639.615    23585660.214   126078760.738    98061361.085          41.859          35.577       -2711.759       -2109.026  
R02  19915047.422    19915066.839   106270517.023    82654915.706          53.545          47.429           0.151           0.422  
R03  21187054.693    21187073.528   113415952.213    88212488.839          50.970          49.808        2605.276        2026.719  
R10  22653331.474           0.000   120840019.305           0.000          44.393           0.000       -3904.105           0.000  
R12  20324455.744    20324474.758   108569588.952    84443090.408          52.987          48.442       -2435.946       -1894.240  
R13  19554405.643    19554424.066   104419425.645    81215192.237          45.806          40.556        1924.417        1496.685  
R14  23080740.622    23080762.456   123033360.740    95692717.185          50.775          40.841        4299.004        3343.746  
C01  37495119.480    37495128.394    37495117.941   195246921.838   150977350.285   158654118.619          44.978          47.071          44.515          20.673          15.817          16.522  
C03  36765697.208    36765710.136    36765699.084   191448626.720   148040281.733   155567704.917          46.975          46.936          45.247          -4.730          -3.690          -3.905  
C04  38833831.273    38833843.782    38833831.904   202217949.583   156367802.589   164318654.301          41.774          42.975          41.807           7.172           5.621           5.812  
C05  39433361.456    39433376.284    39433365.524   205339860.044   158781873.251   166855477.172          39.851          44.055          43.165         -19.857         -15.588         -16.157  
C06  36570195.422    36570207.969    36570195.353   190430607.669   147253072.163   154740465.853          48.278          47.509          46.636         171.304         132.469         139.190  
C07  38089155.810    38089167.606    38089153.837   198340230.228   153369299.058   161167682.890          44.511          45.195          44.931        1472.981        1138.851        1196.893  
C08  39867046.210    39867063.236    39867049.092   207598168.869   160528146.198   168690529.360          40.820          43.517          41.677       -1893.870       -1464.872       -1538.831  
C09  37109884.769    37109899.635    37109884.716   193240909.517   149426190.327   157024070.212          46.757          47.431          45.468         132.342         102.179         107.504  
C10  39578146.855    39578164.480    39578150.255   206093807.964   159364878.367   167468113.120          39.569          41.630          39.718        1442.354        1115.036        1171.787  
C13  38427789.005    38427810.408    38427795.094   200103582.020   154732866.185   162600579.253          39.720          39.733          37.907       -1908.839       -1475.980       -1550.719  
C16  36753749.912    36753767.355    36753753.336   191386421.906   147992195.936   155517159.778          48.933          46.726          45.211         142.865         110.387         115.993  
C25  23806250.121           0.000    23806253.142   123965391.798           0.000   100732053.148          46.394           0.000          48.304       -2440.715           0.000       -1983.349  
C32  22553719.085           0.000    22553725.474   117443131.332           0.000    95432196.542          52.645           0.000          51.631        1595.609           0.000        1296.551  
> 2019 10 28 08 38 25.0000000  0 30
G10  20349786.145    20349787.397    20349841.977   106938850.293    83329001.379    79857149.332          52.009          43.604          55.341        1044.916         814.323         780.182  
G12  22046735.739    22046734.914           0.000   115856379.796    90277711.261           0.000          48.877          35.612           0.000         484.974         378.174           0.000  
G14  23739662.497    23739661.708           0.000   124752770.180    97209997.392           0.000          41.988          29.600           0.000        1864.839        1452.607           0.000  
G15  24929480.252           0.000           0.000   131005305.079           0.000           0.000          36.024           0.000           0.000       -2468.639           0.000           0.000  
G20  20170450.932    20170450.024           0.000   105996438.080    82594635.585           0.000          48.136          39.859           0.000       -1293.688       -1008.312           0.000  
G21  23614821.883    23614822.696           0.000   124096706.392    96698789.399           0.000          44.484          29.692           0.000       -2682.973       -2090.400           0.000  
G24  22514736.771    22514739.214    22514796.234   118315742.104    92194098.905    88352895.254          43.203          33.129          53.012       -3053.072       -2379.155       -2279.913  
G25  22038847.230    22038849.376    22038906.525   115814925.756    90245423.810    86485408.211          44.422          33.208          52.059        2751.481        2143.810        2054.597  
G31  23324534.499    23324533.426           0.000   122571253.387    95510130.486           0.000          45.802          30.143           0.000        3166.301        2467.464           0.000  
G32  21921263.519    21921265.757    21921319.226   115197021.115    89763942.229    86023968.738          48.110          39.027          52.169        1511.807        1178.045        1128.804  
R01  23588179.842    23588201.327   126092338.666    98071921.704          41.609          36.011       -2713.322       -2110.374  
R02  19915051.217    19915070.348   106270535.062    82654929.752          53.527          46.669          -1.327          -1.358  
R03  21184623.072    21184642.506   113402939.830    88202368.113          50.226          49.451        2605.654        2026.247  
R10  22656995.096           0.000   120859559.062           0.000          43.087           0.000       -3905.825           0.000  
R12  20326739.022    20326758.797   108581789.989    84452580.105          52.687          47.422       -2439.054       -1896.958  
R13  19552608.807    19552627.114   104409829.114    81207728.283          45.541          40.426        1920.373        1493.466  
R14  23076711.302    23076732.392   123011882.488    95676011.922          50.724          40.649        4298.147        3342.937  
C01  37495102.354    37495111.592    37495101.144   195246834.193   150977282.495   158654047.375          45.273          47.579          44.472          20.098          15.663          16.407  
C03  36765704.495    36765717.367    36765706.476   191448665.375   148040311.632   155567736.337          47.039          47.245          45.156          -4.917          -3.844          -4.201  
C04  38833827.499    38833839.852    38833828.052   202217929.324   156367786.932   164318637.828          41.806          43.249          42.102           6.752           5.270           5.510  
C05  39433383.390    39433398.770    39433387.885   205339976.069   158781962.983   166855571.454          40.165          44.032          43.361         -20.519         -15.969         -16.770  
C06  36570033.773    36570046.171    36570033.574   190429765.655   147252421.079   154739781.650          48.305          48.059          46.765         171.226         132.411         139.282  
C07  38087744.510    38087756.583    38087742.681   198332882.449   153363617.274   161161712.205          44.509          45.312          45.209        1471.982        1138.474        1196.192  
C08  39868867.842    39868884.586    39868870.647   207607653.185   160535480.054   168698236.132          41.203          43.704          41.884       -1893.901       -1464.429       -1538.910  
C09  37109760.465    37109775.552    37109760.473   193240261.793   149425689.455   157023543.878          46.855          47.846          45.610         132.293         102.263         107.457  
C10  39576765.343    39576782.821    39576768.639   206086612.836   159359314.667   167462266.517          39.578          42.215          39.838        1441.833        1114.858        1171.583  
C13  38429624.581    38429644.787    38429630.826   200113140.880   154740257.698   162608346.596          39.528          39.304          37.355       -1909.204       -1476.149       -1551.367  
C16  36753615.607    36753633.091    36753618.965   191385722.178   147991654.868   155516591.191          48.839          47.305          45.267         142.979         110.381         116.024  
C25  23808597.116           0.000    23808600.560   123977614.697           0.000   100741985.259          46.174           0.000          48.381       -2442.587           0.000       -1984.833  
C32  22552190.752           0.000    22552197.056   117435171.975           0.000    95425728.915          52.715           0.000          51.636        1594.008           0.000        1295.248  
